     3.03           OBSERVATION DATA    M: Mixed            RINEX VERSION / TYPE
GNSS-SDRLIB v1.1                        20230821 043627 UTC PGM / RUN BY / DATE 
                                                            MARKER NAME         
                                                            MARKER NUMBER       
                                                            MARKER TYPE         
                                                            OBSERVER / AGENCY   
GNSS-SDRLIB         GNSS-SDRLIB         1.1                 REC # / TYPE / VERS 
                                                            ANT # / TYPE        
        0.0000        0.0000        0.0000                  APPROX POSITION XYZ 
        0.0000        0.0000        0.0000                  ANTENNA: DELTA H/E/N
G    4 C1C L1C D1C S1C                                      SYS / # / OBS TYPES 
R    4 C1C L1C D1C S1C                                      SYS / # / OBS TYPES 
E    4 C1C L1C D1C S1C                                      SYS / # / OBS TYPES 
J    4 C1C L1C D1C S1C                                      SYS / # / OBS TYPES 
S    4 C1C L1C D1C S1C                                      SYS / # / OBS TYPES 
C    4 C1C L1C D1C S1C                                      SYS / # / OBS TYPES 
I    4 C1C L1C D1C S1C                                      SYS / # / OBS TYPES 
  1970    01    01    00    00   00.0000000     GPS         TIME OF FIRST OBS   
  1970    01    01    00    00   00.0000000     GPS         TIME OF LAST OBS    
G L1C                                                       SYS / PHASE SHIFT   
R L1C                                                       SYS / PHASE SHIFT   
E L1C  0.00000                                              SYS / PHASE SHIFT   
J L1C                                                       SYS / PHASE SHIFT   
S L1C                                                       SYS / PHASE SHIFT   
C L1C  0.00000                                              SYS / PHASE SHIFT   
I L1C  0.00000                                              SYS / PHASE SHIFT   
  0                                                         GLONASS SLOT / FRQ #
 C1C    0.000 C1P    0.000 C2C    0.000 C2P    0.000        GLONASS COD/PHS/BIS 
                                                            END OF HEADER       
> 2023 05 18 00 00 36.0688020  0  1                     
G06  20627166.865       -5760.993        -481.175           0.255  
> 2023 05 18 00 00 36.0688020  0  3                     
G04  23581228.860      -41052.991       -2116.274           0.244  
G05  22535954.502       42027.120        2047.982           0.255  
G06  20627166.865       -5760.993        -481.175           0.255  
> 2023 05 18 00 00 36.0688020  0  4                     
G03  22335911.440      -11016.930        -508.606           0.255  
G04  23581228.860      -41052.991       -2116.274           0.244  
G05  22535954.502       42027.120        2047.982           0.255  
G06  20627166.865       -5760.993        -481.175           0.255  
> 2023 05 18 00 00 36.0688020  0  5                     
G02  24268638.028       86644.072        2905.548           0.239  
G03  22335911.440      -11016.894        -501.208           0.255  
G04  23581228.860      -41052.991       -2116.274           0.244  
G05  22535954.502       42027.120        2047.982           0.255  
G06  20627166.865       -5760.993        -481.175           0.255  
> 2023 05 18 00 00 36.1688020  0  5                     
G02  24268565.128       86934.688        2905.358           0.239  
G03  22335925.010      -11066.962        -499.862           0.255  
G04  23581282.005      -41264.703       -2116.339           0.244  
G05  22535902.043       42231.928        2048.503           0.255  
G06  20627178.177       -5809.162        -482.028           0.255  
> 2023 05 18 00 00 36.2688020  0  5                     
G02  24268491.287       87225.284        2906.108           0.239  
G03  22335938.075      -11117.039        -500.402           0.255  
G04  23581334.908      -41476.417       -2117.418           0.244  
G05  22535849.804       42436.724        2048.288           0.255  
G06  20627190.512       -5857.335        -481.946           0.255  
> 2023 05 18 00 00 36.3688020  0  5                     
G02  24268416.020       87515.899        2908.551           0.239  
G03  22335950.878      -11167.113        -500.722           0.255  
G04  23581388.985      -41688.134       -2118.357           0.244  
G05  22535797.451       42641.522        2047.836           0.255  
G06  20627202.801       -5905.517        -482.112           0.255  
> 2023 05 18 00 00 36.4688020  0  5                     
G02  24268342.755       87806.499        2907.337           0.239  
G03  22335964.070      -11217.186        -500.034           0.255  
G04  23581443.095      -41899.845       -2118.366           0.244  
G05  22535745.272       42846.315        2047.726           0.255  
G06  20627214.943       -5953.700        -482.294           0.255  
> 2023 05 18 00 00 36.5688020  0  5                     
G02  24268268.432       88097.101        2905.189           0.239  
G03  22335977.040      -11267.277        -500.460           0.255  
G04  23581496.977      -42111.549       -2116.346           0.244  
G05  22535692.964       43051.107        2048.251           0.255  
G06  20627226.879       -6001.877        -482.007           0.255  
> 2023 05 18 00 00 36.6688020  0  5                     
G02  24268195.213       88387.675        2903.850           0.239  
G03  22335989.405      -11317.373        -500.825           0.255  
G04  23581550.223      -42323.236       -2114.810           0.244  
G05  22535640.903       43255.899        2048.055           0.255  
G06  20627239.224       -6050.063        -481.905           0.255  
> 2023 05 18 00 00 36.7688020  0  5                     
G02  24268120.741       88678.292        2906.547           0.239  
G03  22336002.157      -11367.473        -501.206           0.255  
G04  23581604.536      -42534.963       -2117.338           0.244  
G05  22535588.485       43460.683        2047.721           0.255  
G06  20627251.865       -6098.248        -481.694           0.255  
> 2023 05 18 00 00 36.8688020  0  5                     
G02  24268046.192       88968.891        2906.878           0.239  
G03  22336014.813      -11417.682        -512.674           0.255  
G04  23581659.839      -42746.671       -2117.994           0.244  
G05  22535536.368       43665.467        2047.475           0.255  
G06  20627263.990       -6146.443        -481.890           0.255  
> 2023 05 18 00 00 36.9688020  0  5                     
G02  24267972.037       89259.521        2908.569           0.239  
G03  22336027.213      -11467.673        -500.946           0.255  
G04  23581713.027      -42958.401       -2119.153           0.244  
G05  22535484.557       43870.250        2047.703           0.255  
G06  20627276.711       -6194.645        -481.953           0.255  
> 2023 05 18 00 00 37.0688020  0  5                     
G02  24267897.572       89550.089        2902.957           0.239  
G03  22336039.620      -11517.783        -501.066           0.255  
G04  23581767.154      -43170.095       -2114.534           0.244  
G05  22535432.404       44075.037        2048.138           0.255  
G06  20627289.408       -6242.845        -481.905           0.255  
> 2023 05 18 00 00 37.1688020  0  5                     
G02  24267823.315       89840.693        2905.735           0.239  
G03  22336053.020      -11567.907        -501.861           0.255  
G04  23581820.829      -43381.803       -2116.764           0.244  
G05  22535379.996       44279.813        2047.682           0.255  
G06  20627301.346       -6291.053        -482.247           0.255  
> 2023 05 18 00 00 37.2688020  0  5                     
G02  24267749.886       90131.296        2904.751           0.239  
G03  22336065.289      -11618.021        -499.886           0.255  
G04  23581875.416      -43593.519       -2116.356           0.244  
G05  22535327.473       44484.590        2047.279           0.255  
G06  20627313.965       -6339.255        -482.691           0.255  
> 2023 05 18 00 00 37.3688020  0  5                     
G02  24267675.034       90421.891        2905.253           0.239  
G03  22336077.512      -11668.146        -500.828           0.255  
G04  23581929.277      -43805.111       -2088.118           0.244  
G05  22535275.507       44689.348        2038.792           0.255  
G06  20627325.934       -6387.466        -482.402           0.255  
> 2023 05 18 00 00 37.4688020  0  5                     
G02  24267602.133       90712.504        2905.953           0.239  
G03  22336090.720      -11717.927        -479.544           0.255  
G04  23581982.261      -44016.761       -2109.171           0.244  
G05  22535223.436       44894.513        2121.762           0.255  
G06  20627338.110       -6435.680        -482.022           0.255  
> 2023 05 18 00 00 37.5688020  0  5                     
G02  24267528.007       91003.113        2907.531           0.239  
G03  22336103.676      -11768.388        -500.910           0.255  
G04  23582036.719      -44228.368       -2101.909           0.244  
G05  22535171.204       45098.911        2060.486           0.255  
G06  20627350.064       -6483.901        -482.579           0.255  
> 2023 05 18 00 00 37.6688020  0  5                     
G02  24267454.574       91293.703        2906.573           0.240  
G03  22336115.541      -11818.492        -490.500           0.255  
G04  23582090.018      -44440.271       -2153.878           0.244  
G05  22535119.265       45303.288        1986.877           0.255  
G06  20627362.916       -6532.119        -482.680           0.255  
> 2023 05 18 00 00 37.7688020  0  5                     
G02  24267379.854       91584.300        2906.849           0.240  
G03  22336129.569      -11868.669        -501.289           0.255  
G04  23582143.852      -44652.109       -2118.106           0.244  
G05  22535067.063       45508.438        2047.213           0.255  
G06  20627374.321       -6580.342        -482.280           0.255  
> 2023 05 18 00 00 37.8688020  0  5                     
G02  24267306.918       91874.887        2906.956           0.239  
G03  22336140.621      -11918.816        -501.391           0.255  
G04  23582197.670      -44863.835       -2118.223           0.244  
G05  22535014.705       45713.210        2047.554           0.255  
G06  20627387.759       -6628.572        -482.023           0.255  
> 2023 05 18 00 00 37.9688020  0  5                     
G02  24267231.786       92165.499        2906.213           0.239  
G03  22336155.592      -11968.967        -501.611           0.255  
G04  23582252.238      -45075.572       -2116.812           0.244  
G05  22534962.734       45917.975        2048.042           0.255  
G06  20627399.009       -6676.803        -482.271           0.255  
> 2023 05 18 00 00 38.0688020  0  5                     
G02  24267158.150       92456.091        2905.716           0.239  
G03  22336168.557      -12019.122        -501.255           0.255  
G04  23582306.605      -45287.298       -2116.882           0.244  
G05  22534910.502       46122.732        2047.512           0.255  
G06  20627411.304       -6725.034        -482.195           0.255  
> 2023 05 18 00 00 38.1688020  0  5                     
G02  24267083.232       92746.684        2904.681           0.239  
G03  22336182.321      -12069.279        -501.598           0.255  
G04  23582360.602      -45499.043       -2117.461           0.244  
G05  22534858.268       46327.478        2047.485           0.255  
G06  20627423.452       -6773.275        -482.189           0.255  
> 2023 05 18 00 00 38.2688020  0  5                     
G02  24267009.577       93037.285        2906.069           0.239  
G03  22336194.882      -12119.496        -506.303           0.255  
G04  23582414.451      -45710.759       -2117.364           0.244  
G05  22534806.117       46532.235        2047.694           0.255  
G06  20627435.573       -6821.519        -482.679           0.255  
> 2023 05 18 00 00 38.3688020  0  5                     
G02  24266934.403       93327.874        2906.967           0.239  
G03  22336206.535      -12169.607        -501.749           0.255  
G04  23582469.280      -45922.483       -2117.300           0.244  
G05  22534753.873       46736.986        2048.059           0.255  
G06  20627448.249       -6869.757        -482.112           0.255  
> 2023 05 18 00 00 38.4688020  0  5                     
G02  24266860.113       93618.464        2905.204           0.239  
G03  22336220.887      -12219.783        -501.193           0.255  
G04  23582522.902      -46134.208       -2117.115           0.244  
G05  22534701.916       46941.726        2047.697           0.255  
G06  20627459.863       -6918.005        -482.803           0.255  
> 2023 05 18 00 00 38.5688020  0  5                     
G02  24266787.082       93909.067        2906.369           0.239  
G03  22336233.842      -12269.950        -501.070           0.255  
G04  23582576.542      -46345.940       -2117.508           0.244  
G05  22534649.466       47146.475        2047.073           0.255  
G06  20627472.291       -6966.266        -483.009           0.255  
> 2023 05 18 00 00 38.6688020  0  5                     
G02  24266712.296       94199.656        2905.937           0.239  
G03  22336245.944      -12320.256        -519.631           0.255  
G04  23582630.373      -46557.667       -2116.843           0.244  
G05  22534597.398       47351.228        2047.687           0.255  
G06  20627485.248       -7014.515        -482.375           0.255  
> 2023 05 18 00 00 38.7688020  0  5                     
G02  24266639.523       94490.257        2905.527           0.239  
G03  22336257.460      -12370.322        -501.674           0.255  
G04  23582683.870      -46769.407       -2117.330           0.244  
G05  22534545.227       47555.971        2047.991           0.255  
G06  20627497.728       -7062.779        -482.909           0.255  
> 2023 05 18 00 00 38.8688020  0  5                     
G02  24266566.447       94780.857        2906.641           0.239  
G03  22336270.410      -12420.510        -501.738           0.255  
G04  23582736.447      -46981.138       -2117.709           0.244  
G05  22534493.091       47760.710        2047.829           0.255  
G06  20627509.232       -7111.041        -482.738           0.255  
> 2023 05 18 00 00 38.9688020  0  5                     
G02  24266491.386       95071.196        2853.984           0.239  
G03  22336281.566      -12470.742        -501.712           0.255  
G04  23582790.865      -47192.873       -2117.500           0.244  
G05  22534440.830       47965.431        2072.308           0.255  
G06  20627522.864       -7159.303        -482.426           0.255  
> 2023 05 18 00 00 39.0688020  0  5                     
G02  24266417.433       95362.044        2906.203           0.239  
G03  22336294.743      -12520.911        -502.092           0.255  
G04  23582845.201      -47404.602       -2117.037           0.244  
G05  22534388.710       48170.186        2047.498           0.255  
G06  20627534.845       -7207.570        -482.445           0.255  
> 2023 05 18 00 00 39.1688020  0  5                     
G02  24266342.930       95652.626        2906.495           0.239  
G03  22336307.814      -12571.093        -502.196           0.255  
G04  23582900.017      -47616.336       -2117.138           0.244  
G05  22534336.476       48375.123        2085.479           0.255  
G06  20627546.984       -7255.847        -482.703           0.255  
> 2023 05 18 00 00 39.2688020  0  5                     
G02  24266268.671       95943.225        2906.160           0.239  
G03  22336320.028      -12621.320        -502.056           0.255  
G04  23582954.384      -47828.075       -2117.207           0.244  
G05  22534284.028       48579.660        2047.088           0.255  
G06  20627559.160       -7304.118        -482.617           0.255  
> 2023 05 18 00 00 39.3688020  0  5                     
G02  24266194.036       96233.822        2905.521           0.239  
G03  22336331.968      -12671.535        -502.242           0.255  
G04  23583008.413      -48039.925       -2092.171           0.244  
G05  22534231.899       48784.386        2046.257           0.255  
G06  20627571.872       -7352.397        -482.771           0.255  
> 2023 05 18 00 00 39.4688020  0  5                     
G02  24266120.523       96524.424        2906.221           0.239  
G03  22336345.438      -12721.755        -502.127           0.255  
G04  23583062.077      -48251.558       -2116.476           0.244  
G05  22534179.924       48989.548        2117.981           0.255  
G06  20627584.447       -7400.681        -482.880           0.255  
> 2023 05 18 00 00 39.5688020  0  5                     
G02  24266047.758       96815.016        2906.369           0.239  
G03  22336359.584      -12771.970        -501.680           0.255  
G04  23583115.333      -48463.304       -2118.265           0.244  
G05  22534127.584       49193.859        2048.090           0.255  
G06  20627596.427       -7448.969        -483.076           0.255  
> 2023 05 18 00 00 39.6688020  0  5                     
G02  24265973.409       97105.592        2905.608           0.239  
G03  22336371.948      -12822.205        -502.474           0.255  
G04  23583169.813      -48675.029       -2117.365           0.244  
G05  22534075.259       49398.576        2047.088           0.255  
G06  20627609.187       -7497.257        -482.947           0.255  
> 2023 05 18 00 00 39.7688020  0  5                     
G02  24265899.269       97396.204        2904.740           0.239  
G03  22336385.712      -12872.431        -502.414           0.255  
G04  23583224.102      -48886.752       -2112.548           0.243  
G05  22534023.761       49603.297        2046.585           0.255  
G06  20627620.405       -7545.550        -482.967           0.255  
> 2023 05 18 00 00 39.8688020  0  5                     
G02  24265825.149       97686.803        2906.253           0.239  
G03  22336398.867      -12922.668        -503.436           0.255  
G04  23583277.956      -49098.531       -2117.680           0.244  
G05  22533970.782       49808.022        2047.682           0.255  
G06  20627632.891       -7593.848        -483.143           0.255  
> 2023 05 18 00 00 39.9688020  0  5                     
G02  24265750.366       97977.396        2906.195           0.239  
G03  22336411.241      -12972.903        -502.155           0.255  
G04  23583331.408      -49310.264       -2117.567           0.244  
G05  22533919.025       50012.735        2046.752           0.255  
G06  20627645.102       -7642.143        -483.024           0.255  
> 2023 05 18 00 00 40.0688020  0  5                     
G02  24265677.357       98267.993        2905.635           0.239  
G03  22336423.397      -13023.151        -502.371           0.255  
G04  23583385.168      -49521.910       -2095.639           0.244  
G05  22533866.783       50217.451        2046.466           0.255  
G06  20627656.957       -7690.446        -482.887           0.255  
> 2023 05 18 00 00 40.1688020  0  5                     
G02  24265603.600       98558.585        2905.988           0.239  
G03  22336436.084      -13073.404        -502.906           0.255  
G04  23583438.657      -49733.778       -2117.492           0.244  
G05  22533814.425       50422.166        2047.122           0.255  
G06  20627670.655       -7738.749        -482.940           0.255  
> 2023 05 18 00 00 40.2688020  0  5                     
G02  24265526.123       98849.178        2905.176           0.239  
G03  22336448.172      -13123.645        -502.175           0.255  
G04  23583494.352      -49945.531       -2116.889           0.244  
G05  22533762.599       50626.881        2047.602           0.255  
G06  20627681.573       -7787.063        -483.343           0.255  
> 2023 05 18 00 00 40.3688020  0  5                     
G02  24265453.789       99139.790        2907.716           0.239  
G03  22336460.747      -13173.908        -502.741           0.255  
G04  23583547.222      -50157.294       -2118.997           0.244  
G05  22533710.753       50831.590        2047.006           0.255  
G06  20627694.652       -7835.375        -482.844           0.255  
> 2023 05 18 00 00 40.4688020  0  5                     
G02  24265379.805       99430.372        2905.912           0.239  
G03  22336474.376      -13224.170        -502.659           0.255  
G04  23583600.967      -50369.038       -2118.062           0.244  
G05  22533658.500       51036.295        2046.682           0.255  
G06  20627707.220       -7883.690        -482.841           0.255  
> 2023 05 18 00 00 40.5688020  0  5                     
G02  24265305.644       99720.965        2905.116           0.239  
G03  22336488.048      -13274.438        -502.406           0.255  
G04  23583655.332      -50580.788       -2116.847           0.244  
G05  22533606.442       51241.004        2046.981           0.255  
G06  20627718.959       -7932.011        -482.546           0.255  
> 2023 05 18 00 00 40.6688020  0  5                     
G02  24265231.157      100011.559        2904.074           0.239  
G03  22336500.284      -13324.638        -521.611           0.255  
G04  23583708.606      -50792.535       -2115.875           0.243  
G05  22533554.646       51445.291        1967.558           0.255  
G06  20627732.251       -7980.333        -482.724           0.255  
> 2023 05 18 00 00 40.7688020  0  5                     
G02  24265157.747      100302.148        2903.004           0.239  
G03  22336513.940      -13374.982        -503.532           0.255  
G04  23583762.957      -51004.289       -2114.827           0.244  
G05  22533502.045       51650.406        2046.200           0.255  
G06  20627744.044       -8028.666        -483.144           0.255  
> 2023 05 18 00 00 40.8688020  0  5                     
G02  24265084.239      100592.742        2904.468           0.239  
G03  22336525.627      -13425.260        -502.941           0.255  
G04  23583817.045      -51216.175       -2090.765           0.244  
G05  22533449.588       51855.503        2129.669           0.255  
G06  20627756.429       -8076.991        -483.003           0.255  
> 2023 05 18 00 00 40.9688020  0  5                     
G02  24265009.560      100883.338        2904.835           0.239  
G03  22336540.574      -13475.550        -502.503           0.255  
G04  23583871.815      -51427.796       -2116.304           0.244  
G05  22533397.418       52059.813        2047.705           0.255  
G06  20627768.229       -8125.324        -483.118           0.255  
> 2023 05 18 00 00 41.0688020  0  5                     
G02  24264935.414      101173.944        2907.559           0.239  
G03  22336552.635      -13525.802        -492.759           0.255  
G04  23583926.317      -51639.561       -2118.351           0.244  
G05  22533345.368       52264.502        2046.605           0.255  
G06  20627780.371       -8173.669        -483.623           0.255  
> 2023 05 18 00 00 41.1688020  0  5                     
G02  24264861.453      101464.534        2907.297           0.239  
G03  22336565.235      -13576.131        -502.300           0.255  
G04  23583979.757      -51851.317       -2117.982           0.244  
G05  22533292.990       52469.194        2046.828           0.255  
G06  20627793.093       -8222.001        -482.734           0.255  
> 2023 05 18 00 00 41.2688020  0  5                     
G02  24264788.991      101755.128        2907.104           0.239  
G03  22336577.124      -13626.433        -503.004           0.255  
G04  23584032.113      -52063.075       -2117.903           0.244  
G05  22533241.128       52673.885        2047.294           0.255  
G06  20627805.440       -8270.354        -483.538           0.255  
> 2023 05 18 00 00 41.3688020  0  5                     
G02  24264712.409      102045.518        2914.745           0.239  
G03  22336590.348      -13676.806        -529.649           0.255  
G04  23584087.480      -52274.806       -2105.997           0.244  
G05  22533188.811       52878.299        1983.820           0.255  
G06  20627817.464       -8318.695        -483.355           0.255  
> 2023 05 18 00 00 41.4688020  0  5                     
G02  24264640.881      102336.325        2906.419           0.239  
G03  22336602.658      -13727.040        -503.421           0.255  
G04  23584140.429      -52486.609       -2118.155           0.244  
G05  22533136.715       53083.259        2046.663           0.255  
G06  20627830.538       -8367.048        -482.883           0.255  
> 2023 05 18 00 00 41.5688020  0  5                     
G02  24264567.110      102626.908        2905.258           0.239  
G03  22336615.705      -13777.348        -502.591           0.255  
G04  23584194.891      -52698.351       -2117.455           0.244  
G05  22533084.780       53287.941        2046.846           0.255  
G06  20627842.655       -8415.402        -483.294           0.255  
> 2023 05 18 00 00 41.6688020  0  5                     
G02  24264492.558      102917.519        2906.472           0.239  
G03  22336628.531      -13827.668        -503.276           0.255  
G04  23584248.840      -52910.433       -2137.892           0.244  
G05  22533032.389       53492.378        1981.181           0.255  
G06  20627854.490       -8463.763        -483.766           0.255  
> 2023 05 18 00 00 41.7688020  0  5                     
G02  24264417.857      103208.114        2905.283           0.239  
G03  22336641.713      -13877.996        -503.656           0.255  
G04  23584302.604      -53121.893       -2116.897           0.244  
G05  22532980.078       53697.301        2046.304           0.255  
G06  20627866.755       -8512.117        -483.225           0.255  
> 2023 05 18 00 00 41.8688020  0  5                     
G02  24264343.909      103498.698        2906.701           0.239  
G03  22336654.459      -13928.321        -503.684           0.255  
G04  23584356.663      -53333.654       -2118.438           0.244  
G05  22532927.978       53901.981        2046.724           0.255  
G06  20627879.328       -8560.484        -483.688           0.255  
> 2023 05 18 00 00 41.9688020  0  5                     
G02  24264269.143      103789.303        2907.317           0.239  
G03  22336668.119      -13978.651        -503.175           0.255  
G04  23584411.320      -53545.431       -2117.990           0.244  
G05  22532875.765       54106.657        2046.679           0.255  
G06  20627891.692       -8608.856        -484.091           0.255  
> 2023 05 18 00 00 42.0688020  0  5                     
G02  24264194.907      104079.897        2906.505           0.239  
G03  22336679.845      -14028.991        -503.441           0.255  
G04  23584465.341      -53757.198       -2117.875           0.244  
G05  22532824.033       54311.333        2046.537           0.255  
G06  20627904.014       -8657.222        -483.471           0.255  
> 2023 05 18 00 00 42.1688020  0  5                     
G02  24264121.720      104370.481        2905.305           0.239  
G03  22336692.811      -14079.314        -502.951           0.255  
G04  23584519.070      -53968.957       -2117.100           0.244  
G05  22532771.498       54516.007        2047.524           0.255  
G06  20627916.285       -8705.606        -483.743           0.255  
> 2023 05 18 00 00 42.2688020  0  5                     
G02  24264047.858      104661.085        2906.041           0.239  
G03  22336705.565      -14129.657        -503.535           0.255  
G04  23584572.031      -54180.631       -2099.202           0.244  
G05  22532719.319       54720.670        2047.268           0.255  
G06  20627928.733       -8753.985        -483.719           0.255  
> 2023 05 18 00 00 42.3688020  0  5                     
G02  24263973.505      104951.671        2904.396           0.239  
G03  22336717.355      -14179.811        -487.564           0.255  
G04  23584625.997      -54392.501       -2116.550           0.244  
G05  22532667.224       54925.400        2071.899           0.255  
G06  20627941.441       -8802.365        -483.844           0.255  
> 2023 05 18 00 00 42.4688020  0  5                     
G02  24263899.892      105242.274        2906.382           0.239  
G03  22336731.375      -14230.329        -518.851           0.255  
G04  23584679.848      -54604.284       -2118.429           0.244  
G05  22532615.044       55130.235        2098.282           0.255  
G06  20627953.328       -8850.741        -483.523           0.255  
> 2023 05 18 00 00 42.5688020  0  5                     
G02  24263824.685      105532.877        2906.025           0.239  
G03  22336744.010      -14280.720        -504.038           0.255  
G04  23584734.621      -54816.067       -2118.096           0.244  
G05  22532562.954       55334.667        2047.078           0.255  
G06  20627965.641       -8899.133        -483.718           0.255  
> 2023 05 18 00 00 42.6688020  0  5                     
G02  24263751.344      105823.465        2905.798           0.239  
G03  22336756.408      -14330.999        -510.415           0.255  
G04  23584788.932      -55027.839       -2107.249           0.244  
G05  22532511.008       55539.437        2087.636           0.255  
G06  20627978.104       -8947.532        -484.380           0.255  
> 2023 05 18 00 00 42.7688020  0  5                     
G02  24263676.990      106114.067        2906.489           0.239  
G03  22336769.852      -14381.453        -504.530           0.255  
G04  23584842.301      -55239.601       -2117.190           0.244  
G05  22532458.800       55743.990        2047.422           0.255  
G06  20627990.200       -8995.921        -483.410           0.255  
> 2023 05 18 00 00 42.8688020  0  5                     
G02  24263603.244      106404.661        2906.892           0.239  
G03  22336781.808      -14431.821        -503.975           0.255  
G04  23584896.288      -55451.386       -2117.867           0.244  
G05  22532407.013       55948.631        2046.703           0.255  
G06  20628002.945       -9044.325        -483.979           0.255  
> 2023 05 18 00 00 42.9688020  0  5                     
G02  24263529.489      106695.058        2863.205           0.239  
G03  22336794.882      -14482.221        -513.056           0.255  
G04  23584950.515      -55663.201       -2099.257           0.244  
G05  22532354.752       56153.436        2087.577           0.255  
G06  20628015.589       -9092.727        -483.795           0.255  
> 2023 05 18 00 00 43.0688020  0  5                     
G02  24263455.374      106985.842        2905.385           0.239  
G03  22336808.219      -14532.571        -503.774           0.255  
G04  23585004.536      -55874.941       -2117.121           0.244  
G05  22532302.100       56357.937        2047.194           0.255  
G06  20628027.322       -9141.135        -484.098           0.255  
> 2023 05 18 00 00 43.1688020  0  5                     
G02  24263381.092      107276.447        2905.683           0.239  
G03  22336821.877      -14582.957        -504.226           0.255  
G04  23585058.617      -56086.725       -2117.945           0.244  
G05  22532250.073       56562.577        2046.446           0.255  
G06  20628039.144       -9189.541        -484.082           0.255  
> 2023 05 18 00 00 43.2688020  0  5                     
G02  24263306.451      107567.035        2905.637           0.239  
G03  22336834.648      -14633.347        -503.527           0.255  
G04  23585112.709      -56298.497       -2117.435           0.244  
G05  22532197.689       56767.218        2045.863           0.255  
G06  20628051.618       -9237.949        -483.821           0.255  
> 2023 05 18 00 00 43.3688020  0  5                     
G02  24263232.306      107857.633        2905.728           0.239  
G03  22336847.641      -14683.737        -503.623           0.255  
G04  23585166.601      -56510.289       -2117.863           0.244  
G05  22532145.654       56971.864        2046.729           0.255  
G06  20628063.874       -9286.365        -483.491           0.255  
> 2023 05 18 00 00 43.4688020  0  5                     
G02  24263159.913      108148.224        2904.729           0.239  
G03  22336858.696      -14734.136        -503.792           0.255  
G04  23585219.459      -56722.068       -2116.927           0.244  
G05  22532093.586       57176.509        2046.199           0.255  
G06  20628077.168       -9334.787        -484.013           0.255  
> 2023 05 18 00 00 43.5688020  0  5                     
G02  24263085.257      108438.830        2906.422           0.239  
G03  22336869.951      -14784.540        -503.810           0.255  
G04  23585273.931      -56933.860       -2117.974           0.244  
G05  22532041.623       57381.147        2046.382           0.255  
G06  20628090.148       -9383.217        -484.600           0.255  
> 2023 05 18 00 00 43.6688020  0  5                     
G02  24263011.901      108729.423        2906.330           0.239  
G03  22336886.247      -14834.948        -504.005           0.255  
G04  23585327.169      -57145.647       -2118.273           0.244  
G05  22531989.477       57585.791        2047.103           0.255  
G06  20628101.030       -9431.634        -484.355           0.255  
> 2023 05 18 00 00 43.7688020  0  5                     
G02  24262936.861      109020.014        2905.943           0.239  
G03  22336899.186      -14885.356        -504.120           0.255  
G04  23585381.723      -57357.427       -2117.217           0.244  
G05  22531937.300       57790.427        2045.997           0.255  
G06  20628113.080       -9480.074        -484.551           0.255  
> 2023 05 18 00 00 43.8688020  0  5                     
G02  24262862.468      109310.605        2905.637           0.239  
G03  22336910.814      -14935.771        -504.261           0.255  
G04  23585436.158      -57569.217       -2117.942           0.244  
G05  22531885.247       57995.063        2046.955           0.255  
G06  20628126.120       -9528.499        -484.614           0.255  
> 2023 05 18 00 00 43.9688020  0  5                     
G02  24262789.340      109601.304        2878.430           0.239  
G03  22336923.668      -14986.098        -493.408           0.255  
G04  23585489.333      -57781.187       -2117.689           0.244  
G05  22531832.913       58199.177        1962.072           0.255  
G06  20628138.913       -9576.939        -483.919           0.255  
> 2023 05 18 00 00 44.0688020  0  5                     
G02  24262714.682      109891.801        2904.882           0.239  
G03  22336938.831      -15036.621        -504.399           0.255  
G04  23585543.602      -57992.795       -2116.612           0.244  
G05  22531780.555       58404.323        2046.140           0.255  
G06  20628150.517       -9625.377        -484.975           0.255  
> 2023 05 18 00 00 44.1688020  0  5                     
G02  24262640.260      110182.378        2905.191           0.239  
G03  22336951.366      -15087.124        -507.762           0.255  
G04  23585597.710      -58204.849       -2124.591           0.244  
G05  22531728.770       58608.951        2046.464           0.255  
G06  20628162.539       -9673.819        -484.962           0.255  
> 2023 05 18 00 00 44.2688020  0  5                     
G02  24262566.084      110472.995        2905.375           0.239  
G03  22336962.508      -15137.511        -503.072           0.255  
G04  23585652.308      -58416.395       -2117.515           0.244  
G05  22531676.427       58813.578        2046.195           0.255  
G06  20628175.505       -9722.271        -484.532           0.255  
> 2023 05 18 00 00 44.3688020  0  5                     
G02  24262491.311      110763.589        2906.209           0.239  
G03  22336975.539      -15187.925        -504.449           0.255  
G04  23585708.027      -58628.195       -2118.537           0.244  
G05  22531623.948       59018.207        2046.141           0.255  
G06  20628187.491       -9770.722        -484.507           0.255  
> 2023 05 18 00 00 44.4688020  0  5                     
G02  24262416.187      111054.183        2905.542           0.239  
G03  22336987.827      -15238.363        -504.593           0.255  
G04  23585761.773      -58839.987       -2118.500           0.244  
G05  22531572.292       59222.828        2047.109           0.255  
G06  20628200.248       -9819.177        -484.538           0.255  
> 2023 05 18 00 00 44.5688020  0  5                     
G02  24262342.807      111345.311        2895.101           0.239  
G03  22337000.240      -15288.766        -493.155           0.255  
G04  23585815.258      -59052.432       -2158.383           0.244  
G05  22531520.081       59427.348        2029.448           0.255  
G06  20628212.828       -9867.632        -484.751           0.255  
> 2023 05 18 00 00 44.6688020  0  5                     
G02  24262270.826      111635.373        2905.001           0.239  
G03  22337015.006      -15339.260        -504.557           0.255  
G04  23585867.534      -59263.579       -2116.977           0.244  
G05  22531467.772       59632.064        2046.623           0.255  
G06  20628224.553       -9916.095        -484.567           0.255  
> 2023 05 18 00 00 44.7688020  0  5                     
G02  24262194.832      111925.952        2905.964           0.239  
G03  22337025.773      -15389.752        -511.631           0.255  
G04  23585923.004      -59475.178       -2106.245           0.244  
G05  22531416.093       59836.676        2046.414           0.255  
G06  20628237.557       -9964.556        -484.494           0.255  
> 2023 05 18 00 00 44.8688020  0  5                     
G02  24262121.799      112216.547        2906.546           0.239  
G03  22337039.840      -15440.176        -504.746           0.255  
G04  23585977.146      -59687.168       -2117.878           0.244  
G05  22531363.042       60041.292        2046.127           0.255  
G06  20628249.555      -10013.026        -484.763           0.255  
> 2023 05 18 00 00 44.9688020  0  5                     
G02  24262046.851      112507.137        2904.792           0.239  
G03  22337052.195      -15490.640        -504.734           0.255  
G04  23586031.191      -59898.718       -2076.861           0.244  
G05  22531310.918       60245.684        2028.010           0.255  
G06  20628262.342      -10061.495        -484.304           0.255  
> 2023 05 18 00 00 45.0688020  0  5                     
G02  24261972.591      112797.722        2905.340           0.239  
G03  22337066.205      -15541.091        -498.017           0.255  
G04  23586084.817      -60110.777       -2117.101           0.244  
G05  22531259.336       60450.504        2046.060           0.255  
G06  20628273.789      -10109.972        -485.056           0.255  
> 2023 05 18 00 00 45.1688020  0  5                     
G02  24261899.437      113088.315        2906.158           0.239  
G03  22337078.411      -15591.586        -504.715           0.255  
G04  23586137.963      -60322.581       -2117.569           0.244  
G05  22531206.808       60655.117        2046.556           0.255  
G06  20628286.385      -10158.448        -484.743           0.255  
> 2023 05 18 00 00 45.2688020  0  5                     
G02  24261826.787      113378.918        2906.112           0.239  
G03  22337089.511      -15642.066        -504.860           0.255  
G04  23586191.379      -60534.396       -2117.302           0.244  
G05  22531154.902       60859.722        2046.727           0.255  
G06  20628299.324      -10206.929        -484.921           0.255  
> 2023 05 18 00 00 45.3688020  0  5                     
G02  24261750.501      113669.488        2909.330           0.239  
G03  22337103.578      -15692.617        -515.952           0.255  
G04  23586246.804      -60746.026       -2088.466           0.244  
G05  22531103.012       61064.521        2091.231           0.255  
G06  20628311.911      -10255.415        -484.685           0.255  
> 2023 05 18 00 00 45.4688020  0  5                     
G02  24261677.839      113960.094        2906.879           0.239  
G03  22337117.604      -15743.036        -504.747           0.255  
G04  23586300.121      -60958.006       -2118.811           0.244  
G05  22531050.349       61268.928        2046.876           0.255  
G06  20628323.365      -10303.903        -484.834           0.255  
> 2023 05 18 00 00 45.5688020  0  5                     
G02  24261603.983      114250.550        2859.935           0.239  
G03  22337130.382      -15793.416        -508.647           0.255  
G04  23586354.296      -61169.811       -2118.438           0.244  
G05  22530998.334       61473.411        2016.480           0.255  
G06  20628335.621      -10352.398        -484.978           0.255  
> 2023 05 18 00 00 45.6688020  0  5                     
G02  24261530.110      114541.274        2905.643           0.239  
G03  22337142.246      -15844.024        -505.477           0.255  
G04  23586408.128      -61381.632       -2118.211           0.244  
G05  22530945.982       61678.116        2046.083           0.255  
G06  20628348.806      -10400.887        -484.742           0.255  
> 2023 05 18 00 00 45.7688020  0  5                     
G02  24261456.487      114831.862        2906.667           0.239  
G03  22337154.687      -15894.524        -504.577           0.255  
G04  23586460.888      -61593.433       -2118.750           0.244  
G05  22530894.304       61882.710        2045.928           0.255  
G06  20628361.376      -10449.388        -485.153           0.255  
> 2023 05 18 00 00 45.8688020  0  5                     
G02  24261379.815      115122.440        2905.727           0.239  
G03  22337168.480      -15945.034        -505.024           0.255  
G04  23586515.949      -61805.306       -2117.532           0.244  
G05  22530841.933       62087.296        2046.213           0.255  
G06  20628373.482      -10497.884        -484.964           0.255  
> 2023 05 18 00 00 45.9688020  0  5                     
G02  24261306.117      115413.034        2906.226           0.239  
G03  22337180.964      -15995.546        -505.268           0.255  
G04  23586570.052      -62017.054       -2118.357           0.244  
G05  22530790.441       62291.890        2046.074           0.255  
G06  20628385.504      -10546.390        -484.818           0.255  
> 2023 05 18 00 00 46.0688020  0  5                     
G02  24261233.498      115703.612        2905.114           0.239  
G03  22337193.657      -16046.059        -504.872           0.255  
G04  23586623.159      -62228.860       -2117.961           0.244  
G05  22530737.956       62496.472        2045.393           0.255  
G06  20628397.884      -10594.902        -485.158           0.255  
> 2023 05 18 00 00 46.1688020  0  5                     
G02  24261158.406      115994.129        2921.400           0.239  
G03  22337207.247      -16096.579        -505.124           0.255  
G04  23586677.462      -62440.676       -2118.074           0.244  
G05  22530685.597       62701.364        2082.129           0.255  
G06  20628410.188      -10643.413        -485.086           0.255  
> 2023 05 18 00 00 46.2688020  0  5                     
G02  24261086.460      116284.797        2905.666           0.240  
G03  22337218.999      -16147.171        -522.264           0.255  
G04  23586731.208      -62652.719       -2172.056           0.244  
G05  22530633.546       62905.414        1996.148           0.255  
G06  20628422.899      -10691.928        -484.858           0.255  
> 2023 05 18 00 00 46.3688020  0  5                     
G02  24261011.656      116575.394        2906.564           0.239  
G03  22337233.880      -16197.635        -505.253           0.255  
G04  23586785.565      -62864.312       -2119.202           0.244  
G05  22530581.318       63110.220        2045.670           0.255  
G06  20628434.236      -10740.445        -484.994           0.255  
> 2023 05 18 00 00 46.4688020  0  5                     
G02  24260937.993      116865.967        2905.077           0.239  
G03  22337246.112      -16248.166        -505.503           0.255  
G04  23586839.218      -63076.034       -2106.373           0.244  
G05  22530529.304       63314.800        2046.055           0.255  
G06  20628447.326      -10788.969        -485.216           0.255  
> 2023 05 18 00 00 46.5688020  0  5                     
G02  24260861.288      117156.563        2906.256           0.240  
G03  22337259.475      -16298.707        -505.250           0.255  
G04  23586895.366      -63287.945       -2118.535           0.244  
G05  22530477.057       63519.363        2045.009           0.255  
G06  20628460.249      -10837.491        -485.185           0.255  
> 2023 05 18 00 00 46.6688020  0  5                     
G02  24260789.251      117447.158        2905.466           0.239  
G03  22337273.804      -16349.248        -505.448           0.255  
G04  23586948.620      -63499.770       -2117.791           0.244  
G05  22530424.953       63723.826        2032.685           0.255  
G06  20628470.934      -10886.023        -485.339           0.255  
> 2023 05 18 00 00 46.7688020  0  5                     
G02  24260715.920      117737.743        2905.888           0.239  
G03  22337284.117      -16399.794        -505.713           0.255  
G04  23587002.530      -63711.596       -2118.480           0.244  
G05  22530373.081       63928.507        2045.607           0.255  
G06  20628484.459      -10934.559        -485.590           0.255  
> 2023 05 18 00 00 46.8688020  0  5                     
G02  24260639.757      118028.320        2904.546           0.239  
G03  22337295.145      -16450.336        -505.068           0.255  
G04  23587055.948      -63923.406       -2116.916           0.244  
G05  22530321.323       64133.065        2045.358           0.255  
G06  20628498.085      -10983.093        -485.307           0.255  
> 2023 05 18 00 00 46.9688020  0  5                     
G02  24260566.689      118318.925        2905.987           0.239  
G03  22337310.166      -16501.176        -529.322           0.255  
G04  23587109.627      -64135.777       -2227.329           0.244  
G05  22530268.998       64337.631        2045.041           0.255  
G06  20628509.047      -11031.634        -485.626           0.255  
> 2023 05 18 00 00 47.0688020  0  5                     
G02  24260492.793      118609.543        2907.223           0.239  
G03  22337322.990      -16551.462        -505.511           0.255  
G04  23587163.014      -64347.088       -2119.774           0.244  
G05  22530216.936       64542.598        2127.003           0.255  
G06  20628521.397      -11080.175        -485.384           0.255  
> 2023 05 18 00 00 47.1688020  0  5                     
G02  24260418.162      118900.090        2903.495           0.239  
G03  22337334.906      -16602.015        -505.996           0.255  
G04  23587218.052      -64558.871       -2115.960           0.244  
G05  22530164.884       64746.767        2045.752           0.255  
G06  20628533.888      -11128.727        -485.443           0.255  
> 2023 05 18 00 00 47.2688020  0  5                     
G02  24260346.957      119190.694        2905.175           0.239  
G03  22337347.005      -16652.521        -499.038           0.255  
G04  23587270.177      -64770.713       -2117.671           0.244  
G05  22530112.276       64951.323        2045.122           0.255  
G06  20628546.767      -11177.274        -485.711           0.255  
> 2023 05 18 00 00 47.3688020  0  5                     
G02  24260271.093      119481.268        2906.103           0.239  
G03  22337361.676      -16703.162        -506.087           0.255  
G04  23587324.894      -64982.542       -2118.235           0.244  
G05  22530060.177       65155.889        2046.010           0.255  
G06  20628557.749      -11225.824        -485.409           0.255  
> 2023 05 18 00 00 47.4688020  0  5                     
G02  24260196.231      119771.841        2905.210           0.239  
G03  22337372.335      -16753.742        -505.983           0.255  
G04  23587379.024      -65194.140       -2090.097           0.244  
G05  22530008.016       65360.443        2045.335           0.255  
G06  20628571.745      -11274.377        -485.225           0.255  
> 2023 05 18 00 00 47.5688020  0  5                     
G02  24260123.685      120062.418        2903.561           0.240  
G03  22337387.420      -16804.317        -505.993           0.255  
G04  23587433.172      -65406.178       -2116.572           0.244  
G05  22529955.857       65564.999        2045.667           0.255  
G06  20628583.044      -11322.939        -485.340           0.255  
> 2023 05 18 00 00 47.6688020  0  5                     
G02  24260049.016      120353.035        2905.068           0.240  
G03  22337401.747      -16854.905        -505.731           0.255  
G04  23587486.251      -65618.025       -2117.614           0.244  
G05  22529904.291       65769.550        2045.387           0.255  
G06  20628594.666      -11371.506        -485.584           0.255  
> 2023 05 18 00 00 47.7688020  0  5                     
G02  24259974.455      120643.633        2906.161           0.239  
G03  22337412.711      -16905.505        -506.704           0.255  
G04  23587541.059      -65829.863       -2117.914           0.244  
G05  22529851.748       65974.096        2045.163           0.255  
G06  20628607.828      -11420.070        -485.197           0.255  
> 2023 05 18 00 00 47.8688020  0  5                     
G02  24259900.887      120934.208        2905.179           0.239  
G03  22337427.502      -16956.098        -505.594           0.255  
G04  23587594.741      -66041.698       -2117.730           0.244  
G05  22529800.260       66178.647        2045.098           0.255  
G06  20628619.826      -11468.646        -485.961           0.255  
> 2023 05 18 00 00 47.9688020  0  5                     
G02  24259826.658      121224.800        2905.772           0.239  
G03  22337438.197      -17006.700        -506.402           0.255  
G04  23587648.738      -66253.535       -2118.662           0.244  
G05  22529747.609       66383.197        2045.314           0.255  
G06  20628633.714      -11517.214        -485.427           0.255  
> 2023 05 18 00 00 48.0688020  0  5                     
G02  24259750.876      121515.395        2906.956           0.239  
G03  22337450.113      -17057.304        -506.653           0.255  
G04  23587704.542      -66465.367       -2118.917           0.244  
G05  22529695.349       66587.740        2046.033           0.255  
G06  20628645.748      -11565.799        -485.789           0.255  
> 2023 05 18 00 00 48.1688020  0  5                     
G02  24259678.644      121805.968        2905.699           0.239  
G03  22337464.231      -17107.905        -505.012           0.255  
G04  23587757.897      -66676.991       -2108.783           0.244  
G05  22529643.050       66792.276        2045.556           0.255  
G06  20628657.826      -11614.376        -486.372           0.255  
> 2023 05 18 00 00 48.2688020  0  5                     
G02  24259604.957      122096.567        2906.193           0.239  
G03  22337476.455      -17158.529        -505.377           0.255  
G04  23587811.953      -66889.027       -2118.272           0.244  
G05  22529591.267       66996.482        1989.465           0.255  
G06  20628670.180      -11662.958        -485.966           0.255  
> 2023 05 18 00 00 48.3688020  0  5                     
G02  24259530.497      122387.154        2905.868           0.239  
G03  22337489.294      -17209.143        -505.450           0.255  
G04  23587865.651      -67100.871       -2118.536           0.244  
G05  22529539.094       67201.352        2044.709           0.255  
G06  20628682.462      -11711.548        -485.921           0.255  
> 2023 05 18 00 00 48.4688020  0  5                     
G02  24259456.522      122677.746        2904.879           0.239  
G03  22337503.428      -17259.768        -506.047           0.255  
G04  23587918.968      -67312.717       -2118.446           0.244  
G05  22529486.700       67405.891        2045.631           0.255  
G06  20628694.607      -11760.140        -486.119           0.255  
> 2023 05 18 00 00 48.5688020  0  5                     
G02  24259382.057      122968.329        2904.891           0.239  
G03  22337516.174      -17310.406        -506.906           0.255  
G04  23587973.072      -67524.365       -2091.445           0.244  
G05  22529434.549       67610.421        2044.802           0.255  
G06  20628707.088      -11808.733        -486.107           0.255  
> 2023 05 18 00 00 48.6688020  0  5                     
G02  24259307.722      123258.923        2906.361           0.239  
G03  22337529.296      -17361.035        -506.693           0.255  
G04  23588026.530      -67736.392       -2118.277           0.244  
G05  22529382.552       67814.952        2045.420           0.255  
G06  20628719.303      -11857.322        -485.709           0.255  
> 2023 05 18 00 00 48.7688020  0  5                     
G02  24259234.211      123549.521        2905.906           0.239  
G03  22337542.858      -17411.663        -505.948           0.255  
G04  23588081.178      -67948.056       -2089.816           0.244  
G05  22529330.183       68019.482        2044.562           0.255  
G06  20628732.033      -11905.930        -485.778           0.255  
> 2023 05 18 00 00 48.8688020  0  5                     
G02  24259160.073      123840.098        2906.151           0.239  
G03  22337555.920      -17462.302        -506.027           0.255  
G04  23588135.100      -68160.071       -2118.259           0.244  
G05  22529277.723       68224.013        2045.614           0.255  
G06  20628745.318      -11954.536        -485.792           0.255  
> 2023 05 18 00 00 48.9688020  0  5                     
G02  24259085.164      124130.697        2906.808           0.239  
G03  22337568.724      -17512.956        -506.435           0.255  
G04  23588189.624      -68371.925       -2118.577           0.244  
G05  22529225.848       68428.532        2045.292           0.255  
G06  20628757.861      -12003.145        -485.900           0.255  
> 2023 05 18 00 00 49.0688020  0  5                     
G02  24259011.681      124421.295        2906.484           0.239  
G03  22337581.230      -17563.610        -507.321           0.255  
G04  23588242.821      -68583.680       -2055.488           0.244  
G05  22529173.947       68633.055        2045.243           0.255  
G06  20628769.781      -12051.753        -485.873           0.255  
> 2023 05 18 00 00 49.1688020  0  5                     
G02  24258939.990      124711.852        2903.852           0.239  
G03  22337593.664      -17614.263        -507.672           0.255  
G04  23588296.142      -68795.602       -2117.039           0.244  
G05  22529121.594       68837.574        2045.115           0.255  
G06  20628781.462      -12100.368        -486.173           0.255  
> 2023 05 18 00 00 49.2688020  0  5                     
G02  24258864.184      125002.459        2906.656           0.239  
G03  22337607.576      -17664.915        -507.745           0.255  
G04  23588351.101      -69007.465       -2119.738           0.244  
G05  22529069.087       69042.087        2044.833           0.255  
G06  20628793.149      -12148.989        -485.912           0.255  
> 2023 05 18 00 00 49.3688020  0  5                     
G02  24258789.907      125293.045        2906.510           0.239  
G03  22337620.104      -17715.580        -506.813           0.255  
G04  23588404.721      -69219.309       -2119.694           0.244  
G05  22529017.754       69246.604        2044.956           0.255  
G06  20628805.841      -12197.612        -486.129           0.255  
> 2023 05 18 00 00 49.4688020  0  5                     
G02  24258715.356      125583.641        2905.500           0.239  
G03  22337633.492      -17766.247        -506.274           0.255  
G04  23588459.240      -69431.165       -2117.367           0.244  
G05  22528965.927       69451.116        2044.763           0.255  
G06  20628818.403      -12246.235        -486.083           0.255  
> 2023 05 18 00 00 49.5688020  0  5                     
G02  24258641.611      125874.208        2904.228           0.239  
G03  22337644.728      -17816.927        -507.535           0.255  
G04  23588513.087      -69643.328       -2171.618           0.244  
G05  22528913.700       69655.489        1997.749           0.255  
G06  20628831.438      -12294.863        -486.205           0.255  
> 2023 05 18 00 00 49.6688020  0  5                     
G02  24258566.821      126164.819        2906.325           0.239  
G03  22337658.481      -17867.602        -507.193           0.255  
G04  23588567.608      -69854.875       -2118.375           0.244  
G05  22528861.673       69860.140        2045.129           0.255  
G06  20628843.541      -12343.493        -486.380           0.255  
> 2023 05 18 00 00 49.7688020  0  5                     
G02  24258493.537      126455.384        2904.820           0.239  
G03  22337671.752      -17918.279        -506.772           0.255  
G04  23588620.976      -70066.653       -2081.875           0.244  
G05  22528809.564       70064.643        2045.236           0.255  
G06  20628855.761      -12392.133        -486.718           0.255  
> 2023 05 18 00 00 49.8688020  0  5                     
G02  24258419.742      126745.980        2906.013           0.239  
G03  22337685.767      -17968.963        -506.913           0.255  
G04  23588674.477      -70278.572       -2118.491           0.244  
G05  22528757.370       70269.148        2045.013           0.255  
G06  20628867.262      -12440.772        -486.767           0.255  
> 2023 05 18 00 00 49.9688020  0  5                     
G02  24258345.645      127036.571        2905.258           0.239  
G03  22337698.496      -18019.657        -506.381           0.255  
G04  23588728.749      -70490.423       -2117.268           0.244  
G05  22528705.143       70473.645        2045.150           0.255  
G06  20628879.907      -12489.407        -486.544           0.255  
> 2023 05 18 00 00 50.0688020  0  5                     
G02  24258272.384      127327.149        2905.944           0.239  
G03  22337711.121      -18070.354        -506.013           0.255  
G04  23588782.601      -70702.283       -2118.683           0.244  
G05  22528652.967       70678.141        2044.930           0.255  
G06  20628893.000      -12538.051        -486.568           0.255  
> 2023 05 18 00 00 50.1688020  0  5                     
G02  24258197.419      127617.152        2854.552           0.239  
G03  22337723.154      -18121.056        -506.324           0.255  
G04  23588837.058      -70914.244       -2208.973           0.244  
G05  22528600.972       70882.639        2045.062           0.255  
G06  20628905.294      -12586.704        -486.794           0.255  
> 2023 05 18 00 00 50.2688020  0  5                     
G02  24258123.126      127908.332        2906.645           0.239  
G03  22337735.365      -18171.758        -506.407           0.255  
G04  23588891.496      -71126.008       -2120.532           0.244  
G05  22528548.641       71087.140        2045.321           0.255  
G06  20628917.209      -12635.355        -486.695           0.255  
> 2023 05 18 00 00 50.3688020  0  5                     
G02  24258048.861      128198.938        2906.499           0.239  
G03  22337746.273      -18222.461        -505.823           0.255  
G04  23588945.550      -71337.745       -2064.081           0.244  
G05  22528496.901       71291.629        2045.050           0.255  
G06  20628930.566      -12684.015        -486.924           0.255  
> 2023 05 18 00 00 50.4688020  0  5                     
G02  24257973.568      128489.503        2905.120           0.239  
G03  22337760.915      -18273.170        -505.490           0.255  
G04  23588999.205      -71549.712       -2118.001           0.244  
G05  22528444.662       71496.121        2044.748           0.255  
G06  20628942.649      -12732.676        -487.287           0.255  
> 2023 05 18 00 00 50.5688020  0  5                     
G02  24257900.206      128780.107        2906.947           0.239  
G03  22337774.631      -18323.900        -507.183           0.255  
G04  23589053.491      -71761.586       -2118.772           0.244  
G05  22528392.181       71700.477        2008.166           0.255  
G06  20628954.537      -12781.336        -486.511           0.255  
> 2023 05 18 00 00 50.6688020  0  5                     
G02  24257827.407      129070.695        2906.428           0.239  
G03  22337786.057      -18374.508        -479.589           0.255  
G04  23589107.283      -71973.448       -2117.900           0.244  
G05  22528340.172       71905.101        2044.909           0.255  
G06  20628967.755      -12830.000        -486.595           0.255  
> 2023 05 18 00 00 50.7688020  0  5                     
G02  24257754.302      129361.288        2906.344           0.239  
G03  22337799.959      -18425.342        -507.147           0.255  
G04  23589160.219      -72185.313       -2118.158           0.244  
G05  22528288.141       72109.587        2044.908           0.255  
G06  20628979.984      -12878.674        -487.096           0.255  
> 2023 05 18 00 00 50.8688020  0  5                     
G02  24257679.415      129651.862        2904.712           0.239  
G03  22337813.259      -18476.081        -507.362           0.255  
G04  23589214.895      -72397.174       -2117.804           0.244  
G05  22528236.243       72314.070        2045.049           0.255  
G06  20628992.486      -12927.347        -487.230           0.255  
> 2023 05 18 00 00 50.9688020  0  5                     
G02  24257604.968      129942.970        2900.357           0.239  
G03  22337826.111      -18526.823        -507.228           0.255  
G04  23589268.374      -72609.052       -2120.117           0.244  
G05  22528184.094       72518.543        2044.475           0.255  
G06  20629004.670      -12976.019        -486.864           0.255  
> 2023 05 18 00 00 51.0688020  0  5                     
G02  24257532.095      130233.047        2904.272           0.239  
G03  22337839.424      -18577.537        -510.344           0.255  
G04  23589322.373      -72820.513       -2081.557           0.244  
G05  22528131.797       72722.846        2046.709           0.255  
G06  20629016.886      -13024.704        -487.041           0.255  
> 2023 05 18 00 00 51.1688020  0  5                     
G02  24257456.782      130523.631        2905.408           0.239  
G03  22337852.594      -18628.306        -508.115           0.255  
G04  23589376.666      -73032.772       -2118.424           0.244  
G05  22528079.887       72927.498        2044.610           0.255  
G06  20629029.316      -13073.385        -486.619           0.255  
> 2023 05 18 00 00 51.2688020  0  5                     
G02  24257383.256      130814.227        2906.305           0.239  
G03  22337865.399      -18679.065        -509.161           0.255  
G04  23589430.565      -73244.661       -2119.772           0.244  
G05  22528027.732       73131.979        2044.996           0.255  
G06  20629041.703      -13122.073        -486.241           0.255  
> 2023 05 18 00 00 51.3688020  0  5                     
G02  24257308.479      131104.792        2904.017           0.239  
G03  22337879.177      -18729.811        -508.543           0.255  
G04  23589485.006      -73456.515       -2117.454           0.244  
G05  22527975.799       73336.447        2044.298           0.255  
G06  20629053.670      -13170.760        -486.206           0.255  
> 2023 05 18 00 00 51.4688020  0  5                     
G02  24257233.856      131395.390        2907.865           0.239  
G03  22337892.163      -18780.576        -508.365           0.255  
G04  23589539.022      -73668.404       -2119.968           0.244  
G05  22527923.483       73540.920        2045.004           0.255  
G06  20629066.238      -13219.448        -485.992           0.255  
> 2023 05 18 00 00 51.5688020  0  5                     
G02  24257160.635      131685.977        2905.699           0.239  
G03  22337903.496      -18831.341        -508.441           0.255  
G04  23589593.270      -73880.285       -2118.999           0.244  
G05  22527871.584       73745.383        2043.914           0.255  
G06  20629079.124      -13268.148        -486.801           0.255  
> 2023 05 18 00 00 51.6688020  0  5                     
G02  24257087.061      131976.543        2905.114           0.239  
G03  22337916.479      -18882.102        -508.090           0.255  
G04  23589646.508      -74092.148       -2118.517           0.244  
G05  22527819.510       73949.857        2045.328           0.255  
G06  20629091.583      -13316.849        -486.861           0.255  
> 2023 05 18 00 00 51.7688020  0  5                     
G02  24257012.663      132267.141        2906.542           0.239  
G03  22337930.399      -18932.864        -506.959           0.255  
G04  23589700.799      -74304.036       -2118.913           0.244  
G05  22527767.066       74154.310        2044.215           0.255  
G06  20629103.621      -13365.556        -487.317           0.255  
> 2023 05 18 00 00 51.8688020  0  5                     
G02  24256939.448      132557.713        2872.254           0.239  
G03  22337943.120      -18983.641        -507.329           0.255  
G04  23589754.249      -74516.132       -2116.329           0.244  
G05  22527715.101       74358.776        2044.817           0.255  
G06  20629116.051      -13414.262        -486.962           0.255  
> 2023 05 18 00 00 51.9688020  0  5                     
G02  24256864.132      132848.295        2904.672           0.239  
G03  22337955.619      -19034.421        -507.439           0.255  
G04  23589808.830      -74727.779       -2117.644           0.244  
G05  22527662.966       74563.565        2118.409           0.255  
G06  20629128.531      -13462.977        -487.319           0.255  
> 2023 05 18 00 00 52.0688020  0  5                     
G02  24256790.080      133138.895        2907.539           0.239  
G03  22337968.531      -19085.214        -508.506           0.255  
G04  23589862.875      -74939.845       -2092.655           0.244  
G05  22527610.834       74767.697        2044.708           0.255  
G06  20629141.111      -13511.685        -486.702           0.255  
> 2023 05 18 00 00 52.1688020  0  5                     
G02  24256716.317      133429.457        2904.362           0.239  
G03  22337980.677      -19136.002        -508.064           0.255  
G04  23589916.853      -75151.528       -2117.223           0.244  
G05  22527558.690       74972.406        2094.461           0.255  
G06  20629153.759      -13560.405        -486.837           0.255  
> 2023 05 18 00 00 52.2688020  0  5                     
G02  24256641.988      133720.060        2907.590           0.239  
G03  22337994.693      -19186.797        -508.884           0.255  
G04  23589970.237      -75363.420       -2118.919           0.244  
G05  22527506.571       75176.602        2044.383           0.255  
G06  20629166.102      -13609.126        -487.071           0.255  
> 2023 05 18 00 00 52.3688020  0  5                     
G02  24256569.297      134010.606        2904.473           0.239  
G03  22338007.088      -19237.582        -508.563           0.255  
G04  23590023.674      -75575.290       -2116.687           0.244  
G05  22527454.679       75381.049        2044.581           0.255  
G06  20629178.807      -13657.856        -487.290           0.255  
> 2023 05 18 00 00 52.4688020  0  5                     
G02  24256493.166      134301.190        2905.706           0.239  
G03  22338020.162      -19288.389        -508.587           0.255  
G04  23590077.999      -75787.180       -2118.914           0.244  
G05  22527402.826       75585.497        2044.294           0.255  
G06  20629191.343      -13706.580        -486.891           0.255  
> 2023 05 18 00 00 52.5688020  0  5                     
G02  24256419.349      134591.493        2796.889           0.239  
G03  22338033.292      -19339.210        -509.037           0.255  
G04  23590132.924      -75999.137       -2095.443           0.244  
G05  22527350.764       75790.567        2128.992           0.255  
G06  20629204.279      -13755.304        -487.000           0.255  
> 2023 05 18 00 00 52.6688020  0  5                     
G02  24256346.193      134882.357        2905.003           0.239  
G03  22338047.671      -19390.024        -510.363           0.255  
G04  23590186.188      -76210.949       -2118.441           0.244  
G05  22527298.478       75994.384        2043.532           0.255  
G06  20629215.081      -13804.037        -486.107           0.255  
> 2023 05 18 00 00 52.7688020  0  5                     
G02  24256272.208      135172.781        2853.875           0.239  
G03  22338059.949      -19440.837        -508.896           0.255  
G04  23590240.650      -76422.886       -2177.624           0.244  
G05  22527246.071       76198.298        1957.730           0.255  
G06  20629227.698      -13852.781        -487.215           0.255  
> 2023 05 18 00 00 52.8688020  0  5                     
G02  24256198.438      135463.531        2905.755           0.239  
G03  22338073.693      -19491.737        -540.039           0.255  
G04  23590294.515      -76634.728       -2119.581           0.244  
G05  22527193.970       76403.251        2044.245           0.255  
G06  20629240.053      -13901.517        -486.908           0.255  
> 2023 05 18 00 00 52.9688020  0  5                     
G02  24256124.479      135754.115        2906.148           0.239  
G03  22338085.852      -19542.488        -508.675           0.255  
G04  23590348.943      -76846.617       -2119.012           0.244  
G05  22527142.054       76607.691        2044.923           0.255  
G06  20629252.393      -13950.263        -487.253           0.255  
> 2023 05 18 00 00 53.0688020  0  5                     
G02  24256048.992      136044.706        2906.731           0.239  
G03  22338097.841      -19593.311        -508.326           0.255  
G04  23590403.536      -77058.517       -2119.709           0.244  
G05  22527090.102       76812.121        2044.213           0.255  
G06  20629264.977      -13999.011        -487.282           0.255  
> 2023 05 18 00 00 53.1688020  0  5                     
G02  24255975.968      136335.287        2905.028           0.239  
G03  22338111.231      -19644.152        -508.707           0.255  
G04  23590456.479      -77270.405       -2117.984           0.244  
G05  22527037.679       77016.550        2044.159           0.255  
G06  20629277.501      -14047.762        -487.003           0.255  
> 2023 05 18 00 00 53.2688020  0  5                     
G02  24255901.516      136625.851        2904.620           0.239  
G03  22338123.881      -19694.991        -508.895           0.255  
G04  23590510.921      -77482.280       -2118.741           0.244  
G05  22526985.392       77220.983        2044.076           0.255  
G06  20629290.155      -14096.517        -487.120           0.255  
> 2023 05 18 00 00 53.3688020  0  5                     
G02  24255827.094      136916.456        2906.773           0.239  
G03  22338137.092      -19745.835        -508.492           0.255  
G04  23590565.693      -77694.202       -2121.146           0.244  
G05  22526933.208       77425.412        2043.843           0.255  
G06  20629302.316      -14145.277        -487.279           0.255  
> 2023 05 18 00 00 53.4688020  0  5                     
G02  24255754.408      137206.380        2865.548           0.239  
G03  22338149.318      -19796.679        -508.190           0.255  
G04  23590618.323      -77906.076       -2117.593           0.244  
G05  22526881.485       77629.601        1993.953           0.255  
G06  20629314.970      -14194.040        -487.474           0.255  
> 2023 05 18 00 00 53.5688020  0  5                     
G02  24255680.232      137498.014        2940.456           0.239  
G03  22338163.214      -19847.107        -445.407           0.255  
G04  23590672.642      -78117.976       -2120.260           0.244  
G05  22526828.986       77834.699        2136.514           0.255  
G06  20629327.016      -14242.815        -487.648           0.255  
> 2023 05 18 00 00 53.6688020  0  5                     
G02  24255605.943      137788.201        2905.794           0.239  
G03  22338176.033      -19898.388        -509.248           0.255  
G04  23590726.709      -78329.878       -2119.328           0.244  
G05  22526777.181       78038.691        2045.032           0.255  
G06  20629339.543      -14291.582        -487.626           0.255  
> 2023 05 18 00 00 53.7688020  0  5                     
G02  24255531.877      138078.775        2905.352           0.239  
G03  22338189.025      -19949.257        -510.439           0.255  
G04  23590780.418      -78541.766       -2119.128           0.244  
G05  22526725.315       78243.103        2044.101           0.255  
G06  20629352.215      -14340.350        -486.909           0.255  
> 2023 05 18 00 00 53.8688020  0  5                     
G02  24255457.720      138369.364        2906.548           0.239  
G03  22338202.446      -20000.128        -510.589           0.255  
G04  23590834.647      -78753.669       -2119.663           0.244  
G05  22526673.145       78447.485        2039.619           0.255  
G06  20629364.633      -14389.119        -486.627           0.255  
> 2023 05 18 00 00 53.9688020  0  5                     
G02  24255383.462      138659.950        2904.458           0.239  
G03  22338215.360      -20051.005        -509.678           0.255  
G04  23590888.157      -78965.574       -2117.847           0.244  
G05  22526621.404       78651.938        2044.430           0.255  
G06  20629377.205      -14437.898        -486.952           0.255  
> 2023 05 18 00 00 54.0688020  0  5                     
G02  24255309.244      138950.529        2906.316           0.239  
G03  22338227.619      -20101.876        -509.447           0.255  
G04  23590942.301      -79177.471       -2119.565           0.244  
G05  22526569.128       78856.347        2043.380           0.255  
G06  20629389.547      -14486.678        -487.567           0.255  
> 2023 05 18 00 00 54.1688020  0  5                     
G02  24255235.422      139241.278        2904.224           0.239  
G03  22338240.836      -20152.747        -508.445           0.255  
G04  23590996.616      -79389.377       -2119.236           0.244  
G05  22526516.788       79060.764        2044.245           0.255  
G06  20629402.181      -14535.464        -487.584           0.255  
> 2023 05 18 00 00 54.2688020  0  5                     
G02  24255161.096      139531.693        2905.705           0.239  
G03  22338252.733      -20203.636        -509.316           0.255  
G04  23591050.488      -79601.271       -2119.363           0.244  
G05  22526464.554       79265.169        2043.979           0.255  
G06  20629414.467      -14584.261        -488.125           0.255  
> 2023 05 18 00 00 54.3688020  0  5                     
G02  24255086.779      139822.276        2903.697           0.239  
G03  22338266.088      -20254.521        -509.006           0.255  
G04  23591104.978      -79812.480       -2048.762           0.244  
G05  22526412.555       79469.577        2044.122           0.255  
G06  20629426.924      -14633.051        -487.730           0.255  
> 2023 05 18 00 00 54.4688020  0  5                     
G02  24255012.641      140112.860        2907.138           0.239  
G03  22338279.367      -20305.415        -508.932           0.255  
G04  23591158.905      -80025.082       -2120.148           0.244  
G05  22526360.542       79673.983        2044.289           0.255  
G06  20629439.293      -14681.849        -487.857           0.255  
> 2023 05 18 00 00 54.5688020  0  5                     
G02  24254939.589      140403.452        2906.618           0.239  
G03  22338291.962      -20356.312        -509.187           0.255  
G04  23591212.479      -80236.995       -2119.849           0.244  
G05  22526308.688       79878.380        2043.339           0.255  
G06  20629452.058      -14730.649        -488.197           0.255  
> 2023 05 18 00 00 54.6688020  0  5                     
G02  24254865.307      140694.035        2905.859           0.239  
G03  22338305.787      -20407.209        -509.170           0.255  
G04  23591267.097      -80448.902       -2118.932           0.244  
G05  22526256.184       80082.784        2044.171           0.255  
G06  20629464.209      -14779.456        -488.030           0.255  
> 2023 05 18 00 00 54.7688020  0  5                     
G02  24254791.042      140984.612        2905.011           0.239  
G03  22338318.910      -20458.131        -510.021           0.255  
G04  23591320.329      -80660.805       -2118.789           0.244  
G05  22526204.228       80287.183        2043.681           0.255  
G06  20629476.492      -14828.259        -487.838           0.255  
> 2023 05 18 00 00 54.8688020  0  5                     
G02  24254716.960      141275.175        2905.675           0.239  
G03  22338332.253      -20509.042        -511.323           0.255  
G04  23591373.962      -80872.711       -2119.167           0.244  
G05  22526152.710       80491.579        2043.588           0.255  
G06  20629488.558      -14877.063        -487.519           0.255  
> 2023 05 18 00 00 54.9688020  0  5                     
G02  24254642.589      141565.768        2906.789           0.239  
G03  22338345.565      -20559.971        -510.522           0.255  
G04  23591428.338      -81084.635       -2119.939           0.244  
G05  22526100.169       80695.979        2044.256           0.255  
G06  20629500.555      -14925.864        -486.890           0.255  
> 2023 05 18 00 00 55.0688020  0  5                     
G02  24254569.629      141856.333        2905.084           0.239  
G03  22338358.047      -20610.882        -510.429           0.255  
G04  23591482.457      -81296.536       -2118.951           0.244  
G05  22526047.974       80900.366        2043.360           0.255  
G06  20629514.371      -14974.692        -487.919           0.255  
> 2023 05 18 00 00 55.1688020  0  5                     
G02  24254495.779      142146.938        2906.854           0.239  
G03  22338369.829      -20661.804        -508.419           0.255  
G04  23591536.757      -81508.466       -2121.057           0.244  
G05  22525996.267       81104.760        2044.730           0.255  
G06  20629526.321      -15023.507        -488.165           0.255  
> 2023 05 18 00 00 55.2688020  0  5                     
G02  24254420.908      142437.509        2905.516           0.239  
G03  22338383.325      -20712.735        -508.788           0.255  
G04  23591590.560      -81720.258       -2109.960           0.244  
G05  22525944.014       81309.275        2070.114           0.255  
G06  20629539.003      -15072.335        -488.912           0.255  
> 2023 05 18 00 00 55.3688020  0  5                     
G02  24254347.590      142728.094        2905.639           0.239  
G03  22338396.196      -20763.664        -509.379           0.255  
G04  23591643.648      -81932.285       -2119.560           0.244  
G05  22525891.962       81513.528        2043.399           0.255  
G06  20629551.256      -15121.170        -488.321           0.255  
> 2023 05 18 00 00 55.4688020  0  5                     
G02  24254272.729      143018.674        2905.691           0.239  
G03  22338409.106      -20814.607        -509.258           0.255  
G04  23591698.732      -82144.195       -2118.854           0.244  
G05  22525839.623       81717.920        2044.351           0.255  
G06  20629563.944      -15169.998        -488.490           0.255  
> 2023 05 18 00 00 55.5688020  0  5                     
G02  24254197.985      143309.274        2907.641           0.239  
G03  22338422.394      -20865.553        -509.706           0.255  
G04  23591753.212      -82356.125       -2120.438           0.244  
G05  22525787.347       81922.291        2043.016           0.255  
G06  20629576.180      -15218.826        -488.628           0.255  
> 2023 05 18 00 00 55.6688020  0  5                     
G02  24254124.753      143599.827        2904.752           0.239  
G03  22338435.514      -20916.497        -509.293           0.255  
G04  23591806.364      -82568.037       -2118.795           0.244  
G05  22525735.840       82126.672        2044.074           0.255  
G06  20629588.045      -15267.663        -488.392           0.255  
> 2023 05 18 00 00 55.7688020  0  5                     
G02  24254050.089      143890.398        2904.619           0.239  
G03  22338449.782      -20967.450        -510.306           0.255  
G04  23591860.914      -82779.732       -2138.412           0.244  
G05  22525683.146       82330.877        2038.355           0.255  
G06  20629600.768      -15316.502        -487.989           0.255  
> 2023 05 18 00 00 55.8688020  0  5                     
G02  24253976.862      144181.003        2906.726           0.239  
G03  22338461.693      -21018.415        -510.304           0.255  
G04  23591914.767      -82991.886       -2120.500           0.244  
G05  22525631.498       82535.783        2116.079           0.255  
G06  20629613.227      -15365.341        -488.120           0.255  
> 2023 05 18 00 00 55.9688020  0  5                     
G02  24253903.068      144471.576        2905.522           0.239  
G03  22338475.190      -21069.387        -510.652           0.255  
G04  23591968.487      -83203.793       -2118.808           0.244  
G05  22525579.385       82739.783        2044.200           0.255  
G06  20629625.384      -15414.183        -487.478           0.255  
> 2023 05 18 00 00 56.0688020  0  5                     
G02  24253828.747      144762.170        2906.730           0.239  
G03  22338487.732      -21120.348        -509.027           0.255  
G04  23592022.616      -83415.720       -2119.995           0.244  
G05  22525527.264       82944.103        2044.065           0.255  
G06  20629637.715      -15463.039        -488.503           0.255  
> 2023 05 18 00 00 56.1688020  0  5                     
G02  24253755.005      145052.736        2905.340           0.239  
G03  22338500.019      -21171.306        -508.458           0.255  
G04  23592076.412      -83627.635       -2118.850           0.244  
G05  22525475.356       83148.526        2043.505           0.255  
G06  20629650.716      -15511.900        -489.230           0.255  
> 2023 05 18 00 00 56.2688020  0  5                     
G02  24253679.738      145343.333        2906.700           0.239  
G03  22338512.381      -21222.268        -507.881           0.255  
G04  23592131.247      -83839.580       -2124.702           0.244  
G05  22525423.278       83352.893        2044.269           0.255  
G06  20629663.624      -15560.765        -489.501           0.255  
> 2023 05 18 00 00 56.3688020  0  5                     
G02  24253606.307      145633.914        2905.902           0.239  
G03  22338526.145      -21273.242        -508.582           0.255  
G04  23592184.844      -84051.498       -2119.060           0.244  
G05  22525371.087       83557.250        2043.256           0.255  
G06  20629675.793      -15609.627        -489.376           0.255  
> 2023 05 18 00 00 56.4688020  0  5                     
G02  24253532.741      145924.483        2905.406           0.239  
G03  22338539.352      -21324.235        -509.507           0.255  
G04  23592238.370      -84263.411       -2118.344           0.244  
G05  22525318.933       83761.618        2043.591           0.255  
G06  20629688.294      -15658.488        -489.098           0.255  
> 2023 05 18 00 00 56.5688020  0  5                     
G02  24253457.840      146215.073        2905.237           0.239  
G03  22338552.643      -21375.230        -509.406           0.255  
G04  23592292.911      -84475.046       -2074.570           0.244  
G05  22525266.909       83965.976        2044.017           0.255  
G06  20629700.707      -15707.350        -489.059           0.255  
> 2023 05 18 00 00 56.6688020  0  5                     
G02  24253383.746      146505.661        2907.305           0.239  
G03  22338565.974      -21426.227        -510.235           0.255  
G04  23592346.914      -84687.908       -2171.410           0.244  
G05  22525214.895       84170.329        2042.886           0.255  
G06  20629712.868      -15756.219        -488.313           0.255  
> 2023 05 18 00 00 56.7688020  0  5                     
G02  24253311.118      146796.242        2904.335           0.239  
G03  22338578.848      -21477.224        -510.206           0.255  
G04  23592400.306      -84898.977       -2069.512           0.244  
G05  22525162.865       84374.686        2043.815           0.255  
G06  20629725.308      -15805.099        -488.875           0.255  
> 2023 05 18 00 00 56.8688020  0  5                     
G02  24253235.894      147086.817        2906.207           0.239  
G03  22338591.871      -21528.222        -509.958           0.255  
G04  23592454.900      -85111.136       -2119.021           0.244  
G05  22525110.654       84578.867        2029.228           0.255  
G06  20629737.607      -15853.973        -488.537           0.255  
> 2023 05 18 00 00 56.9688020  0  5                     
G02  24253161.648      147377.417        2905.515           0.239  
G03  22338604.664      -21579.548        -509.828           0.255  
G04  23592508.903      -85323.084       -2119.166           0.244  
G05  22525058.486       84783.385        2042.766           0.255  
G06  20629749.987      -15902.856        -488.946           0.255  
> 2023 05 18 00 00 57.0688020  0  5                     
G02  24253088.613      147667.985        2906.157           0.239  
G03  22338616.636      -21630.228        -508.050           0.255  
G04  23592562.400      -85535.000       -2119.239           0.244  
G05  22525006.612       84987.734        2043.884           0.255  
G06  20629762.857      -15951.747        -490.060           0.255  
> 2023 05 18 00 00 57.1688020  0  5                     
G02  24253013.821      147958.581        2905.866           0.239  
G03  22338629.397      -21681.232        -507.940           0.255  
G04  23592616.887      -85746.947       -2119.850           0.244  
G05  22524954.407       85192.082        2043.469           0.255  
G06  20629775.716      -16000.644        -490.253           0.255  
> 2023 05 18 00 00 57.2688020  0  5                     
G02  24252939.857      148249.153        2906.378           0.239  
G03  22338642.730      -21732.257        -509.691           0.255  
G04  23592670.778      -85958.880       -2120.118           0.244  
G05  22524902.338       85396.424        2042.944           0.255  
G06  20629788.289      -16049.531        -489.302           0.255  
> 2023 05 18 00 00 57.3688020  0  5                     
G02  24252866.078      148539.720        2904.484           0.239  
G03  22338656.506      -21783.300        -511.539           0.255  
G04  23592724.834      -86170.817       -2119.065           0.244  
G05  22524850.232       85600.765        2043.895           0.255  
G06  20629800.461      -16098.419        -488.424           0.255  
> 2023 05 18 00 00 57.4688020  0  5                     
G02  24252792.117      148830.297        2906.938           0.239  
G03  22338669.927      -21834.340        -512.308           0.255  
G04  23592778.679      -86382.761       -2120.774           0.244  
G05  22524798.127       85805.104        2043.239           0.255  
G06  20629812.797      -16147.305        -487.589           0.255  
> 2023 05 18 00 00 57.5688020  0  5                     
G02  24252718.338      149120.863        2906.071           0.239  
G03  22338683.023      -21885.379        -511.398           0.255  
G04  23592832.434      -86594.692       -2119.672           0.244  
G05  22524746.139       86009.445        2042.930           0.255  
G06  20629824.841      -16196.207        -488.236           0.255  
> 2023 05 18 00 00 57.6688020  0  5                     
G02  24252643.438      149411.443        2905.377           0.239  
G03  22338695.729      -21936.404        -510.754           0.255  
G04  23592886.951      -86806.633       -2119.346           0.244  
G05  22524694.058       86213.778        2043.759           0.255  
G06  20629837.275      -16245.119        -488.742           0.255  
> 2023 05 18 00 00 57.7688020  0  5                     
G02  24252569.346      149702.023        2906.022           0.239  
G03  22338708.036      -21987.499        -501.640           0.255  
G04  23592940.986      -87018.578       -2119.932           0.244  
G05  22524642.089       86418.007        2024.493           0.255  
G06  20629849.970      -16294.030        -488.827           0.255  
> 2023 05 18 00 00 57.8688020  0  5                     
G02  24252496.266      149992.590        2904.317           0.239  
G03  22338721.082      -22038.489        -509.711           0.255  
G04  23592994.584      -87230.512       -2118.237           0.244  
G05  22524590.143       86622.447        2042.995           0.255  
G06  20629862.650      -16342.947        -489.658           0.255  
> 2023 05 18 00 00 57.9688020  0  5                     
G02  24252421.179      150283.179        2906.900           0.239  
G03  22338734.123      -22089.545        -510.231           0.255  
G04  23593049.148      -87442.465       -2120.329           0.244  
G05  22524537.959       86826.773        2043.790           0.255  
G06  20629875.292      -16391.858        -489.199           0.255  
> 2023 05 18 00 00 58.0688020  0  5                     
G02  24252346.920      150573.768        2906.076           0.239  
G03  22338747.482      -22140.601        -511.009           0.255  
G04  23593103.321      -87654.419       -2119.936           0.244  
G05  22524485.821       87031.104        2043.296           0.255  
G06  20629887.595      -16440.781        -489.267           0.255  
> 2023 05 18 00 00 58.1688020  0  5                     
G02  24252273.626      150864.317        2905.135           0.239  
G03  22338761.194      -22191.672        -512.190           0.255  
G04  23593157.051      -87866.379       -2157.640           0.244  
G05  22524433.821       87235.421        2042.825           0.255  
G06  20629899.943      -16489.694        -488.366           0.255  
> 2023 05 18 00 00 58.2688020  0  5                     
G02  24252200.084      151154.894        2906.076           0.239  
G03  22338774.353      -22242.751        -512.906           0.255  
G04  23593210.468      -88078.300       -2120.226           0.244  
G05  22524381.720       87439.745        2043.463           0.255  
G06  20629912.068      -16538.610        -487.633           0.255  
> 2023 05 18 00 00 58.3688020  0  5                     
G02  24252125.399      151445.464        2904.967           0.239  
G03  22338786.754      -22293.819        -511.247           0.255  
G04  23593264.576      -88290.241       -2118.672           0.244  
G05  22524329.559       87644.058        2043.111           0.255  
G06  20629924.669      -16587.541        -488.728           0.255  
> 2023 05 18 00 00 58.4688020  0  5                     
G02  24252050.315      151736.046        2905.081           0.239  
G03  22338798.824      -22344.875        -509.791           0.255  
G04  23593319.446      -88502.201       -2119.510           0.244  
G05  22524277.544       87848.366        2042.505           0.255  
G06  20629937.238      -16636.483        -489.667           0.255  
> 2023 05 18 00 00 58.5688020  0  5                     
G02  24251977.962      152026.626        2906.201           0.239  
G03  22338811.518      -22395.939        -508.339           0.255  
G04  23593372.160      -88714.147       -2119.723           0.244  
G05  22524225.301       88052.687        2043.494           0.255  
G06  20629949.927      -16685.431        -490.747           0.255  
> 2023 05 18 00 00 58.6688020  0  5                     
G02  24251903.222      152317.197        2905.457           0.239  
G03  22338824.855      -22447.016        -509.661           0.255  
G04  23593426.932      -88926.092       -2118.853           0.244  
G05  22524173.496       88257.006        2043.391           0.255  
G06  20629962.668      -16734.371        -490.150           0.255  
> 2023 05 18 00 00 58.7688020  0  5                     
G02  24251829.331      152607.784        2907.474           0.239  
G03  22338838.780      -22498.111        -510.810           0.255  
G04  23593480.878      -89138.063       -2120.703           0.244  
G05  22524121.419       88461.309        2042.381           0.255  
G06  20629974.747      -16783.313        -489.426           0.255  
> 2023 05 18 00 00 58.8688020  0  5                     
G02  24251755.550      152898.339        2904.113           0.239  
G03  22338852.065      -22549.209        -510.560           0.255  
G04  23593534.521      -89350.005       -2117.993           0.244  
G05  22524069.315       88665.623        2043.441           0.255  
G06  20629987.159      -16832.255        -489.741           0.255  
> 2023 05 18 00 00 58.9688020  0  5                     
G02  24251681.035      153188.940        2908.049           0.239  
G03  22338865.303      -22600.606        -554.163           0.255  
G04  23593588.957      -89562.068       -2075.635           0.244  
G05  22524017.299       88869.635        1986.610           0.255  
G06  20629999.500      -16881.201        -489.331           0.255  
> 2023 05 18 00 00 59.0688020  0  5                     
G02  24251607.838      153479.475        2921.537           0.239  
G03  22338877.932      -22651.417        -510.976           0.255  
G04  23593642.428      -89773.923       -2118.688           0.244  
G05  22523965.272       89074.229        2042.568           0.255  
G06  20630011.785      -16930.149        -489.328           0.255  
> 2023 05 18 00 00 59.1688020  0  5                     
G02  24251533.676      153770.083        2906.111           0.239  
G03  22338890.538      -22702.516        -510.424           0.255  
G04  23593696.729      -89985.881       -2119.119           0.244  
G05  22523913.199       89278.690        2068.575           0.255  
G06  20630024.639      -16979.110        -489.946           0.255  
> 2023 05 18 00 00 59.2688020  0  5                     
G02  24251458.651      154060.659        2905.108           0.239  
G03  22338902.448      -22753.618        -510.066           0.255  
G04  23593751.104      -90197.843       -2118.747           0.244  
G05  22523861.065       89482.844        2043.712           0.255  
G06  20630037.525      -17028.077        -490.284           0.255  
> 2023 05 18 00 00 59.3688020  0  5                     
G02  24251384.904      154351.240        2905.679           0.239  
G03  22338915.602      -22804.725        -510.569           0.255  
G04  23593804.991      -90409.806       -2072.833           0.244  
G05  22523809.025       89687.225        2059.341           0.255  
G06  20630050.300      -17077.047        -490.108           0.255  
> 2023 05 18 00 00 59.4688020  0  5                     
G02  24251310.909      154641.800        2904.637           0.239  
G03  22338929.787      -22855.851        -512.823           0.255  
G04  23593859.060      -90621.751       -2118.650           0.244  
G05  22523756.980       89891.432        2042.345           0.255  
G06  20630062.472      -17126.013        -489.078           0.255  
> 2023 05 18 00 00 59.5688020  0  5                     
G02  24251236.975      154932.401        2905.681           0.239  
G03  22338943.594      -22906.991        -513.584           0.255  
G04  23593912.742      -90833.736       -2119.960           0.244  
G05  22523705.041       90095.724        2043.339           0.255  
G06  20630074.552      -17174.970        -488.314           0.255  
> 2023 05 18 00 00 59.6688020  0  5                     
G02  24251163.201      155222.967        2907.070           0.239  
G03  22338956.815      -22958.133        -512.759           0.255  
G04  23593966.658      -91045.687       -2121.066           0.244  
G05  22523652.838       90300.017        2042.909           0.255  
G06  20630086.457      -17223.937        -488.739           0.255  
> 2023 05 18 00 00 59.7688020  0  5                     
G02  24251088.124      155513.542        2917.050           0.239  
G03  22338968.702      -23009.258        -510.940           0.255  
G04  23594021.282      -91257.632       -2136.770           0.244  
G05  22523600.727       90504.312        2010.953           0.255  
G06  20630099.284      -17272.914        -489.663           0.255  
> 2023 05 18 00 00 59.8688020  0  5                     
G02  24251014.305      155804.129        2906.683           0.239  
G03  22338981.584      -23060.381        -509.980           0.255  
G04  23594075.412      -91469.519       -2116.150           0.244  
G05  22523548.718       90708.742        2061.684           0.255  
G06  20630112.048      -17321.904        -490.456           0.255  
> 2023 05 18 00 00 59.9688020  0  5                     
G02  24250941.179      156094.693        2905.905           0.239  
G03  22338994.193      -23111.523        -510.668           0.255  
G04  23594129.200      -91681.570       -2119.609           0.244  
G05  22523496.949       90912.880        2043.397           0.255  
G06  20630124.757      -17370.886        -490.237           0.255  
> 2023 05 18 00 01 00.0688020  0  5                     
G02  24250866.761      156385.266        2906.354           0.239  
G03  22339007.785      -23162.675        -511.374           0.255  
G04  23594182.856      -91893.720       -2101.260           0.244  
G05  22523444.472       91117.160        2042.597           0.255  
G06  20630136.979      -17419.874        -490.006           0.255  
> 2023 05 18 00 01 00.1688020  0  5                     
G02  24250792.650      156675.835        2904.418           0.239  
G03  22339020.826      -23213.822        -512.151           0.255  
G04  23594237.169      -92105.501       -2117.876           0.244  
G05  22523392.648       91321.809        2115.939           0.255  
G06  20630149.840      -17468.864        -489.730           0.255  
> 2023 05 18 00 01 00.2688020  0  5                     
G02  24250717.577      156966.422        2906.615           0.239  
G03  22339034.791      -23264.978        -511.986           0.255  
G04  23594291.734      -92317.477       -2119.723           0.244  
G05  22523340.583       91525.721        2043.502           0.255  
G06  20630161.295      -17517.859        -490.248           0.255  
> 2023 05 18 00 01 00.3688020  0  5                     
G02  24250644.590      157256.988        2903.790           0.239  
G03  22339047.053      -23316.141        -511.556           0.255  
G04  23594345.371      -92529.450       -2117.774           0.244  
G05  22523288.427       91730.001        2042.745           0.255  
G06  20630174.150      -17566.855        -490.152           0.255  
> 2023 05 18 00 01 00.4688020  0  5                     
G02  24250569.776      157547.567        2906.110           0.239  
G03  22339058.877      -23367.297        -509.795           0.255  
G04  23594399.492      -92741.421       -2120.162           0.244  
G05  22523236.462       91934.268        2042.386           0.255  
G06  20630186.958      -17615.858        -490.909           0.255  
> 2023 05 18 00 01 00.5688020  0  5                     
G02  24250496.563      157838.156        2906.393           0.239  
G03  22339072.474      -23418.442        -508.866           0.255  
G04  23594452.717      -92953.401       -2120.605           0.244  
G05  22523184.371       92138.532        2042.892           0.255  
G06  20630199.827      -17664.875        -491.727           0.255  
> 2023 05 18 00 01 00.6688020  0  5                     
G02  24250422.520      158128.605        2948.708           0.239  
G03  22339086.351      -23469.185        -442.084           0.255  
G04  23594506.451      -93166.087       -2237.630           0.244  
G05  22523132.446       92342.806        2043.308           0.255  
G06  20630212.005      -17713.875        -490.219           0.255  
> 2023 05 18 00 01 00.7688020  0  5                     
G02  24250348.261      158419.301        2906.719           0.239  
G03  22339099.788      -23520.820        -513.236           0.255  
G04  23594560.969      -93377.181       -2075.414           0.244  
G05  22523080.323       92547.068        2042.401           0.255  
G06  20630224.676      -17762.881        -489.599           0.255  
> 2023 05 18 00 01 00.8688020  0  5                     
G02  24250274.328      158709.870        2905.161           0.239  
G03  22339112.703      -23572.018        -513.639           0.255  
G04  23594614.297      -93589.360       -2135.234           0.244  
G05  22523028.856       92751.762        2121.726           0.255  
G06  20630236.740      -17811.888        -489.100           0.255  
> 2023 05 18 00 01 00.9688020  0  5                     
G02  24250200.817      159000.448        2904.725           0.239  
G03  22339125.120      -23623.479        -562.028           0.255  
G04  23594669.074      -93801.287       -2119.529           0.244  
G05  22522976.123       92955.601        2042.426           0.255  
G06  20630249.395      -17860.908        -489.772           0.255  
> 2023 05 18 00 01 01.0688020  0  5                     
G02  24250126.290      159291.026        2905.518           0.239  
G03  22339139.006      -23674.383        -511.474           0.255  
G04  23594723.407      -94013.205       -2127.145           0.244  
G05  22522924.006       93159.863        2043.483           0.255  
G06  20630261.699      -17909.936        -490.133           0.255  
> 2023 05 18 00 01 01.1688020  0  5                     
G02  24250052.284      159581.609        2905.871           0.239  
G03  22339152.465      -23725.573        -511.753           0.255  
G04  23594776.838      -94225.247       -2119.556           0.244  
G05  22522872.123       93364.120        2042.352           0.255  
G06  20630274.580      -17958.961        -490.195           0.255  
> 2023 05 18 00 01 01.2688020  0  5                     
G02  24249977.438      159872.183        2906.304           0.239  
G03  22339164.486      -23776.781        -512.694           0.255  
G04  23594831.380      -94437.239       -2120.197           0.244  
G05  22522819.950       93568.371        2041.783           0.255  
G06  20630287.512      -18007.992        -490.009           0.255  
> 2023 05 18 00 01 01.3688020  0  5                     
G02  24249903.901      160162.721        2890.890           0.239  
G03  22339176.253      -23828.151        -554.637           0.255  
G04  23594885.442      -94649.195       -2102.613           0.244  
G05  22522768.141       93772.629        2042.652           0.255  
G06  20630300.215      -18057.019        -489.470           0.255  
> 2023 05 18 00 01 01.4688020  0  5                     
G02  24249830.248      160453.333        2905.322           0.239  
G03  22339189.974      -23879.187        -512.763           0.255  
G04  23594939.131      -94861.202       -2120.205           0.244  
G05  22522715.755       93976.884        2043.055           0.255  
G06  20630312.350      -18106.056        -489.737           0.255  
> 2023 05 18 00 01 01.5688020  0  5                     
G02  24249755.987      160743.915        2905.963           0.239  
G03  22339203.430      -23930.405        -511.584           0.255  
G04  23594993.633      -95073.103       -2115.781           0.244  
G05  22522663.730       94181.081        2034.046           0.255  
G06  20630324.226      -18155.090        -490.561           0.255  
> 2023 05 18 00 01 01.6688020  0  5                     
G02  24249681.630      161034.491        2905.370           0.239  
G03  22339215.916      -23981.639        -426.570           0.255  
G04  23595047.698      -95285.168       -2119.802           0.244  
G05  22522611.759       94385.375        2041.665           0.255  
G06  20630337.063      -18204.140        -492.077           0.255  
> 2023 05 18 00 01 01.7688020  0  5                     
G02  24249607.542      161325.074        2906.390           0.239  
G03  22339230.400      -24032.428        -429.376           0.255  
G04  23595101.055      -95497.162       -2120.748           0.244  
G05  22522559.486       94589.632        2043.162           0.255  
G06  20630349.324      -18253.196        -492.001           0.255  
> 2023 05 18 00 01 01.8688020  0  5                     
G02  24249533.575      161615.649        2906.270           0.239  
G03  22339242.926      -24084.063        -512.844           0.255  
G04  23595155.076      -95709.285       -2142.703           0.244  
G05  22522507.881       94793.872        2042.798           0.255  
G06  20630362.406      -18302.239        -489.812           0.255  
> 2023 05 18 00 01 01.9688020  0  5                     
G02  24249459.382      161906.228        2905.804           0.239  
G03  22339256.752      -24135.314        -513.845           0.255  
G04  23595209.769      -95921.138       -2120.527           0.244  
G05  22522455.585       94998.111        2042.534           0.255  
G06  20630374.226      -18351.280        -490.072           0.255  
> 2023 05 18 00 01 02.0688020  0  5                     
G02  24249385.773      162196.797        2905.629           0.239  
G03  22339269.498      -24186.562        -513.463           0.255  
G04  23595263.418      -96133.116       -2120.359           0.244  
G05  22522403.700       95202.347        2041.793           0.255  
G06  20630386.312      -18400.330        -489.638           0.255  
> 2023 05 18 00 01 02.1688020  0  5                     
G02  24249312.777      162487.372        2905.161           0.239  
G03  22339281.952      -24238.015        -515.150           0.255  
G04  23595316.908      -96345.374       -2154.058           0.244  
G05  22522351.620       95406.591        2042.397           0.255  
G06  20630399.019      -18449.396        -490.822           0.255  
> 2023 05 18 00 01 02.2688020  0  5                     
G02  24249237.484      162778.270        2980.731           0.239  
G03  22339294.621      -24289.023        -511.236           0.255  
G04  23595371.594      -96557.104       -2138.815           0.244  
G05  22522299.545       95610.828        2043.078           0.255  
G06  20630411.983      -18498.464        -491.139           0.255  
> 2023 05 18 00 01 02.3688020  0  5                     
G02  24249164.616      163068.547        2906.513           0.239  
G03  22339308.491      -24340.277        -512.379           0.255  
G04  23595424.949      -96769.099       -2120.360           0.244  
G05  22522247.510       95815.055        2042.140           0.255  
G06  20630424.327      -18547.529        -490.815           0.255  
> 2023 05 18 00 01 02.4688020  0  5                     
G02  24249089.602      163359.113        2906.026           0.238  
G03  22339320.233      -24391.493        -534.835           0.255  
G04  23595479.484      -96981.142       -2137.338           0.243  
G05  22522195.311       96019.277        2041.345           0.255  
G06  20630437.522      -18596.599        -490.607           0.255  
> 2023 05 18 00 01 02.5688020  0  5                     
G02  24249015.294      163649.689        2906.003           0.239  
G03  22339333.936      -24442.803        -513.301           0.255  
G04  23595533.460      -97193.081       -2120.772           0.244  
G05  22522143.400       96223.513        2041.816           0.255  
G06  20630449.436      -18645.661        -490.383           0.255  
> 2023 05 18 00 01 02.6688020  0  5                     
G02  24248941.789      163940.265        2906.460           0.239  
G03  22339346.804      -24494.062        -512.579           0.255  
G04  23595587.108      -97405.070       -2120.593           0.244  
G05  22522091.322       96427.666        2008.866           0.255  
G06  20630461.783      -18694.741        -490.577           0.255  
> 2023 05 18 00 01 02.7688020  0  5                     
G02  24248867.518      164230.845        2906.404           0.239  
G03  22339359.176      -24545.318        -510.660           0.255  
G04  23595641.697      -97617.063       -2120.179           0.244  
G05  22522039.242       96631.966        2042.241           0.255  
G06  20630474.673      -18743.827        -492.060           0.255  
> 2023 05 18 00 01 02.8688020  0  5                     
G02  24248793.041      164521.420        2905.684           0.239  
G03  22339372.852      -24596.574        -510.922           0.255  
G04  23595695.886      -97829.058       -2119.375           0.244  
G05  22521987.290       96836.189        2042.426           0.255  
G06  20630487.317      -18792.922        -492.053           0.255  
> 2023 05 18 00 01 02.9688020  0  5                     
G02  24248719.602      164811.976        2878.139           0.239  
G03  22339386.092      -24647.864        -514.112           0.255  
G04  23595749.594      -98041.154       -2114.340           0.244  
G05  22521935.108       97040.401        2041.787           0.255  
G06  20630500.003      -18841.998        -490.322           0.255  
> 2023 05 18 00 01 03.0688020  0  5                     
G02  24248645.431      165102.557        2905.414           0.239  
G03  22339398.234      -24699.864        -563.333           0.255  
G04  23595803.710      -98253.059       -2120.056           0.244  
G05  22521883.074       97244.830        2067.285           0.255  
G06  20630512.694      -18891.082        -490.177           0.255  
> 2023 05 18 00 01 03.1688020  0  5                     
G02  24248571.424      165393.061        2915.653           0.239  
G03  22339412.141      -24750.458        -513.037           0.255  
G04  23595857.736      -98464.898       -2116.353           0.244  
G05  22521831.080       97448.841        2042.537           0.255  
G06  20630524.723      -18940.167        -490.699           0.255  
> 2023 05 18 00 01 03.2688020  0  5                     
G02  24248497.549      165683.703        2906.005           0.239  
G03  22339424.357      -24801.893        -500.707           0.255  
G04  23595911.697      -98677.060       -2120.353           0.244  
G05  22521779.272       97652.648        1990.970           0.255  
G06  20630537.251      -18989.269        -491.402           0.255  
> 2023 05 18 00 01 03.3688020  0  5                     
G02  24248422.899      165974.273        2905.136           0.239  
G03  22339437.407      -24853.015        -512.139           0.255  
G04  23595965.472      -98889.026       -2142.470           0.244  
G05  22521727.005       97857.309        2068.203           0.255  
G06  20630550.256      -19038.379        -491.649           0.255  
> 2023 05 18 00 01 03.4688020  0  5                     
G02  24248348.620      166264.855        2906.936           0.239  
G03  22339451.627      -24904.321        -513.514           0.255  
G04  23596019.767      -99101.081       -2121.681           0.244  
G05  22521675.017       98061.883        2130.032           0.255  
G06  20630562.175      -19087.482        -490.996           0.255  
> 2023 05 18 00 01 03.5688020  0  5                     
G02  24248275.037      166555.408        2904.712           0.239  
G03  22339465.195      -24955.633        -513.518           0.255  
G04  23596073.692      -99313.072       -2120.129           0.244  
G05  22521623.113       98265.681        2042.319           0.255  
G06  20630574.518      -19136.586        -490.635           0.255  
> 2023 05 18 00 01 03.6688020  0  5                     
G02  24248201.028      166845.980        2905.427           0.239  
G03  22339477.742      -25006.940        -512.498           0.255  
G04  23596128.273      -99525.069       -2119.448           0.244  
G05  22521570.876       98469.892        2042.882           0.255  
G06  20630587.164      -19185.694        -491.437           0.255  
> 2023 05 18 00 01 03.7688020  0  5                     
G02  24248127.624      167136.772        2942.581           0.239  
G03  22339490.194      -25058.250        -512.320           0.255  
G04  23596181.589      -99737.079       -2119.690           0.244  
G05  22521519.027       98673.795        2010.890           0.255  
G06  20630599.661      -19234.810        -491.543           0.255  
> 2023 05 18 00 01 03.8688020  0  5                     
G02  24248052.511      167427.126        2905.238           0.239  
G03  22339503.319      -25108.953        -424.884           0.255  
G04  23596235.948      -99949.060       -2143.855           0.244  
G05  22521466.928       98878.287        2041.447           0.255  
G06  20630612.591      -19283.935        -492.161           0.255  
> 2023 05 18 00 01 03.9688020  0  5                     
G02  24247978.654      167717.604        2853.743           0.239  
G03  22339517.600      -25160.884        -514.264           0.255  
G04  23596290.014     -100161.104       -2120.643           0.244  
G05  22521414.856       99082.814        2113.766           0.255  
G06  20630624.800      -19333.056        -490.908           0.255  
> 2023 05 18 00 01 04.0688020  0  5                     
G02  24247903.671      168008.263        2905.039           0.239  
G03  22339530.114      -25211.992        -490.387           0.255  
G04  23596344.083     -100372.800       -2083.118           0.244  
G05  22521362.748       99286.813        2053.463           0.255  
G06  20630637.075      -19382.169        -490.324           0.255  
> 2023 05 18 00 01 04.1688020  0  5                     
G02  24247831.496      168298.829        2904.757           0.239  
G03  22339541.112      -25263.546        -512.833           0.255  
G04  23596397.169     -100585.115       -2119.555           0.244  
G05  22521310.945       99490.701        1988.113           0.255  
G06  20630651.315      -19431.300        -491.589           0.255  
> 2023 05 18 00 01 04.2688020  0  5                     
G02  24247756.198      168589.404        2905.153           0.239  
G03  22339556.109      -25314.892        -513.329           0.255  
G04  23596452.834     -100797.141       -2120.704           0.244  
G05  22521258.512       99694.550        1987.125           0.255  
G06  20630662.515      -19480.428        -491.673           0.255  
> 2023 05 18 00 01 04.3688020  0  5                     
G02  24247682.115      168879.984        2906.046           0.239  
G03  22339571.090      -25366.242        -513.814           0.255  
G04  23596507.371     -101009.146       -2119.996           0.244  
G05  22521206.499       99899.253        2041.800           0.255  
G06  20630674.236      -19529.557        -491.140           0.255  
> 2023 05 18 00 01 04.4688020  0  5                     
G02  24247608.569      169170.558        2905.907           0.239  
G03  22339585.279      -25417.570        -513.407           0.255  
G04  23596560.027     -101221.163       -2120.720           0.243  
G05  22521154.270      100103.438        2041.471           0.255  
G06  20630685.654      -19578.703        -491.173           0.255  
> 2023 05 18 00 01 04.5688020  0  5                     
G02  24247534.797      169461.122        2906.482           0.239  
G03  22339597.068      -25468.920        -513.207           0.255  
G04  23596613.899     -101433.189       -2121.339           0.244  
G05  22521102.807      100307.634        2042.195           0.255  
G06  20630699.365      -19627.841        -491.116           0.255  
> 2023 05 18 00 01 04.6688020  0  5                     
G02  24247460.815      169751.701        2907.128           0.239  
G03  22339609.153      -25520.273        -513.239           0.255  
G04  23596667.309     -101645.214       -2122.104           0.244  
G05  22521050.928      100511.810        2041.871           0.255  
G06  20630712.172      -19676.991        -491.381           0.255  
> 2023 05 18 00 01 04.7688020  0  5                     
G02  24247386.376      170042.255        2905.424           0.239  
G03  22339619.963      -25571.638        -513.969           0.255  
G04  23596722.151     -101857.212       -2120.584           0.244  
G05  22520998.620      100715.996        2041.999           0.255  
G06  20630725.476      -19726.133        -491.122           0.255  
> 2023 05 18 00 01 04.8688020  0  5                     
G02  24247313.180      170332.833        2905.113           0.239  
G03  22339633.401      -25622.997        -514.501           0.255  
G04  23596776.314     -102069.228       -2118.936           0.244  
G05  22520946.693      100920.176        2042.232           0.255  
G06  20630738.184      -19775.286        -491.064           0.255  
> 2023 05 18 00 01 04.9688020  0  5                     
G02  24247238.660      170623.409        2906.656           0.239  
G03  22339646.459      -25674.356        -512.329           0.255  
G04  23596830.386     -102281.252       -2120.573           0.244  
G05  22520894.496      101124.343        2040.999           0.255  
G06  20630750.217      -19824.438        -492.429           0.255  
> 2023 05 18 00 01 05.0688020  0  5                     
G02  24247163.225      170913.964        2904.648           0.239  
G03  22339662.208      -25725.716        -511.683           0.255  
G04  23596884.848     -102493.266       -2119.130           0.244  
G05  22520842.340      101328.514        2041.874           0.255  
G06  20630761.843      -19873.607        -492.959           0.255  
> 2023 05 18 00 01 05.1688020  0  5                     
G02  24247090.398      171204.537        2904.837           0.239  
G03  22339673.889      -25777.110        -512.058           0.255  
G04  23596937.952     -102705.288       -2118.929           0.244  
G05  22520790.406      101532.689        2042.166           0.255  
G06  20630774.577      -19922.760        -492.432           0.255  
> 2023 05 18 00 01 05.2688020  0  5                     
G02  24247015.938      171495.120        2905.702           0.239  
G03  22339687.938      -25828.468        -510.299           0.255  
G04  23596992.298     -102917.321       -2119.881           0.244  
G05  22520738.358      101736.860        2042.128           0.255  
G06  20630786.601      -19971.934        -493.595           0.255  
> 2023 05 18 00 01 05.3688020  0  5                     
G02  24246943.050      171785.695        2905.969           0.239  
G03  22339700.175      -25879.876        -512.858           0.255  
G04  23597046.321     -103129.294       -2123.934           0.244  
G05  22520686.208      101940.642        1982.492           0.255  
G06  20630800.697      -20021.095        -492.323           0.255  
> 2023 05 18 00 01 05.4688020  0  5                     
G02  24246868.513      172076.256        2905.688           0.239  
G03  22339713.431      -25931.271        -514.444           0.255  
G04  23597100.268     -103341.180       -2084.515           0.244  
G05  22520634.277      102145.188        2041.575           0.255  
G06  20630812.876      -20070.266        -491.938           0.255  
> 2023 05 18 00 01 05.5688020  0  5                     
G02  24246794.732      172366.225        2879.589           0.239  
G03  22339723.786      -25982.665        -513.787           0.255  
G04  23597154.334     -103553.383       -2120.481           0.244  
G05  22520582.635      102349.345        2040.439           0.255  
G06  20630826.571      -20119.439        -491.827           0.255  
> 2023 05 18 00 01 05.6688020  0  5                     
G02  24246720.576      172657.386        2905.924           0.239  
G03  22339738.218      -26034.062        -514.943           0.255  
G04  23597208.606     -103765.422       -2083.151           0.244  
G05  22520530.221      102553.515        2041.804           0.255  
G06  20630837.372      -20168.616        -491.222           0.255  
> 2023 05 18 00 01 05.7688020  0  5                     
G02  24246646.784      172947.957        2903.628           0.239  
G03  22339752.920      -26085.460        -511.617           0.255  
G04  23597262.188     -103977.442       -2118.835           0.244  
G05  22520478.161      102757.676        2042.404           0.255  
G06  20630850.016      -20217.805        -492.036           0.255  
> 2023 05 18 00 01 05.8688020  0  5                     
G02  24246572.517      173238.527        2905.815           0.239  
G03  22339768.978      -26136.872        -513.631           0.255  
G04  23597316.743     -104189.472       -2120.477           0.244  
G05  22520426.387      102961.854        2009.396           0.255  
G06  20630860.683      -20266.987        -491.895           0.255  
> 2023 05 18 00 01 05.9688020  0  5                     
G02  24246497.374      173529.118        2905.062           0.238  
G03  22339779.264      -26188.287        -514.040           0.255  
G04  23597371.377     -104401.514       -2120.006           0.244  
G05  22520374.352      103165.989        2041.598           0.255  
G06  20630874.862      -20316.175        -491.671           0.255  
> 2023 05 18 00 01 06.0688020  0  7                     
G02  24246423.548      173819.678        2905.514           0.239  
G03  22339796.252      -26239.690        -514.144           0.255  
G04  23597425.172     -104613.534       -2119.448           0.243  
G05  22520322.249      103370.136        2041.513           0.255  
G06  20630884.751      -20365.376        -491.523           0.255  
G07  23394620.885      -46600.296       -1302.171           0.248  
G09  23116682.072      -46195.486       -1426.126           0.251  
> 2023 05 18 00 01 06.1688020  0  7                     
G02  24246349.806      174110.243        2904.556           0.239  
G03  22339807.031      -26291.116        -512.532           0.255  
G04  23597479.187     -104825.565       -2119.337           0.244  
G05  22520270.270      103574.281        2040.992           0.255  
G06  20630898.918      -20414.565        -492.203           0.255  
G07  23394654.592      -46730.544       -1302.738           0.248  
G09  23116719.705      -46338.080       -1425.923           0.252  
> 2023 05 18 00 01 06.2688020  0  7                     
G02  24246276.117      174400.830        2907.346           0.239  
G03  22339818.953      -26342.546        -514.209           0.255  
G04  23597533.001     -105037.616       -2121.550           0.244  
G05  22520218.043      103778.433        2040.884           0.255  
G06  20630912.688      -20463.769        -491.751           0.255  
G07  23394687.725      -46860.810       -1302.491           0.248  
G09  23116754.367      -46480.669       -1426.310           0.251  
> 2023 05 18 00 01 06.3688020  0  7                     
G02  24246202.525      174691.412        2902.527           0.239  
G03  22339832.447      -26395.285        -637.805           0.255  
G04  23597586.077     -105249.648       -2120.208           0.244  
G05  22520166.025      103982.898        2091.698           0.255  
G06  20630924.975      -20512.961        -490.529           0.255  
G07  23394721.125      -46991.190       -1313.935           0.248  
G09  23116790.579      -46623.333       -1430.840           0.252  
> 2023 05 18 00 01 06.4688020  0  7                     
G02  24246127.890      174981.965        2905.389           0.239  
G03  22339844.540      -26445.441        -515.799           0.255  
G04  23597640.455     -105461.679       -2119.462           0.244  
G05  22520114.275      104186.724        2042.168           0.255  
G06  20630937.606      -20562.159        -490.939           0.255  
G07  23394754.364      -47121.338       -1302.563           0.248  
G09  23116827.480      -46765.848       -1425.876           0.252  
> 2023 05 18 00 01 06.5688020  0  7                     
G02  24246053.661      175272.542        2905.656           0.239  
G03  22339856.734      -26496.857        -512.481           0.255  
G04  23597694.873     -105673.724       -2120.133           0.244  
G05  22520062.137      104390.872        2041.808           0.255  
G06  20630950.655      -20611.378        -492.957           0.255  
G07  23394787.537      -47251.546       -1297.239           0.248  
G09  23116863.687      -46908.451       -1426.062           0.252  
> 2023 05 18 00 01 06.6688020  0  7                     
G02  24245979.379      175563.109        2905.804           0.239  
G03  22339870.511      -26548.294        -513.688           0.255  
G04  23597749.352     -105885.760       -2120.874           0.244  
G05  22520009.901      104594.505        1949.588           0.255  
G06  20630963.084      -20660.594        -492.085           0.255  
G07  23394820.695      -47381.873       -1302.160           0.248  
G09  23116900.600      -47051.049       -1426.460           0.251  
> 2023 05 18 00 01 06.7688020  0  7                     
G02  24245906.379      175853.679        2906.323           0.239  
G03  22339884.516      -26599.740        -514.983           0.255  
G04  23597802.301     -106097.805       -2120.980           0.244  
G05  22519958.167      104799.153        2041.931           0.255  
G06  20630975.523      -20709.815        -491.819           0.255  
G07  23394853.576      -47512.153       -1302.609           0.248  
G09  23116935.856      -47193.641       -1426.067           0.251  
> 2023 05 18 00 01 06.8688020  0  7                     
G02  24245831.803      176144.244        2905.580           0.239  
G03  22339896.897      -26651.210        -515.636           0.255  
G04  23597857.295     -106309.838       -2119.930           0.244  
G05  22519906.227      105003.276        2040.735           0.255  
G06  20630987.621      -20759.025        -491.665           0.255  
G07  23394886.796      -47642.433       -1302.734           0.248  
G09  23116973.611      -47336.237       -1425.105           0.251  
> 2023 05 18 00 01 06.9688020  0  7                     
G02  24245758.083      176434.802        2903.776           0.239  
G03  22339908.254      -26702.663        -514.156           0.255  
G04  23597911.163     -106521.447       -2095.182           0.244  
G05  22519853.731      105207.406        2040.254           0.255  
G06  20631000.841      -20808.254        -491.945           0.255  
G07  23394920.231      -47772.713       -1303.224           0.248  
G09  23117009.685      -47478.803       -1428.581           0.252  
> 2023 05 18 00 01 07.0688020  0  7                     
G02  24245682.651      176725.390        2905.911           0.239  
G03  22339922.037      -26754.111        -514.245           0.255  
G04  23597965.789     -106733.930       -2121.361           0.244  
G05  22519802.253      105411.547        2041.606           0.255  
G06  20631013.485      -20857.485        -492.578           0.255  
G07  23394953.523      -47902.994       -1302.297           0.248  
G09  23117045.488      -47621.431       -1425.815           0.252  
> 2023 05 18 00 01 07.1688020  0  7                     
G02  24245609.216      177015.725        2829.192           0.239  
G03  22339935.877      -26806.184        -635.503           0.255  
G04  23598019.017     -106945.969       -2120.703           0.244  
G05  22519749.703      105615.670        2041.821           0.255  
G06  20631026.123      -20906.717        -491.908           0.255  
G07  23394986.664      -48033.283       -1301.856           0.248  
G09  23117081.591      -47763.781       -1387.344           0.251  
> 2023 05 18 00 01 07.2688020  0  7                     
G02  24245535.312      177306.525        2904.353           0.239  
G03  22339950.623      -26857.070        -517.334           0.255  
G04  23598072.578     -107158.013       -2119.869           0.244  
G05  22519698.203      105819.794        2041.784           0.255  
G06  20631037.435      -20955.934        -490.604           0.255  
G07  23395019.892      -48163.584       -1302.695           0.248  
G09  23117118.068      -47906.624       -1426.097           0.251  
> 2023 05 18 00 01 07.3688020  0  7                     
G02  24245462.325      177597.089        2903.092           0.239  
G03  22339963.277      -26908.561        -516.551           0.255  
G04  23598126.386     -107370.059       -2119.374           0.244  
G05  22519646.048      106023.928        2041.460           0.255  
G06  20631050.222      -21005.175        -492.177           0.255  
G07  23395053.372      -48293.876       -1303.007           0.248  
G09  23117154.231      -48049.220       -1425.760           0.251  
> 2023 05 18 00 01 07.4688020  0  7                     
G02  24245387.347      177887.672        2905.203           0.239  
G03  22339973.037      -26960.007        -515.227           0.255  
G04  23598180.466     -107582.005       -2101.651           0.244  
G05  22519594.177      106228.050        2041.397           0.255  
G06  20631064.504      -21054.418        -492.217           0.255  
G07  23395086.711      -48424.174       -1303.220           0.248  
G09  23117190.797      -48191.823       -1426.355           0.251  
> 2023 05 18 00 01 07.5688020  0  7                     
G02  24245313.092      178178.235        2905.137           0.239  
G03  22339988.886      -27011.475        -515.497           0.255  
G04  23598234.550     -107794.163       -2120.312           0.244  
G05  22519541.995      106432.162        2041.619           0.255  
G06  20631076.099      -21103.671        -492.095           0.255  
G07  23395119.532      -48554.470       -1302.831           0.248  
G09  23117227.643      -48334.421       -1425.683           0.251  
> 2023 05 18 00 01 07.6688020  0  7                     
G02  24245238.297      178468.810        2904.948           0.239  
G03  22340004.937      -27062.990        -516.044           0.255  
G04  23598288.776     -108006.216       -2120.363           0.244  
G05  22519490.002      106636.276        2040.441           0.255  
G06  20631086.421      -21152.907        -491.514           0.255  
G07  23395152.560      -48684.767       -1302.179           0.248  
G09  23117264.235      -48477.030       -1425.984           0.251  
> 2023 05 18 00 01 07.7688020  0  7                     
G02  24245163.457      178759.255        2849.314           0.239  
G03  22340017.779      -27114.479        -514.517           0.255  
G04  23598344.113     -108218.265       -2120.099           0.244  
G05  22519437.821      106840.387        2040.329           0.255  
G06  20631099.065      -21202.157        -492.430           0.255  
G07  23395185.954      -48815.078       -1302.929           0.248  
G09  23117300.123      -48619.631       -1426.487           0.251  
> 2023 05 18 00 01 07.8688020  0  7                     
G02  24245089.970      179049.963        2905.714           0.239  
G03  22340033.433      -27166.223        -553.441           0.255  
G04  23598397.438     -108430.295       -2114.776           0.244  
G05  22519385.659      107044.511        2041.005           0.255  
G06  20631110.583      -21251.415        -492.329           0.255  
G07  23395218.867      -48945.365       -1291.445           0.248  
G09  23117336.116      -48762.230       -1426.175           0.252  
> 2023 05 18 00 01 07.9688020  0  7                     
G02  24245016.711      179340.531        2905.479           0.239  
G03  22340041.820      -27217.479        -514.481           0.255  
G04  23598451.548     -108642.373       -2120.397           0.244  
G05  22519333.959      107248.626        2041.570           0.255  
G06  20631126.101      -21300.666        -492.555           0.255  
G07  23395252.253      -49075.698       -1302.952           0.248  
G09  23117372.654      -48904.771       -1418.070           0.252  
> 2023 05 18 00 01 08.0688020  0  7                     
G02  24244942.751      179631.102        2906.610           0.239  
G03  22340054.459      -27268.986        -514.842           0.255  
G04  23598505.286     -108854.613       -2152.448           0.244  
G05  22519281.799      107452.730        2041.432           0.255  
G06  20631138.961      -21349.931        -492.780           0.255  
G07  23395285.336      -49206.019       -1293.116           0.248  
G09  23117408.123      -49047.437       -1426.064           0.252  
> 2023 05 18 00 01 08.1688020  0  7                     
G02  24244868.907      179921.682        2906.861           0.239  
G03  22340069.676      -27320.650        -531.622           0.255  
G04  23598559.475     -109066.493       -2121.949           0.244  
G05  22519230.008      107656.752        2014.211           0.255  
G06  20631149.555      -21399.191        -492.160           0.255  
G07  23395319.077      -49336.330       -1303.327           0.248  
G09  23117445.166      -49190.040       -1425.946           0.251  
> 2023 05 18 00 01 08.2688020  0  7                     
G02  24244793.761      180212.247        2906.618           0.239  
G03  22340081.555      -27372.014        -515.424           0.255  
G04  23598614.357     -109278.543       -2121.601           0.244  
G05  22519177.991      107860.946        2041.574           0.255  
G06  20631162.665      -21448.462        -492.659           0.255  
G07  23395352.077      -49466.648       -1303.242           0.248  
G09  23117482.004      -49332.648       -1426.270           0.251  
> 2023 05 18 00 01 08.3688020  0  7                     
G02  24244720.170      180502.828        2907.353           0.239  
G03  22340093.744      -27423.526        -514.752           0.255  
G04  23598668.462     -109490.603       -2121.428           0.244  
G05  22519125.908      108065.047        2041.319           0.255  
G06  20631176.987      -21497.734        -493.379           0.255  
G07  23395384.655      -49596.969       -1303.198           0.248  
G09  23117516.509      -49475.263       -1426.294           0.252  
> 2023 05 18 00 01 08.4688020  0  7                     
G02  24244645.929      180793.383        2905.417           0.239  
G03  22340105.650      -27475.055        -516.252           0.255  
G04  23598722.612     -109702.654       -2120.694           0.244  
G05  22519073.761      108269.148        2041.540           0.255  
G06  20631189.792      -21547.004        -491.830           0.255  
G07  23395418.135      -49727.294       -1303.462           0.248  
G09  23117553.850      -49617.871       -1426.696           0.251  
> 2023 05 18 00 01 08.5688020  0  7                     
G02  24244572.607      181083.931        2906.277           0.239  
G03  22340117.029      -27526.588        -515.529           0.255  
G04  23598776.609     -109914.707       -2120.232           0.244  
G05  22519021.413      108473.234        2040.176           0.255  
G06  20631202.704      -21596.288        -492.966           0.255  
G07  23395451.803      -49857.619       -1303.151           0.248  
G09  23117590.135      -49760.472       -1425.924           0.251  
> 2023 05 18 00 01 08.6688020  0  7                     
G02  24244499.023      181374.415        2890.986           0.239  
G03  22340132.076      -27578.119        -513.814           0.255  
G04  23598829.708     -110126.770       -2120.375           0.244  
G05  22518969.772      108677.415        2058.451           0.255  
G06  20631214.977      -21645.571        -493.492           0.255  
G07  23395485.224      -49987.943       -1302.958           0.248  
G09  23117626.053      -49902.871       -1399.940           0.251  
> 2023 05 18 00 01 08.7688020  0  7                     
G02  24244422.514      181665.065        2905.644           0.239  
G03  22340143.797      -27629.658        -520.444           0.255  
G04  23598885.215     -110338.832       -2120.583           0.244  
G05  22518917.782      108881.431        2040.036           0.255  
G06  20631227.888      -21694.850        -493.448           0.255  
G07  23395518.005      -50118.283       -1303.133           0.248  
G09  23117663.215      -50045.688       -1425.922           0.251  
> 2023 05 18 00 01 08.8688020  0  7                     
G02  24244351.274      181955.626        2905.258           0.239  
G03  22340158.657      -27681.200        -514.774           0.255  
G04  23598937.430     -110550.891       -2120.298           0.244  
G05  22518866.094      109085.530        2040.913           0.255  
G06  20631239.858      -21744.137        -492.650           0.255  
G07  23395551.104      -50248.619       -1303.562           0.248  
G09  23117698.766      -50188.276       -1416.755           0.251  
> 2023 05 18 00 01 08.9688020  0  7                     
G02  24244277.630      182246.190        2905.862           0.240  
G03  22340168.951      -27732.750        -515.386           0.255  
G04  23598991.946     -110762.951       -2120.333           0.244  
G05  22518813.893      109289.615        2041.511           0.255  
G06  20631253.048      -21793.426        -492.550           0.255  
G07  23395584.290      -50378.957       -1303.161           0.248  
G09  23117735.602      -50330.917       -1426.973           0.251  
> 2023 05 18 00 01 09.0688020  0  7                     
G02  24244202.947      182536.756        2905.475           0.239  
G03  22340185.141      -27784.577        -522.736           0.255  
G04  23599046.180     -110975.027       -2120.737           0.244  
G05  22518761.557      109493.690        2041.622           0.255  
G06  20631264.591      -21842.729        -493.751           0.255  
G07  23395617.603      -50509.284       -1288.218           0.248  
G09  23117772.279      -50473.608       -1416.894           0.251  
> 2023 05 18 00 01 09.1688020  0  7                     
G02  24244128.811      182827.326        2906.320           0.239  
G03  22340201.219      -27835.858        -514.344           0.255  
G04  23599099.553     -111187.093       -2121.857           0.244  
G05  22518709.868      109697.771        2041.657           0.255  
G06  20631275.617      -21892.019        -493.753           0.255  
G07  23395650.871      -50639.645       -1303.200           0.248  
G09  23117808.813      -50616.131       -1425.461           0.252  
> 2023 05 18 00 01 09.2688020  0  7                     
G02  24244054.982      183117.901        2905.955           0.239  
G03  22340213.300      -27887.432        -515.494           0.255  
G04  23599153.507     -111399.170       -2121.629           0.244  
G05  22518657.716      109901.860        2041.642           0.255  
G06  20631288.375      -21941.320        -493.087           0.255  
G07  23395683.915      -50769.991       -1303.408           0.248  
G09  23117845.365      -50758.743       -1425.966           0.252  
> 2023 05 18 00 01 09.3688020  0  7                     
G02  24243980.508      183408.439        2905.402           0.239  
G03  22340228.230      -27938.983        -515.674           0.255  
G04  23599207.736     -111611.219       -2120.671           0.244  
G05  22518605.923      110105.946        2041.063           0.255  
G06  20631300.285      -21990.628        -493.038           0.255  
G07  23395717.235      -50900.346       -1303.630           0.248  
G09  23117881.352      -50901.357       -1425.806           0.252  
> 2023 05 18 00 01 09.4688020  0  7                     
G02  24243906.154      183699.007        2904.885           0.239  
G03  22340242.176      -27990.560        -516.463           0.255  
G04  23599261.691     -111823.290       -2120.588           0.244  
G05  22518553.819      110310.021        2040.953           0.255  
G06  20631312.385      -22039.935        -492.541           0.255  
G07  23395750.527      -51030.698       -1303.534           0.248  
G09  23117917.425      -51043.984       -1426.491           0.252  
> 2023 05 18 00 01 09.5688020  0  7                     
G02  24243831.681      183989.579        2905.070           0.239  
G03  22340251.373      -28042.142        -517.003           0.255  
G04  23599315.887     -112035.366       -2121.268           0.244  
G05  22518502.194      110514.099        2041.244           0.255  
G06  20631327.218      -22089.237        -492.005           0.255  
G07  23395783.585      -51160.923       -1287.145           0.248  
G09  23117953.746      -51186.590       -1425.553           0.251  
> 2023 05 18 00 01 09.6688020  0  7                     
G02  24243758.831      184280.147        2905.802           0.239  
G03  22340265.500      -28093.711        -515.483           0.255  
G04  23599369.699     -112247.640       -2181.143           0.244  
G05  22518449.708      110718.169        2041.118           0.255  
G06  20631338.517      -22138.564        -492.856           0.255  
G07  23395816.783      -51291.413       -1303.573           0.248  
G09  23117991.794      -51329.313       -1412.496           0.251  
> 2023 05 18 00 01 09.7688020  0  7                     
G02  24243685.413      184570.708        2906.084           0.238  
G03  22340279.840      -28145.285        -515.435           0.255  
G04  23599422.634     -112459.294       -2100.272           0.244  
G05  22518398.172      110922.237        2040.373           0.255  
G06  20631351.023      -22187.885        -493.055           0.255  
G07  23395850.106      -51421.783       -1303.802           0.248  
G09  23118027.051      -51471.853       -1433.082           0.251  
> 2023 05 18 00 01 09.8688020  0  7                     
G02  24243610.776      184861.265        2906.162           0.239  
G03  22340292.607      -28196.874        -515.703           0.255  
G04  23599476.999     -112671.589       -2121.341           0.243  
G05  22518346.061      111126.302        2039.586           0.255  
G06  20631362.477      -22237.212        -493.551           0.255  
G07  23395883.338      -51552.144       -1303.741           0.248  
G09  23118064.540      -51614.432       -1426.211           0.252  
> 2023 05 18 00 01 09.9688020  0  7                     
G02  24243536.679      185151.836        2902.936           0.239  
G03  22340304.104      -28248.465        -514.106           0.255  
G04  23599531.749     -112883.652       -2118.410           0.244  
G05  22518293.667      111330.366        2039.520           0.255  
G06  20631376.225      -22286.530        -493.710           0.255  
G07  23395916.412      -51682.515       -1303.711           0.248  
G09  23118101.416      -51757.051       -1426.931           0.252  
> 2023 05 18 00 01 10.0688020  0  7                     
G02  24243463.743      185442.402        2904.814           0.239  
G03  22340316.231      -28300.065        -515.510           0.255  
G04  23599585.338     -113095.733       -2120.164           0.244  
G05  22518241.686      111534.434        2039.972           0.255  
G06  20631389.320      -22335.864        -493.994           0.255  
G07  23395949.758      -51812.882       -1303.385           0.248  
G09  23118137.795      -51899.670       -1426.155           0.251  
> 2023 05 18 00 01 10.1688020  0  7                     
G02  24243387.847      185732.977        2905.534           0.239  
G03  22340329.104      -28351.706        -547.412           0.255  
G04  23599640.516     -113308.019       -2139.685           0.244  
G05  22518189.646      111738.507        2040.574           0.255  
G06  20631401.932      -22385.193        -492.635           0.255  
G07  23395982.501      -51943.269       -1303.978           0.248  
G09  23118173.638      -52042.211       -1393.049           0.252  
> 2023 05 18 00 01 10.2688020  0  7                     
G02  24243313.571      186023.541        2905.232           0.239  
G03  22340342.366      -28403.272        -516.590           0.255  
G04  23599694.498     -113519.902       -2120.952           0.244  
G05  22518137.468      111942.569        2041.594           0.255  
G06  20631416.001      -22434.527        -492.965           0.255  
G07  23396015.884      -52073.649       -1304.309           0.248  
G09  23118208.058      -52184.929       -1427.395           0.252  
> 2023 05 18 00 01 10.3688020  0  7                     
G02  24243240.394      186313.810        2882.249           0.239  
G03  22340356.255      -28454.863        -550.999           0.255  
G04  23599747.870     -113732.128       -2104.479           0.244  
G05  22518086.087      112146.625        2040.991           0.255  
G06  20631427.848      -22483.865        -492.436           0.255  
G07  23396049.258      -52204.028       -1303.898           0.248  
G09  23118244.542      -52327.574       -1418.424           0.251  
> 2023 05 18 00 01 10.4688020  0  7                     
G02  24243166.298      186604.657        2905.609           0.239  
G03  22340366.532      -28506.514        -516.415           0.255  
G04  23599801.451     -113944.066       -2120.179           0.244  
G05  22518034.124      112350.682        2041.009           0.255  
G06  20631441.217      -22533.202        -492.795           0.255  
G07  23396083.670      -52334.410       -1304.149           0.248  
G09  23118281.413      -52470.164       -1425.782           0.251  
> 2023 05 18 00 01 10.5688020  0  7                     
G02  24243091.918      186895.232        2905.769           0.239  
G03  22340381.347      -28557.895        -459.788           0.255  
G04  23599856.089     -114156.441       -2160.213           0.244  
G05  22517982.251      112554.733        2041.334           0.255  
G06  20631453.564      -22582.561        -494.245           0.255  
G07  23396115.272      -52464.803       -1304.343           0.248  
G09  23118317.733      -52612.370       -1319.830           0.252  
> 2023 05 18 00 01 10.6688020  0  7                     
G02  24243018.398      187185.794        2905.539           0.239  
G03  22340394.264      -28609.736        -517.322           0.255  
G04  23599910.043     -114368.235       -2121.007           0.244  
G05  22517929.560      112758.785        2040.902           0.255  
G06  20631466.141      -22631.913        -493.207           0.255  
G07  23396149.388      -52595.189       -1303.775           0.248  
G09  23118354.385      -52755.390       -1425.305           0.252  
> 2023 05 18 00 01 10.7688020  0  7                     
G02  24242944.162      187476.352        2905.108           0.239  
G03  22340410.283      -28661.381        -517.478           0.255  
G04  23599964.495     -114580.320       -2120.529           0.244  
G05  22517877.664      112962.835        2040.774           0.255  
G06  20631477.151      -22681.251        -493.279           0.255  
G07  23396182.487      -52725.575       -1303.826           0.248  
G09  23118390.205      -52898.016       -1423.332           0.251  
> 2023 05 18 00 01 10.8688020  0  7                     
G02  24242869.333      187766.941        2907.235           0.239  
G03  22340421.919      -28713.023        -518.219           0.255  
G04  23600018.592     -114792.418       -2121.558           0.244  
G05  22517826.164      113166.887        2041.103           0.255  
G06  20631489.749      -22730.605        -492.586           0.255  
G07  23396215.633      -52855.976       -1304.017           0.248  
G09  23118427.422      -53040.659       -1426.978           0.252  
> 2023 05 18 00 01 10.9688020  0  7                     
G02  24242795.449      188057.484        2904.379           0.239  
G03  22340434.837      -28764.258        -450.534           0.255  
G04  23600072.592     -115004.492       -2119.469           0.244  
G05  22517773.676      113370.934        2040.798           0.255  
G06  20631503.473      -22779.983        -494.025           0.255  
G07  23396248.538      -52986.379       -1300.945           0.248  
G09  23118462.585      -53183.112       -1409.651           0.251  
> 2023 05 18 00 01 11.0688020  0  7                     
G02  24242722.826      188348.039        2904.867           0.239  
G03  22340451.221      -28816.287        -518.107           0.255  
G04  23600126.083     -115216.585       -2121.267           0.244  
G05  22517721.621      113574.976        2040.735           0.255  
G06  20631514.083      -22829.337        -492.975           0.255  
G07  23396281.658      -53116.773       -1304.113           0.248  
G09  23118500.107      -53325.906       -1426.071           0.251  
> 2023 05 18 00 01 11.1688020  0  7                     
G02  24242647.965      188638.183        2825.808           0.239  
G03  22340460.469      -28868.415        -544.880           0.255  
G04  23600180.603     -115428.332       -2085.234           0.244  
G05  22517669.937      113779.214        2086.608           0.255  
G06  20631528.767      -22878.700        -493.815           0.255  
G07  23396315.041      -53247.174       -1304.412           0.248  
G09  23118534.160      -53468.616       -1428.448           0.251  
> 2023 05 18 00 01 11.2688020  0  7                     
G02  24242573.638      188929.154        2904.482           0.239  
G03  22340475.694      -28919.592        -517.071           0.255  
G04  23600235.347     -115640.744       -2120.431           0.244  
G05  22517617.754      113983.054        2040.530           0.255  
G06  20631540.403      -22928.070        -493.465           0.255  
G07  23396348.248      -53377.580       -1304.039           0.248  
G09  23118572.560      -53611.154       -1425.974           0.251  
> 2023 05 18 00 01 11.3688020  0  7                     
G02  24242500.721      189219.730        2905.981           0.239  
G03  22340485.700      -28971.257        -517.459           0.255  
G04  23600287.491     -115852.790       -2123.696           0.244  
G05  22517565.732      114187.088        2041.215           0.255  
G06  20631554.241      -22977.435        -493.061           0.255  
G07  23396381.896      -53507.993       -1304.672           0.248  
G09  23118608.353      -53753.783       -1426.116           0.252  
> 2023 05 18 00 01 11.4688020  0  7                     
G02  24242425.812      189510.296        2906.157           0.239  
G03  22340499.280      -29022.906        -517.218           0.255  
G04  23600340.837     -116064.934       -2121.008           0.244  
G05  22517514.315      114391.121        2041.100           0.255  
G06  20631566.516      -23026.819        -493.409           0.255  
G07  23396415.296      -53638.401       -1303.512           0.248  
G09  23118645.623      -53896.406       -1424.901           0.251  
> 2023 05 18 00 01 11.5688020  0  7                     
G02  24242352.622      189800.868        2905.009           0.239  
G03  22340512.577      -29074.572        -515.565           0.255  
G04  23600396.076     -116277.027       -2119.812           0.244  
G05  22517462.059      114595.154        2040.689           0.255  
G06  20631578.554      -23076.193        -494.046           0.255  
G07  23396448.547      -53768.814       -1303.822           0.248  
G09  23118681.018      -54039.042       -1426.167           0.251  
> 2023 05 18 00 01 11.6688020  0  7                     
G02  24242277.231      190091.427        2905.645           0.239  
G03  22340528.343      -29126.232        -515.882           0.255  
G04  23600450.506     -116489.112       -2120.594           0.244  
G05  22517410.146      114799.183        2040.731           0.255  
G06  20631591.268      -23125.584        -493.471           0.255  
G07  23396481.277      -53899.238       -1304.104           0.248  
G09  23118715.489      -54181.672       -1427.379           0.251  
> 2023 05 18 00 01 11.7688020  0  7                     
G02  24242204.010      190382.002        2906.266           0.239  
G03  22340543.045      -29177.725        -560.753           0.255  
G04  23600504.586     -116701.223       -2121.432           0.244  
G05  22517357.785      115003.017        2019.918           0.255  
G06  20631602.820      -23174.976        -493.230           0.255  
G07  23396514.412      -54029.558       -1286.332           0.248  
G09  23118752.840      -54324.110       -1409.271           0.252  
> 2023 05 18 00 01 11.8688020  0  7                     
G02  24242128.706      190672.552        2905.623           0.239  
G03  22340554.749      -29229.603        -518.126           0.255  
G04  23600558.801     -116913.307       -2121.101           0.244  
G05  22517305.755      115207.234        2039.573           0.255  
G06  20631615.615      -23224.350        -492.831           0.255  
G07  23396547.834      -54160.081       -1303.799           0.248  
G09  23118789.618      -54466.930       -1426.536           0.251  
> 2023 05 18 00 01 11.9688020  0  7                     
G02  24242055.182      190963.110        2903.541           0.239  
G03  22340567.913      -29281.039        -435.002           0.255  
G04  23600613.088     -117125.404       -2119.532           0.244  
G05  22517253.376      115410.961        1995.966           0.255  
G06  20631628.232      -23273.756        -495.058           0.255  
G07  23396581.546      -54290.511       -1309.530           0.248  
G09  23118826.721      -54609.462       -1414.369           0.252  
> 2023 05 18 00 01 12.0688020  0  7                     
G02  24241981.643      191253.678        2905.005           0.239  
G03  22340580.217      -29332.943        -516.718           0.255  
G04  23600666.747     -117337.501       -2121.301           0.244  
G05  22517201.704      115615.276        2039.019           0.255  
G06  20631641.420      -23323.159        -494.178           0.255  
G07  23396614.831      -54420.943       -1304.728           0.248  
G09  23118863.049      -54752.291       -1439.795           0.251  
> 2023 05 18 00 01 12.1688020  0  7                     
G02  24241907.606      191544.263        2906.233           0.239  
G03  22340592.923      -29384.645        -518.161           0.255  
G04  23600720.861     -117549.489       -2098.951           0.244  
G05  22517149.742      115819.294        2039.296           0.255  
G06  20631653.963      -23372.555        -493.805           0.255  
G07  23396648.041      -54551.378       -1304.704           0.248  
G09  23118899.534      -54894.843       -1426.856           0.252  
> 2023 05 18 00 01 12.2688020  0  7                     
G02  24241833.003      191834.812        2906.714           0.239  
G03  22340604.575      -29436.348        -516.355           0.255  
G04  23600775.001     -117761.702       -2121.515           0.244  
G05  22517098.060      116023.303        2038.660           0.255  
G06  20631667.501      -23421.949        -494.274           0.255  
G07  23396680.889      -54681.813       -1304.578           0.248  
G09  23118934.861      -55037.461       -1426.292           0.252  
> 2023 05 18 00 01 12.3688020  0  7                     
G02  24241759.382      192125.375        2905.094           0.239  
G03  22340619.149      -29488.025        -515.142           0.255  
G04  23600828.598     -117973.801       -2120.563           0.244  
G05  22517045.878      116227.322        2038.397           0.255  
G06  20631679.860      -23471.375        -495.461           0.255  
G07  23396714.295      -54812.249       -1304.212           0.248  
G09  23118971.305      -55180.092       -1426.024           0.252  
> 2023 05 18 00 01 12.4688020  0  7                     
G02  24241684.780      192415.941        2905.407           0.239  
G03  22340633.662      -29539.748        -518.881           0.255  
G04  23600883.131     -118185.901       -2120.305           0.244  
G05  22516994.018      116431.335        2038.504           0.255  
G06  20631691.711      -23520.775        -493.291           0.255  
G07  23396747.335      -54942.693       -1304.848           0.248  
G09  23119007.827      -55322.728       -1426.528           0.252  
> 2023 05 18 00 01 12.5688020  0  7                     
G02  24241611.079      192706.507        2906.650           0.239  
G03  22340646.111      -29591.477        -518.002           0.255  
G04  23600937.013     -118398.008       -2121.471           0.244  
G05  22516942.004      116635.343        2038.761           0.255  
G06  20631704.110      -23570.176        -493.429           0.255  
G07  23396780.431      -55073.137       -1304.579           0.248  
G09  23119044.368      -55465.368       -1426.579           0.252  
> 2023 05 18 00 01 12.6688020  0  7                     
G02  24241536.754      192997.070        2906.183           0.239  
G03  22340658.869      -29643.175        -515.382           0.255  
G04  23600991.359     -118610.106       -2121.629           0.244  
G05  22516890.099      116839.362        2031.772           0.255  
G06  20631717.582      -23619.605        -494.656           0.255  
G07  23396813.978      -55203.522       -1302.978           0.248  
G09  23119080.488      -55608.006       -1426.157           0.251  
> 2023 05 18 00 01 12.7688020  0  7                     
G02  24241462.179      193287.626        2905.117           0.239  
G03  22340673.338      -29694.889        -518.013           0.255  
G04  23601045.360     -118822.214       -2120.954           0.244  
G05  22516838.217      117043.437        2049.651           0.255  
G06  20631729.769      -23669.030        -493.747           0.255  
G07  23396846.966      -55334.094       -1299.548           0.248  
G09  23119116.324      -55750.752       -1436.354           0.251  
> 2023 05 18 00 01 12.8688020  0  7                     
G02  24241389.378      193578.204        2906.981           0.239  
G03  22340686.052      -29746.632        -518.898           0.255  
G04  23601099.570     -119034.321       -2121.605           0.244  
G05  22516786.004      117247.355        2038.667           0.255  
G06  20631741.846      -23718.444        -493.104           0.255  
G07  23396880.746      -55464.493       -1304.110           0.248  
G09  23119152.197      -55893.283       -1426.580           0.252  
> 2023 05 18 00 01 12.9688020  0  7                     
G02  24241315.922      193868.763        2905.780           0.239  
G03  22340697.583      -29798.343        -516.555           0.255  
G04  23601153.129     -119246.448       -2129.862           0.244  
G05  22516734.051      117451.364        2038.822           0.255  
G06  20631755.066      -23767.881        -494.536           0.255  
G07  23396913.665      -55594.953       -1304.173           0.248  
G09  23119189.469      -56035.923       -1427.362           0.251  
> 2023 05 18 00 01 13.0688020  0  7                     
G02  24241240.765      194159.320        2905.320           0.239  
G03  22340711.471      -29849.838        -519.806           0.255  
G04  23601206.852     -119458.534       -2120.863           0.244  
G05  22516682.187      117655.354        2038.373           0.255  
G06  20631767.898      -23817.323        -494.440           0.255  
G07  23396947.162      -55725.414       -1304.078           0.248  
G09  23119225.497      -56178.552       -1426.335           0.251  
> 2023 05 18 00 01 13.1688020  0  7                     
G02  24241166.882      194449.883        2906.139           0.239  
G03  22340726.307      -29901.818        -518.721           0.255  
G04  23601260.948     -119670.649       -2120.274           0.244  
G05  22516630.264      117859.355        2038.742           0.255  
G06  20631780.123      -23866.745        -493.567           0.255  
G07  23396980.091      -55855.877       -1304.593           0.248  
G09  23119261.297      -56321.195       -1426.228           0.251  
> 2023 05 18 00 01 13.2688020  0  7                     
G02  24241092.535      194740.439        2905.435           0.239  
G03  22340736.838      -29953.555        -517.019           0.255  
G04  23601315.229     -119882.759       -2120.741           0.244  
G05  22516578.366      118063.354        2038.584           0.255  
G06  20631793.141      -23916.180        -494.468           0.255  
G07  23397013.232      -55986.343       -1304.672           0.248  
G09  23119298.549      -56463.840       -1426.139           0.251  
> 2023 05 18 00 01 13.3688020  0  7                     
G02  24241019.510      195031.015        2905.988           0.239  
G03  22340750.889      -30006.338        -664.087           0.255  
G04  23601369.333     -120094.876       -2121.299           0.244  
G05  22516526.127      118267.344        2038.395           0.255  
G06  20631805.847      -23965.632        -495.495           0.255  
G07  23397047.062      -56116.866       -1309.729           0.248  
G09  23119334.849      -56606.246       -1390.316           0.251  
> 2023 05 18 00 01 13.4688020  0  7                     
G02  24240943.371      195321.565        2905.069           0.239  
G03  22340764.643      -30056.826        -526.942           0.255  
G04  23601424.258     -120306.981       -2120.898           0.244  
G05  22516474.158      118471.336        2038.560           0.255  
G06  20631817.961      -24015.069        -493.306           0.255  
G07  23397079.936      -56247.281       -1304.742           0.248  
G09  23119370.758      -56749.074       -1423.157           0.251  
> 2023 05 18 00 01 13.5688020  0  7                     
G02  24240869.923      195612.141        2904.873           0.239  
G03  22340776.268      -30108.806        -518.313           0.255  
G04  23601478.199     -120519.331       -2118.619           0.244  
G05  22516422.091      118675.488        2082.454           0.255  
G06  20631831.339      -24064.517        -493.738           0.255  
G07  23397112.461      -56377.693       -1309.474           0.248  
G09  23119407.786      -56891.765       -1426.009           0.251  
> 2023 05 18 00 01 13.6688020  0  7                     
G02  24240799.442      195902.700        2902.814           0.239  
G03  22340787.058      -30160.549        -516.631           0.255  
G04  23601529.895     -120731.211       -2120.500           0.243  
G05  22516370.157      118879.305        2038.411           0.255  
G06  20631845.238      -24113.977        -495.144           0.255  
G07  23397145.584      -56508.045       -1274.949           0.248  
G09  23119444.775      -57034.412       -1426.222           0.252  
> 2023 05 18 00 01 13.7688020  0  7                     
G02  24240721.787      196193.277        2905.759           0.239  
G03  22340802.616      -30212.331        -517.736           0.255  
G04  23601585.906     -120943.340       -2121.855           0.244  
G05  22516317.573      119083.284        2038.046           0.255  
G06  20631856.794      -24163.424        -494.841           0.255  
G07  23397179.188      -56638.713       -1304.629           0.248  
G09  23119482.371      -57177.064       -1426.961           0.251  
> 2023 05 18 00 01 13.8688020  0  7                     
G02  24240647.907      196483.824        2905.741           0.239  
G03  22340815.355      -30264.092        -517.383           0.255  
G04  23601640.250     -121155.449       -2120.944           0.244  
G05  22516266.118      119287.274        2038.775           0.255  
G06  20631869.091      -24212.882        -495.116           0.255  
G07  23397212.389      -56769.130       -1308.324           0.248  
G09  23119516.402      -57319.707       -1426.188           0.251  
> 2023 05 18 00 01 13.9688020  0  7                     
G02  24240573.836      196774.408        2907.070           0.239  
G03  22340831.212      -30315.858        -517.493           0.255  
G04  23601694.736     -121367.574       -2121.916           0.244  
G05  22516214.239      119491.254        2038.889           0.255  
G06  20631881.269      -24262.349        -494.109           0.255  
G07  23397245.358      -56899.684       -1304.983           0.248  
G09  23119552.503      -57462.355       -1427.981           0.251  
> 2023 05 18 00 01 14.0688020  0  7                     
G02  24240499.830      197064.974        2906.542           0.239  
G03  22340839.207      -30367.657        -518.326           0.255  
G04  23601748.619     -121579.704       -2121.346           0.244  
G05  22516162.260      119695.236        2039.183           0.255  
G06  20631895.327      -24311.807        -494.525           0.255  
G07  23397279.380      -57030.174       -1305.057           0.248  
G09  23119589.528      -57604.985       -1426.463           0.252  
> 2023 05 18 00 01 14.1688020  0  7                     
G02  24240427.087      197355.504        2906.913           0.239  
G03  22340855.387      -30419.424        -518.278           0.255  
G04  23601801.981     -121791.804       -2121.574           0.244  
G05  22516109.626      119899.209        2039.228           0.255  
G06  20631906.375      -24361.280        -494.863           0.255  
G07  23397312.471      -57160.663       -1304.962           0.248  
G09  23119626.041      -57747.640       -1427.260           0.252  
> 2023 05 18 00 01 14.2688020  0  7                     
G02  24240352.658      197646.059        2904.818           0.239  
G03  22340871.789      -30471.202        -517.217           0.255  
G04  23601855.978     -122003.797       -2108.167           0.244  
G05  22516057.861      120103.182        2039.517           0.255  
G06  20631918.072      -24410.751        -495.015           0.255  
G07  23397345.685      -57291.162       -1304.856           0.248  
G09  23119661.661      -57890.280       -1425.728           0.251  
> 2023 05 18 00 01 14.3688020  0  7                     
G02  24240278.714      197936.629        2905.692           0.239  
G03  22340885.994      -30522.998        -516.563           0.255  
G04  23601909.610     -122216.059       -2121.234           0.244  
G05  22516005.862      120307.159        2040.001           0.255  
G06  20631929.962      -24460.222        -494.839           0.255  
G07  23397379.393      -57421.661       -1305.489           0.248  
G09  23119699.302      -58032.945       -1427.638           0.252  
> 2023 05 18 00 01 14.4688020  0  7                     
G02  24240203.957      198227.174        2905.064           0.239  
G03  22340898.324      -30574.778        -515.555           0.255  
G04  23601964.326     -122428.145       -2101.466           0.244  
G05  22515954.321      120510.539        1971.527           0.255  
G06  20631942.626      -24509.713        -496.024           0.255  
G07  23397412.562      -57552.156       -1305.130           0.248  
G09  23119735.484      -58175.500       -1475.276           0.252  
> 2023 05 18 00 01 14.5688020  0  7                     
G02  24240130.039      198517.727        2904.872           0.239  
G03  22340910.424      -30626.608        -519.431           0.255  
G04  23602018.295     -122640.293       -2120.399           0.244  
G05  22515902.251      120715.098        2040.524           0.255  
G06  20631956.320      -24559.185        -494.408           0.255  
G07  23397444.962      -57682.662       -1304.401           0.248  
G09  23119771.278      -58318.230       -1426.061           0.252  
> 2023 05 18 00 01 14.6688020  0  7                     
G02  24240056.246      198808.299        2905.832           0.239  
G03  22340923.954      -30678.585        -542.332           0.255  
G04  23602072.340     -122852.432       -2121.400           0.244  
G05  22515850.467      120919.067        2040.439           0.255  
G06  20631968.810      -24608.662        -493.661           0.255  
G07  23397478.976      -57813.176       -1305.056           0.248  
G09  23119807.662      -58460.989       -1483.139           0.252  
> 2023 05 18 00 01 14.7688020  0  7                     
G02  24239982.261      199098.850        2906.521           0.239  
G03  22340934.832      -30730.219        -517.487           0.255  
G04  23602125.656     -123064.554       -2121.493           0.244  
G05  22515798.464      121123.030        2040.141           0.255  
G06  20631982.450      -24658.155        -494.180           0.255  
G07  23397513.192      -57943.689       -1305.399           0.248  
G09  23119843.920      -58603.550       -1427.274           0.251  
> 2023 05 18 00 01 14.8688020  0  7                     
G02  24239909.359      199389.413        2905.696           0.239  
G03  22340948.404      -30782.030        -516.543           0.255  
G04  23602180.560     -123276.681       -2121.713           0.244  
G05  22515745.569      121326.993        2040.416           0.255  
G06  20631994.863      -24707.650        -495.088           0.255  
G07  23397545.702      -58074.196       -1305.062           0.248  
G09  23119879.566      -58746.201       -1426.626           0.251  
> 2023 05 18 00 01 14.9688020  0  7                     
G02  24239835.281      199679.974        2906.284           0.239  
G03  22340963.254      -30833.834        -516.856           0.255  
G04  23602232.873     -123488.899       -2101.163           0.244  
G05  22515694.366      121530.947        2040.265           0.255  
G06  20632006.786      -24757.157        -495.571           0.255  
G07  23397578.802      -58204.713       -1305.165           0.248  
G09  23119916.700      -58888.834       -1425.735           0.252  
> 2023 05 18 00 01 15.0688020  0  7                     
G02  24239761.549      199970.522        2904.215           0.239  
G03  22340976.973      -30885.667        -520.165           0.255  
G04  23602285.925     -123700.930       -2120.805           0.244  
G05  22515642.771      121734.900        2039.896           0.255  
G06  20632018.958      -24806.653        -494.672           0.255  
G07  23397611.962      -58335.281       -1319.984           0.248  
G09  23119953.325      -59031.492       -1426.327           0.252  
> 2023 05 18 00 01 15.1688020  0  7                     
G02  24239687.079      200261.090        2907.254           0.239  
G03  22340990.581      -30937.495        -517.696           0.255  
G04  23602341.349     -123913.074       -2123.117           0.243  
G05  22515590.345      121938.849        2039.192           0.255  
G06  20632031.162      -24856.150        -495.608           0.255  
G07  23397645.164      -58465.759       -1305.536           0.248  
G09  23119988.549      -59174.144       -1425.626           0.252  
> 2023 05 18 00 01 15.2688020  0  7                     
G02  24239612.913      200551.624        2904.131           0.239  
G03  22341003.525      -30989.320        -518.634           0.255  
G04  23602395.464     -124125.382       -2111.376           0.244  
G05  22515537.975      122142.804        2040.480           0.255  
G06  20632043.888      -24905.658        -495.062           0.255  
G07  23397678.273      -58596.170       -1289.504           0.248  
G09  23120026.409      -59316.816       -1427.500           0.251  
> 2023 05 18 00 01 15.3688020  0  7                     
G02  24239535.009      200842.204        2906.574           0.239  
G03  22341016.583      -31041.162        -516.469           0.255  
G04  23602451.655     -124337.338       -2120.883           0.244  
G05  22515486.879      122346.750        2040.200           0.255  
G06  20632056.897      -24955.171        -496.208           0.255  
G07  23397712.055      -58726.810       -1305.442           0.248  
G09  23120063.082      -59459.539       -1469.520           0.251  
> 2023 05 18 00 01 15.4688020  0  7                     
G02  24239461.975      201132.768        2905.948           0.239  
G03  22341030.716      -31092.992        -536.085           0.255  
G04  23602505.912     -124549.611       -2099.603           0.244  
G05  22515434.749      122550.693        2039.957           0.255  
G06  20632068.560      -25004.675        -495.274           0.255  
G07  23397744.852      -58857.339       -1305.709           0.248  
G09  23120097.456      -59602.120       -1427.087           0.251  
> 2023 05 18 00 01 15.5688020  0  7                     
G02  24239388.229      201423.323        2905.338           0.239  
G03  22341042.111      -31144.848        -519.367           0.255  
G04  23602560.250     -124761.609       -2121.159           0.244  
G05  22515382.508      122754.636        2039.418           0.255  
G06  20632082.690      -25054.202        -495.202           0.255  
G07  23397778.820      -58987.877       -1305.437           0.248  
G09  23120134.529      -59744.768       -1426.380           0.251  
> 2023 05 18 00 01 15.6688020  0  7                     
G02  24239316.641      201713.876        2905.886           0.239  
G03  22341053.960      -31196.676        -517.870           0.255  
G04  23602612.442     -124973.740       -2121.956           0.244  
G05  22515330.475      122958.582        2040.033           0.255  
G06  20632095.342      -25103.719        -494.654           0.255  
G07  23397811.727      -59118.412       -1305.621           0.248  
G09  23120172.725      -59887.449       -1428.502           0.252  
> 2023 05 18 00 01 15.7688020  0  7                     
G02  24239243.509      202004.560        2937.996           0.239  
G03  22341068.113      -31249.045        -634.825           0.255  
G04  23602665.828     -125185.996       -2147.119           0.244  
G05  22515278.407      123162.019        1937.420           0.255  
G06  20632108.173      -25153.248        -494.885           0.255  
G07  23397843.779      -59248.898       -1258.197           0.248  
G09  23120208.336      -60029.935       -1368.465           0.252  
> 2023 05 18 00 01 15.8688020  0  7                     
G02  24239168.601      202294.993        2904.264           0.239  
G03  22341081.919      -31300.408        -518.518           0.255  
G04  23602720.151     -125398.014       -2121.110           0.244  
G05  22515226.667      123366.467        2039.482           0.255  
G06  20632120.416      -25202.769        -494.978           0.255  
G07  23397877.709      -59379.490       -1305.706           0.248  
G09  23120243.934      -60172.750       -1426.297           0.251  
> 2023 05 18 00 01 15.9688020  0  7                     
G02  24239093.113      202585.576        2902.486           0.240  
G03  22341095.211      -31352.599        -585.621           0.255  
G04  23602775.331     -125610.158       -2121.000           0.244  
G05  22515174.969      123570.398        2039.192           0.255  
G06  20632133.715      -25252.305        -494.967           0.255  
G07  23397911.022      -59510.039       -1305.543           0.248  
G09  23120278.959      -60315.410       -1426.410           0.251  
> 2023 05 18 00 01 16.0688020  0  7                     
G02  24239020.392      202876.115        2905.859           0.239  
G03  22341107.877      -31404.134        -519.311           0.255  
G04  23602829.225     -125822.292       -2120.479           0.244  
G05  22515122.681      123774.320        2037.941           0.255  
G06  20632146.008      -25301.832        -494.940           0.255  
G07  23397944.819      -59640.587       -1305.376           0.248  
G09  23120316.099      -60458.083       -1427.592           0.252  
> 2023 05 18 00 01 16.1688020  0  7                     
G02  24238945.473      203166.680        2905.243           0.239  
G03  22341121.263      -31456.013        -519.974           0.255  
G04  23602883.026     -126034.437       -2120.713           0.244  
G05  22515070.775      123978.251        2038.277           0.255  
G06  20632158.612      -25351.367        -495.599           0.255  
G07  23397977.377      -59771.135       -1305.091           0.248  
G09  23120353.654      -60600.454       -1421.342           0.252  
> 2023 05 18 00 01 16.2688020  0  7                     
G02  24238872.297      203457.229        2905.324           0.239  
G03  22341132.856      -31507.867        -517.688           0.255  
G04  23602936.549     -126246.571       -2120.831           0.244  
G05  22515018.816      124182.184        2038.808           0.255  
G06  20632171.651      -25400.919        -496.314           0.255  
G07  23398011.335      -59901.689       -1305.569           0.248  
G09  23120389.657      -60743.402       -1427.349           0.251  
> 2023 05 18 00 01 16.3688020  0  7                     
G02  24238797.628      203747.786        2905.480           0.239  
G03  22341150.756      -31559.747        -518.177           0.255  
G04  23602991.143     -126458.721       -2120.926           0.244  
G05  22514966.593      124386.115        2039.941           0.255  
G06  20632182.275      -25450.462        -495.715           0.255  
G07  23398043.925      -60032.240       -1305.533           0.248  
G09  23120425.244      -60886.058       -1425.274           0.251  
> 2023 05 18 00 01 16.4688020  0  7                     
G02  24238722.899      204038.342        2904.262           0.239  
G03  22341164.232      -31611.657        -519.834           0.255  
G04  23603045.848     -126670.868       -2121.169           0.244  
G05  22514914.829      124590.038        2039.764           0.255  
G06  20632195.006      -25499.999        -495.518           0.255  
G07  23398076.927      -60162.800       -1305.395           0.248  
G09  23120460.941      -61028.726       -1425.096           0.252  
> 2023 05 18 00 01 16.5688020  0  7                     
G02  24238650.242      204328.902        2904.228           0.239  
G03  22341172.955      -31663.549        -520.735           0.255  
G04  23603098.533     -126883.013       -2121.089           0.244  
G05  22514863.016      124793.969        2039.724           0.255  
G06  20632209.595      -25549.551        -494.753           0.255  
G07  23398110.451      -60293.362       -1305.551           0.248  
G09  23120498.843      -61171.387       -1425.687           0.251  
> 2023 05 18 00 01 16.6688020  0  7                     
G02  24238576.479      204619.471        2904.546           0.239  
G03  22341189.557      -31715.281        -507.114           0.255  
G04  23603152.386     -127095.169       -2120.509           0.244  
G05  22514810.638      124997.887        2039.267           0.255  
G06  20632220.707      -25599.106        -494.505           0.255  
G07  23398144.078      -60423.929       -1305.483           0.248  
G09  23120535.314      -61314.066       -1427.965           0.251  
> 2023 05 18 00 01 16.7688020  0  7                     
G02  24238501.733      204910.043        2906.051           0.239  
G03  22341204.220      -31767.326        -519.091           0.255  
G04  23603206.646     -127307.327       -2121.704           0.243  
G05  22514759.292      125201.804        2039.364           0.255  
G06  20632232.362      -25648.666        -495.628           0.255  
G07  23398177.469      -60554.516       -1299.728           0.248  
G09  23120571.407      -61456.762       -1415.545           0.251  
> 2023 05 18 00 01 16.8688020  0  7                     
G02  24238427.905      205200.612        2908.058           0.239  
G03  22341214.548      -31819.231        -519.088           0.255  
G04  23603261.090     -127519.481       -2123.198           0.244  
G05  22514707.132      125405.712        2039.490           0.255  
G06  20632246.248      -25698.223        -495.193           0.255  
G07  23398210.682      -60685.067       -1305.362           0.248  
G09  23120607.093      -61599.376       -1425.824           0.251  
> 2023 05 18 00 01 16.9688020  0  7                     
G02  24238353.412      205491.156        2906.400           0.239  
G03  22341227.231      -31871.149        -517.185           0.255  
G04  23603315.420     -127731.641       -2122.332           0.244  
G05  22514655.169      125609.628        2038.817           0.255  
G06  20632259.024      -25747.786        -496.264           0.255  
G07  23398244.201      -60815.643       -1306.477           0.248  
G09  23120643.585      -61741.958       -1412.830           0.251  
> 2023 05 18 00 01 17.0688020  0  7                     
G02  24238278.663      205781.697        2905.788           0.239  
G03  22341240.500      -31923.037        -516.410           0.255  
G04  23603369.876     -127943.777       -2121.491           0.244  
G05  22514603.324      125813.547        2039.746           0.255  
G06  20632271.850      -25797.368        -497.321           0.255  
G07  23398277.582      -60946.221       -1305.635           0.248  
G09  23120680.413      -61884.721       -1427.081           0.252  
> 2023 05 18 00 01 17.1688020  0  7                     
G02  24238205.412      206072.269        2905.602           0.239  
G03  22341254.312      -31974.973        -520.439           0.255  
G04  23603423.151     -128155.928       -2121.153           0.244  
G05  22514550.965      126017.457        2039.098           0.255  
G06  20632284.238      -25846.936        -496.212           0.255  
G07  23398311.005      -61076.804       -1305.981           0.248  
G09  23120716.529      -62027.374       -1424.727           0.252  
> 2023 05 18 00 01 17.2688020  0  7                     
G02  24238131.460      206362.804        2905.380           0.239  
G03  22341264.157      -32026.906        -519.256           0.255  
G04  23603477.398     -128368.086       -2122.062           0.244  
G05  22514499.032      126221.358        2037.857           0.255  
G06  20632298.207      -25896.501        -497.133           0.255  
G07  23398343.598      -61207.389       -1306.244           0.248  
G09  23120752.864      -62170.058       -1425.662           0.251  
> 2023 05 18 00 01 17.3688020  0  7                     
G02  24238056.531      206653.371        2906.368           0.239  
G03  22341277.601      -32078.825        -520.285           0.255  
G04  23603532.773     -128580.238       -2121.692           0.244  
G05  22514447.234      126425.262        2037.558           0.255  
G06  20632311.347      -25946.082        -494.964           0.255  
G07  23398376.934      -61337.970       -1305.491           0.248  
G09  23120789.369      -62312.724       -1426.135           0.252  
> 2023 05 18 00 01 17.4688020  0  7                     
G02  24237982.706      206943.929        2905.788           0.239  
G03  22341292.955      -32130.758        -520.961           0.255  
G04  23603586.376     -128792.391       -2121.604           0.244  
G05  22514394.889      126629.175        2038.875           0.255  
G06  20632322.986      -25995.660        -495.287           0.255  
G07  23398410.209      -61468.562       -1305.910           0.248  
G09  23120825.337      -62455.371       -1431.168           0.252  
> 2023 05 18 00 01 17.5688020  0  7                     
G02  24237909.584      207234.478        2905.619           0.239  
G03  22341306.922      -32182.680        -517.784           0.255  
G04  23603639.670     -129004.553       -2121.464           0.244  
G05  22514342.976      126833.081        2039.759           0.255  
G06  20632335.269      -26045.248        -496.810           0.255  
G07  23398443.703      -61599.150       -1306.075           0.248  
G09  23120861.437      -62598.060       -1426.036           0.251  
> 2023 05 18 00 01 17.6688020  0  7                     
G02  24237834.926      207525.041        2905.655           0.239  
G03  22341317.816      -32234.646        -519.342           0.255  
G04  23603694.096     -129216.893       -2140.019           0.244  
G05  22514291.190      127036.983        2039.581           0.255  
G06  20632348.323      -26094.823        -495.998           0.255  
G07  23398477.385      -61729.784       -1312.347           0.248  
G09  23120898.455      -62740.741       -1426.415           0.251  
> 2023 05 18 00 01 17.7688020  0  7                     
G02  24237759.712      207815.604        2905.905           0.239  
G03  22341328.847      -32286.560        -517.782           0.255  
G04  23603748.806     -129428.870       -2121.608           0.244  
G05  22514239.420      127241.042        2047.072           0.255  
G06  20632362.887      -26144.425        -496.697           0.255  
G07  23398509.836      -61860.348       -1306.232           0.248  
G09  23120934.175      -62883.416       -1426.849           0.252  
> 2023 05 18 00 01 17.8688020  0  7                     
G02  24237686.853      208106.157        2905.634           0.239  
G03  22341343.948      -32338.515        -518.068           0.255  
G04  23603801.774     -129641.026       -2121.827           0.244  
G05  22514187.486      127444.766        2039.555           0.255  
G06  20632374.894      -26194.024        -496.756           0.255  
G07  23398542.930      -61990.955       -1292.655           0.248  
G09  23120970.663      -63026.082       -1427.014           0.251  
> 2023 05 18 00 01 17.9688020  0  7                     
G02  24237612.342      208396.723        2906.516           0.239  
G03  22341360.643      -32390.472        -517.296           0.255  
G04  23603857.153     -129853.193       -2121.475           0.244  
G05  22514135.408      127648.653        2038.925           0.255  
G06  20632384.554      -26243.613        -496.547           0.255  
G07  23398576.728      -62121.550       -1305.031           0.248  
G09  23121008.666      -63168.765       -1427.499           0.251  
> 2023 05 18 00 01 18.0688020  0  7                     
G02  24237540.380      208687.276        2906.475           0.239  
G03  22341373.268      -32442.429        -518.323           0.255  
G04  23603910.046     -130065.357       -2121.875           0.244  
G05  22514083.384      127852.551        2039.479           0.255  
G06  20632397.537      -26293.216        -496.250           0.255  
G07  23398610.114      -62252.171       -1306.586           0.248  
G09  23121044.149      -63311.445       -1426.656           0.251  
> 2023 05 18 00 01 18.1688020  0  7                     
G02  24237465.931      208977.836        2905.908           0.239  
G03  22341386.685      -32493.974        -414.442           0.255  
G04  23603964.233     -130277.305       -2081.720           0.244  
G05  22514031.422      128056.890        2100.358           0.255  
G06  20632410.116      -26342.822        -496.433           0.255  
G07  23398643.312      -62382.849       -1300.553           0.248  
G09  23121080.221      -63454.122       -1426.932           0.251  
> 2023 05 18 00 01 18.2688020  0  7                     
G02  24237390.359      209268.365        2904.024           0.239  
G03  22341401.640      -32546.197        -591.849           0.255  
G04  23604018.810     -130489.783       -2110.233           0.244  
G05  22513979.476      128260.315        2037.436           0.255  
G06  20632422.463      -26392.437        -495.386           0.255  
G07  23398676.910      -62513.489       -1317.767           0.248  
G09  23121115.870      -63596.798       -1427.638           0.252  
> 2023 05 18 00 01 18.3688020  0  7                     
G02  24237316.881      209558.924        2904.393           0.239  
G03  22341412.756      -32598.353        -520.812           0.255  
G04  23604072.396     -130701.844       -2121.059           0.244  
G05  22513927.692      128464.200        2037.915           0.255  
G06  20632435.581      -26442.028        -494.769           0.255  
G07  23398710.023      -62643.995       -1306.470           0.248  
G09  23121153.119      -63739.462       -1418.603           0.252  
> 2023 05 18 00 01 18.4688020  0  7                     
G02  24237243.109      209849.495        2906.185           0.239  
G03  22341425.439      -32650.289        -516.994           0.255  
G04  23604126.252     -130914.012       -2101.613           0.244  
G05  22513875.767      128667.860        1992.306           0.255  
G06  20632449.150      -26491.667        -497.818           0.255  
G07  23398743.181      -62774.572       -1293.219           0.248  
G09  23121189.299      -63882.015       -1401.792           0.252  
> 2023 05 18 00 01 18.5688020  0  7                     
G02  24237168.611      210140.041        2905.305           0.239  
G03  22341439.974      -32702.290        -522.501           0.255  
G04  23604180.690     -131126.175       -2121.280           0.244  
G05  22513823.777      128871.977        2039.719           0.255  
G06  20632461.079      -26541.274        -494.750           0.255  
G07  23398776.526      -62905.229       -1305.636           0.248  
G09  23121225.309      -64024.820       -1427.123           0.251  
> 2023 05 18 00 01 18.6688020  0  7                     
G02  24237095.135      210430.624        2906.535           0.239  
G03  22341451.965      -32754.276        -519.862           0.255  
G04  23604234.508     -131338.361       -2122.540           0.244  
G05  22513771.852      129075.849        2038.991           0.255  
G06  20632474.282      -26590.892        -496.269           0.255  
G07  23398809.690      -63035.854       -1306.317           0.248  
G09  23121261.512      -64167.498       -1425.964           0.251  
> 2023 05 18 00 01 18.7688020  0  7                     
G02  24237020.872      210721.160        2906.422           0.239  
G03  22341465.552      -32806.248        -518.955           0.255  
G04  23604288.717     -131550.524       -2122.063           0.244  
G05  22513719.892      129279.719        2039.136           0.255  
G06  20632487.176      -26640.528        -496.566           0.255  
G07  23398843.183      -63166.487       -1306.574           0.248  
G09  23121296.993      -64310.191       -1426.690           0.251  
> 2023 05 18 00 01 18.8688020  0  7                     
G02  24236946.446      211011.713        2905.235           0.239  
G03  22341479.003      -32858.261        -521.630           0.255  
G04  23604343.323     -131762.693       -2121.742           0.244  
G05  22513667.434      129483.592        2039.192           0.255  
G06  20632499.454      -26690.150        -495.580           0.255  
G07  23398876.028      -63297.106       -1306.204           0.248  
G09  23121333.593      -64452.869       -1425.943           0.252  
> 2023 05 18 00 01 18.9688020  0  7                     
G02  24236873.452      211302.259        2906.122           0.239  
G03  22341489.741      -32910.194        -463.756           0.255  
G04  23604396.472     -131974.732       -2087.311           0.244  
G05  22513615.775      129687.434        2033.451           0.255  
G06  20632513.321      -26739.785        -496.657           0.255  
G07  23398909.858      -63427.785       -1324.592           0.248  
G09  23121370.930      -64595.556       -1427.031           0.251  
> 2023 05 18 00 01 19.0688020  0  7                     
G02  24236798.686      211592.800        2906.594           0.239  
G03  22341505.102      -32961.968        -513.328           0.255  
G04  23604450.854     -132187.537       -2145.350           0.244  
G05  22513563.924      129890.937        1976.361           0.255  
G06  20632524.760      -26789.425        -496.225           0.255  
G07  23398942.872      -63558.475       -1316.088           0.248  
G09  23121407.291      -64738.272       -1426.892           0.251  
> 2023 05 18 00 01 19.1688020  0  7                     
G02  24236724.101      211883.346        2903.908           0.239  
G03  22341518.467      -33014.267        -520.412           0.255  
G04  23604504.648     -132399.203       -2120.396           0.244  
G05  22513511.944      130095.189        2037.984           0.255  
G06  20632537.315      -26839.052        -495.911           0.255  
G07  23398976.312      -63689.018       -1306.326           0.248  
G09  23121443.036      -64881.079       -1471.201           0.251  
> 2023 05 18 00 01 19.2688020  0  7                     
G02  24236651.018      212173.923        2906.060           0.239  
G03  22341531.719      -33066.276        -517.889           0.255  
G04  23604558.647     -132611.395       -2121.835           0.244  
G05  22513459.945      130299.065        2039.379           0.255  
G06  20632549.969      -26888.698        -497.021           0.255  
G07  23399009.954      -63819.659       -1306.608           0.248  
G09  23121479.952      -65023.842       -1457.218           0.251  
> 2023 05 18 00 01 19.3688020  0  7                     
G02  24236576.428      212464.456        2905.870           0.239  
G03  22341545.994      -33118.284        -521.685           0.255  
G04  23604613.269     -132823.567       -2123.146           0.244  
G05  22513408.042      130502.933        2039.581           0.255  
G06  20632562.087      -26938.349        -495.537           0.255  
G07  23399042.778      -63950.303       -1306.819           0.248  
G09  23121516.195      -65166.293       -1427.515           0.252  
> 2023 05 18 00 01 19.4688020  0  7                     
G02  24236502.545      212755.007        2904.332           0.239  
G03  22341557.941      -33170.325        -519.930           0.255  
G04  23604667.183     -133035.726       -2120.014           0.244  
G05  22513355.831      130706.773        2039.049           0.255  
G06  20632574.687      -26987.986        -495.914           0.255  
G07  23399076.287      -64080.948       -1306.654           0.248  
G09  23121552.971      -65309.207       -1456.988           0.252  
> 2023 05 18 00 01 19.5688020  0  7                     
G02  24236428.148      213045.574        2905.983           0.239  
G03  22341572.153      -33222.331        -517.721           0.255  
G04  23604720.374     -133247.919       -2121.828           0.244  
G05  22513304.146      130910.625        2038.755           0.255  
G06  20632588.046      -27037.651        -497.537           0.255  
G07  23399109.250      -64211.600       -1306.709           0.248  
G09  23121589.489      -65451.660       -1427.159           0.251  
> 2023 05 18 00 01 19.6688020  0  7                     
G02  24236353.956      213336.120        2906.248           0.239  
G03  22341585.608      -33274.362        -522.152           0.255  
G04  23604775.501     -133460.090       -2121.906           0.244  
G05  22513252.551      131114.487        2038.983           0.255  
G06  20632600.210      -27087.308        -495.397           0.255  
G07  23399143.340      -64342.255       -1306.863           0.248  
G09  23121625.582      -65594.361       -1428.665           0.251  
> 2023 05 18 00 01 19.7688020  0  7                     
G02  24236280.053      213626.651        2904.621           0.239  
G03  22341598.058      -33326.403        -519.073           0.255  
G04  23604829.166     -133672.271       -2120.731           0.244  
G05  22513200.521      131318.331        2037.543           0.255  
G06  20632613.125      -27136.961        -496.887           0.255  
G07  23399176.640      -64472.910       -1306.600           0.248  
G09  23121662.307      -65737.034       -1427.186           0.252  
> 2023 05 18 00 01 19.8688020  0  7                     
G02  24236205.790      213917.207        2904.862           0.239  
G03  22341611.490      -33378.427        -519.950           0.255  
G04  23604883.700     -133884.535       -2121.618           0.244  
G05  22513148.418      131522.184        2037.622           0.255  
G06  20632625.835      -27186.639        -496.925           0.255  
G07  23399209.559      -64603.537       -1303.766           0.248  
G09  23121698.500      -65879.721       -1427.135           0.251  
> 2023 05 18 00 01 19.9688020  0  7                     
G02  24236132.391      214207.763        2905.670           0.239  
G03  22341624.800      -33430.490        -521.560           0.255  
G04  23604937.620     -134096.639       -2121.205           0.244  
G05  22513096.390      131726.043        2038.871           0.255  
G06  20632637.975      -27236.292        -495.925           0.255  
G07  23399242.222      -64734.232       -1306.905           0.248  
G09  23121734.594      -66022.407       -1427.453           0.252  
> 2023 05 18 00 01 20.0688020  0  7                     
G02  24236058.167      214498.324        2906.417           0.239  
G03  22341637.238      -33482.521        -518.772           0.255  
G04  23604991.741     -134308.830       -2122.082           0.244  
G05  22513044.546      131930.286        2061.793           0.255  
G06  20632651.706      -27285.971        -497.695           0.255  
G07  23399275.945      -64864.895       -1306.348           0.248  
G09  23121771.174      -66165.094       -1427.118           0.251  
> 2023 05 18 00 01 20.1688020  0  7                     
G02  24235983.783      214788.872        2907.074           0.239  
G03  22341651.518      -33534.574        -521.598           0.255  
G04  23605045.892     -134521.008       -2122.926           0.244  
G05  22512992.660      132133.731        2038.800           0.255  
G06  20632663.819      -27335.643        -496.097           0.255  
G07  23399309.195      -64995.564       -1306.705           0.248  
G09  23121807.286      -66307.780       -1426.614           0.251  
> 2023 05 18 00 01 20.2688020  0  7                     
G02  24235909.740      215079.412        2904.529           0.239  
G03  22341663.963      -33587.083        -508.926           0.255  
G04  23605099.735     -134733.194       -2121.623           0.244  
G05  22512940.837      132337.817        2116.172           0.255  
G06  20632676.976      -27385.308        -496.461           0.255  
G07  23399341.931      -65126.238       -1307.067           0.248  
G09  23121842.873      -66450.474       -1427.544           0.252  
> 2023 05 18 00 01 20.3688020  0  7                     
G02  24235836.432      215369.980        2906.547           0.239  
G03  22341677.158      -33638.690        -518.812           0.255  
G04  23605153.539     -134945.388       -2122.250           0.244  
G05  22512888.657      132541.409        2037.784           0.255  
G06  20632689.587      -27435.003        -497.372           0.255  
G07  23399375.647      -65256.916       -1307.305           0.248  
G09  23121879.644      -66593.163       -1426.733           0.252  
> 2023 05 18 00 01 20.4688020  0  7                     
G02  24235762.187      215660.518        2905.867           0.239  
G03  22341690.813      -33690.774        -523.433           0.255  
G04  23605208.382     -135157.565       -2121.970           0.244  
G05  22512836.378      132745.244        2037.393           0.255  
G06  20632701.785      -27484.676        -495.064           0.255  
G07  23399408.895      -65387.585       -1307.090           0.248  
G09  23121916.301      -66735.859       -1427.122           0.251  
> 2023 05 18 00 01 20.5688020  0  7                     
G02  24235688.344      215951.002        2913.634           0.239  
G03  22341704.411      -33742.836        -519.766           0.255  
G04  23605261.991     -135369.673       -2131.441           0.244  
G05  22512784.218      132948.909        2004.297           0.255  
G06  20632714.173      -27534.371        -497.387           0.255  
G07  23399441.903      -65518.127       -1283.711           0.248  
G09  23121953.931      -66878.760       -1473.330           0.252  
> 2023 05 18 00 01 20.6688020  0  7                     
G02  24235613.747      216241.628        2905.800           0.239  
G03  22341718.065      -33794.892        -520.722           0.255  
G04  23605316.245     -135581.951       -2122.399           0.244  
G05  22512732.622      133152.919        2039.005           0.255  
G06  20632727.115      -27584.071        -497.148           0.255  
G07  23399475.479      -65648.946       -1306.513           0.248  
G09  23121988.820      -67021.248       -1427.907           0.252  
> 2023 05 18 00 01 20.7688020  0  7                     
G02  24235538.997      216532.180        2905.818           0.239  
G03  22341730.699      -33847.011        -522.551           0.255  
G04  23605370.879     -135794.238       -2140.405           0.244  
G05  22512680.634      133356.748        2038.691           0.255  
G06  20632739.989      -27633.744        -495.618           0.255  
G07  23399508.941      -65779.630       -1306.903           0.248  
G09  23122025.548      -67164.095       -1454.724           0.252  
> 2023 05 18 00 01 20.8688020  0  7                     
G02  24235465.777      216822.734        2904.974           0.239  
G03  22341743.679      -33899.074        -518.293           0.255  
G04  23605424.231     -136006.337       -2121.184           0.244  
G05  22512628.714      133560.574        2038.350           0.255  
G06  20632752.848      -27683.445        -497.344           0.255  
G07  23399542.348      -65910.319       -1306.528           0.248  
G09  23122061.634      -67306.632       -1426.878           0.251  
> 2023 05 18 00 01 20.9688020  0  7                     
G02  24235392.493      217113.295        2906.479           0.239  
G03  22341757.757      -33951.159        -522.575           0.255  
G04  23605478.210     -136218.551       -2122.174           0.244  
G05  22512576.915      133764.403        2037.837           0.255  
G06  20632764.978      -27733.153        -496.015           0.255  
G07  23399575.754      -66041.005       -1306.939           0.248  
G09  23122098.235      -67449.123       -1392.473           0.251  
> 2023 05 18 00 01 21.0688020  0  7                     
G02  24235316.730      217403.834        2905.391           0.239  
G03  22341769.211      -34003.253        -520.323           0.255  
G04  23605532.782     -136430.737       -2121.755           0.244  
G05  22512525.146      133968.223        2037.164           0.255  
G06  20632778.734      -27782.850        -497.110           0.255  
G07  23399608.463      -66171.815       -1330.181           0.248  
G09  23122134.269      -67592.018       -1426.858           0.251  
> 2023 05 18 00 01 21.1688020  0  7                     
G02  24235243.377      217694.397        2905.672           0.239  
G03  22341783.369      -34055.338        -520.693           0.255  
G04  23605586.504     -136642.937       -2121.259           0.244  
G05  22512473.130      134172.053        2039.019           0.255  
G06  20632791.249      -27832.571        -497.405           0.255  
G07  23399642.555      -66302.395       -1307.097           0.248  
G09  23122170.004      -67734.711       -1427.330           0.251  
> 2023 05 18 00 01 21.2688020  0  7                     
G02  24235168.577      217984.947        2906.028           0.239  
G03  22341797.275      -34107.464        -522.870           0.255  
G04  23605641.196     -136855.133       -2122.364           0.244  
G05  22512421.158      134375.876        2038.683           0.255  
G06  20632803.077      -27882.266        -495.872           0.255  
G07  23399675.469      -66433.097       -1307.032           0.248  
G09  23122207.244      -67877.420       -1427.440           0.251  
> 2023 05 18 00 01 21.3688020  0  7                     
G02  24235094.767      218275.463        2885.497           0.239  
G03  22341810.137      -34159.547        -518.641           0.255  
G04  23605695.010     -137067.326       -2122.079           0.244  
G05  22512369.298      134579.421        2007.665           0.255  
G06  20632815.899      -27931.992        -498.418           0.255  
G07  23399708.865      -66563.615       -1288.979           0.248  
G09  23122243.884      -68020.121       -1427.861           0.251  
> 2023 05 18 00 01 21.4688020  0  7                     
G02  24235020.887      218566.030        2905.127           0.239  
G03  22341823.902      -34211.812        -627.017           0.255  
G04  23605749.166     -137279.524       -2121.741           0.244  
G05  22512317.251      134783.506        2038.200           0.255  
G06  20632828.292      -27981.713        -496.576           0.255  
G07  23399742.286      -66694.505       -1306.741           0.248  
G09  23122279.820      -68162.819       -1427.560           0.252  
> 2023 05 18 00 01 21.5688020  0  7                     
G02  24234947.798      218856.605        2904.837           0.239  
G03  22341836.423      -34263.792        -521.020           0.255  
G04  23605802.731     -137491.730       -2122.505           0.244  
G05  22512265.307      134987.316        2037.052           0.255  
G06  20632841.352      -28031.420        -497.282           0.255  
G07  23399775.326      -66825.218       -1307.754           0.248  
G09  23122316.929      -68305.509       -1426.730           0.252  
> 2023 05 18 00 01 21.6688020  0  7                     
G02  24234874.106      219147.133        2905.060           0.239  
G03  22341849.925      -34315.872        -519.469           0.255  
G04  23605857.025     -137703.922       -2121.185           0.244  
G05  22512213.418      135191.128        2038.215           0.255  
G06  20632854.148      -28081.174        -498.621           0.255  
G07  23399808.652      -66955.925       -1306.907           0.248  
G09  23122352.958      -68448.218       -1427.990           0.251  
> 2023 05 18 00 01 21.7688020  0  7                     
G02  24234799.760      219437.691        2904.667           0.239  
G03  22341863.558      -34368.027        -522.658           0.255  
G04  23605910.628     -137915.420       -2069.633           0.244  
G05  22512161.737      135394.947        2038.971           0.255  
G06  20632866.435      -28130.877        -496.373           0.255  
G07  23399842.461      -67086.634       -1306.884           0.248  
G09  23122389.692      -68590.925       -1429.374           0.251  
> 2023 05 18 00 01 21.8688020  0  7                     
G02  24234724.342      219728.255        2907.704           0.239  
G03  22341876.193      -34419.458        -369.201           0.255  
G04  23605965.258     -138128.332       -2123.515           0.244  
G05  22512109.634      135598.747        2038.211           0.255  
G06  20632879.564      -28180.615        -498.804           0.255  
G07  23399875.591      -67217.422       -1317.863           0.248  
G09  23122425.402      -68733.626       -1427.844           0.252  
> 2023 05 18 00 01 21.9688020  0  7                     
G02  24234651.386      220018.790        2905.123           0.239  
G03  22341890.236      -34472.278        -523.108           0.255  
G04  23606019.047     -138340.532       -2121.636           0.244  
G05  22512057.494      135802.551        2038.340           0.255  
G06  20632891.856      -28230.353        -497.021           0.255  
G07  23399908.655      -67348.076       -1307.205           0.248  
G09  23122461.874      -68876.321       -1426.945           0.252  
> 2023 05 18 00 01 22.0688020  0  7                     
G02  24234577.480      220309.351        2905.749           0.239  
G03  22341902.484      -34524.438        -522.107           0.255  
G04  23606073.137     -138552.737       -2121.641           0.244  
G05  22512005.653      136006.350        2037.365           0.255  
G06  20632904.784      -28280.072        -496.957           0.255  
G07  23399941.916      -67478.802       -1307.093           0.248  
G09  23122498.481      -69019.028       -1426.702           0.252  
> 2023 05 18 00 01 22.1688020  0  7                     
G02  24234503.107      220599.904        2905.394           0.239  
G03  22341916.740      -34576.552        -520.173           0.255  
G04  23606127.157     -138764.951       -2122.143           0.244  
G05  22511953.666      136210.155        2037.927           0.255  
G06  20632917.722      -28329.831        -498.561           0.255  
G07  23399975.575      -67609.522       -1307.005           0.248  
G09  23122534.615      -69161.736       -1426.800           0.251  
> 2023 05 18 00 01 22.2688020  0  7                     
G02  24234428.008      220890.456        2906.411           0.239  
G03  22341929.008      -34628.708        -522.635           0.255  
G04  23606181.937     -138977.164       -2071.798           0.244  
G05  22511901.803      136413.963        2038.983           0.255  
G06  20632930.046      -28379.568        -497.095           0.255  
G07  23400008.292      -67740.262       -1307.641           0.248  
G09  23122572.732      -69304.453       -1427.827           0.252  
> 2023 05 18 00 01 22.3688020  0  7                     
G02  24234354.291      221181.007        2906.323           0.239  
G03  22341943.180      -34680.858        -520.764           0.255  
G04  23606235.820     -139189.361       -2121.760           0.244  
G05  22511849.937      136617.749        2037.986           0.255  
G06  20632942.880      -28429.320        -497.710           0.255  
G07  23400041.881      -67870.987       -1307.130           0.248  
G09  23122608.186      -69447.153       -1427.754           0.252  
> 2023 05 18 00 01 22.4688020  0  7                     
G02  24234281.729      221471.568        2906.550           0.239  
G03  22341956.079      -34733.013        -523.290           0.255  
G04  23606289.696     -139401.570       -2122.195           0.244  
G05  22511798.158      136821.546        2038.331           0.255  
G06  20632955.150      -28479.073        -496.965           0.255  
G07  23400074.845      -68001.729       -1307.558           0.248  
G09  23122644.884      -69589.858       -1427.000           0.251  
> 2023 05 18 00 01 22.5688020  0  7                     
G02  24234206.643      221762.103        2904.307           0.239  
G03  22341969.608      -34785.367        -457.519           0.255  
G04  23606343.538     -139613.781       -2121.749           0.244  
G05  22511746.301      137025.320        2036.385           0.255  
G06  20632967.755      -28528.816        -497.682           0.255  
G07  23400108.616      -68132.460       -1307.088           0.248  
G09  23122680.780      -69732.567       -1427.052           0.251  
> 2023 05 18 00 01 22.6688020  0  7                     
G02  24234134.327      222052.662        2905.359           0.239  
G03  22341982.997      -34837.074        -462.025           0.255  
G04  23606396.840     -139825.984       -2120.786           0.244  
G05  22511693.996      137229.113        2037.750           0.255  
G06  20632980.503      -28578.588        -498.323           0.255  
G07  23400141.757      -68263.210       -1307.545           0.248  
G09  23122717.706      -69875.267       -1427.255           0.252  
> 2023 05 18 00 01 22.7688020  0  7                     
G02  24234059.314      222343.216        2905.938           0.239  
G03  22341996.541      -34889.505        -522.406           0.255  
G04  23606451.633     -140038.201       -2121.871           0.244  
G05  22511642.383      137432.907        2038.409           0.255  
G06  20632993.269      -28628.342        -498.144           0.255  
G07  23400174.801      -68393.951       -1306.969           0.248  
G09  23122751.803      -70017.972       -1426.742           0.252  
> 2023 05 18 00 01 22.8688020  0  7                     
G02  24233985.928      222633.772        2906.993           0.239  
G03  22342008.726      -34941.677        -519.735           0.255  
G04  23606505.529     -140250.425       -2123.577           0.244  
G05  22511590.052      137636.681        2038.084           0.255  
G06  20633006.546      -28678.110        -498.889           0.255  
G07  23400208.517      -68524.704       -1307.941           0.248  
G09  23122789.146      -70160.683       -1426.860           0.251  
> 2023 05 18 00 01 22.9688020  0  7                     
G02  24233910.493      222924.319        2905.385           0.239  
G03  22342023.433      -34993.869        -523.999           0.255  
G04  23606560.507     -140462.631       -2122.063           0.244  
G05  22511537.968      137840.471        2037.738           0.255  
G06  20633018.585      -28727.874        -496.570           0.255  
G07  23400241.380      -68655.446       -1306.923           0.248  
G09  23122825.062      -70303.393       -1427.561           0.252  
> 2023 05 18 00 01 23.0688020  0  7                     
G02  24233837.325      223214.864        2904.892           0.239  
G03  22342035.216      -35046.062        -521.283           0.255  
G04  23606614.552     -140674.841       -2121.304           0.244  
G05  22511485.735      138044.239        2036.477           0.255  
G06  20633031.448      -28777.643        -497.968           0.255  
G07  23400274.760      -68786.200       -1307.570           0.248  
G09  23122862.871      -70446.097       -1426.949           0.252  
> 2023 05 18 00 01 23.1688020  0  7                     
G02  24233763.148      223505.428        2905.867           0.239  
G03  22342050.219      -35098.215        -521.805           0.255  
G04  23606668.604     -140887.066       -2122.514           0.244  
G05  22511434.252      138248.027        2038.399           0.255  
G06  20633043.913      -28827.438        -498.458           0.255  
G07  23400308.282      -68916.954       -1306.975           0.248  
G09  23122897.500      -70588.816       -1427.598           0.252  
> 2023 05 18 00 01 23.2688020  0  7                     
G02  24233688.599      223795.988        2906.625           0.239  
G03  22342062.580      -35150.428        -522.815           0.255  
G04  23606722.504     -141099.264       -2106.877           0.244  
G05  22511382.849      138451.809        2038.626           0.255  
G06  20633056.366      -28877.202        -497.664           0.255  
G07  23400341.777      -69047.640       -1305.350           0.248  
G09  23122934.814      -70731.530       -1427.240           0.252  
> 2023 05 18 00 01 23.3688020  0  7                     
G02  24233614.205      224086.525        2904.681           0.239  
G03  22342076.504      -35201.965        -412.918           0.255  
G04  23606776.768     -141311.499       -2121.808           0.244  
G05  22511330.908      138655.574        2037.886           0.255  
G06  20633069.620      -28926.982        -498.304           0.255  
G07  23400374.921      -69178.476       -1307.894           0.248  
G09  23122970.011      -70874.246       -1427.420           0.251  
> 2023 05 18 00 01 23.4688020  0  7                     
G02  24233540.631      224377.090        2905.585           0.239  
G03  22342089.971      -35254.827        -524.083           0.255  
G04  23606831.142     -141523.755       -2151.268           0.244  
G05  22511278.752      138858.927        1957.346           0.255  
G06  20633081.728      -28976.772        -497.138           0.255  
G07  23400408.254      -69309.237       -1307.854           0.248  
G09  23123007.147      -71016.954       -1427.426           0.252  
> 2023 05 18 00 01 23.5688020  0  7                     
G02  24233466.238      224667.636        2905.633           0.239  
G03  22342102.906      -35307.031        -520.473           0.255  
G04  23606885.054     -141735.939       -2121.750           0.244  
G05  22511226.821      139063.121        2037.483           0.255  
G06  20633094.956      -29026.554        -498.613           0.255  
G07  23400441.816      -69440.004       -1307.671           0.248  
G09  23123042.885      -71159.665       -1426.883           0.252  
> 2023 05 18 00 01 23.6688020  0  7                     
G02  24233392.409      224958.195        2906.865           0.239  
G03  22342116.036      -35359.236        -522.659           0.255  
G04  23606938.570     -141948.180       -2123.562           0.244  
G05  22511175.133      139266.895        2038.457           0.255  
G06  20633107.438      -29076.355        -497.785           0.255  
G07  23400475.183      -69570.767       -1307.670           0.248  
G09  23123080.108      -71302.377       -1426.720           0.252  
> 2023 05 18 00 01 23.7688020  0  7                     
G02  24233317.668      225248.740        2906.568           0.239  
G03  22342129.126      -35411.478        -522.859           0.255  
G04  23606992.674     -142160.390       -2123.029           0.244  
G05  22511122.609      139470.651        2038.101           0.255  
G06  20633120.272      -29126.134        -497.016           0.255  
G07  23400508.672      -69701.546       -1307.480           0.248  
G09  23123116.446      -71445.099       -1426.754           0.252  
> 2023 05 18 00 01 23.8688020  0  7                     
G02  24233244.460      225539.805        2976.823           0.239  
G03  22342142.875      -35462.479        -448.044           0.255  
G04  23607046.717     -142372.607       -2120.938           0.244  
G05  22511070.901      139674.212        1963.259           0.255  
G06  20633132.884      -29175.965        -500.132           0.255  
G07  23400541.974      -69832.307       -1306.600           0.248  
G09  23123152.654      -71587.937       -1445.587           0.252  
> 2023 05 18 00 01 23.9688020  0  7                     
G02  24233170.576      225829.840        2904.475           0.239  
G03  22342155.938      -35515.912        -525.730           0.255  
G04  23607100.575     -142584.848       -2122.266           0.244  
G05  22511019.038      139878.163        2036.879           0.255  
G06  20633145.529      -29225.744        -495.930           0.255  
G07  23400575.519      -69963.099       -1307.872           0.248  
G09  23123189.186      -71730.535       -1427.189           0.252  
> 2023 05 18 00 01 24.0688020  0  7                     
G02  24233095.875      226120.395        2906.155           0.239  
G03  22342168.663      -35568.122        -519.822           0.255  
G04  23607154.830     -142797.066       -2122.229           0.244  
G05  22510967.453      140082.349        2066.096           0.255  
G06  20633158.799      -29275.558        -499.166           0.255  
G07  23400608.662      -70093.931       -1304.322           0.248  
G09  23123225.501      -71873.250       -1427.129           0.252  
> 2023 05 18 00 01 24.1688020  0  7                     
G02  24233021.465      226410.928        2905.322           0.239  
G03  22342182.495      -35620.346        -523.739           0.255  
G04  23607209.190     -143009.308       -2115.303           0.244  
G05  22510915.154      140285.674        2037.281           0.255  
G06  20633170.998      -29325.380        -497.741           0.255  
G07  23400642.082      -70224.666       -1307.844           0.248  
G09  23123261.808      -72015.968       -1427.240           0.251  
> 2023 05 18 00 01 24.2688020  0  7                     
G02  24232947.665      226701.467        2903.591           0.239  
G03  22342194.988      -35672.599        -521.332           0.255  
G04  23607263.232     -143221.507       -2121.164           0.244  
G05  22510863.101      140489.159        1998.823           0.255  
G06  20633184.141      -29375.175        -498.440           0.255  
G07  23400675.530      -70355.451       -1307.461           0.248  
G09  23123297.814      -72158.685       -1427.415           0.252  
> 2023 05 18 00 01 24.3688020  0  7                     
G02  24232874.539      226992.027        2904.359           0.239  
G03  22342209.390      -35724.816        -521.832           0.255  
G04  23607316.902     -143433.758       -2121.725           0.244  
G05  22510811.266      140693.187        2036.674           0.255  
G06  20633196.393      -29425.009        -498.769           0.255  
G07  23400708.356      -70486.245       -1307.971           0.248  
G09  23123334.686      -72301.405       -1427.413           0.252  
> 2023 05 18 00 01 24.4688020  0  7                     
G02  24232799.960      227282.578        2906.926           0.239  
G03  22342222.331      -35777.090        -523.374           0.255  
G04  23607371.281     -143645.987       -2123.530           0.244  
G05  22510759.582      140896.945        2038.437           0.255  
G06  20633209.150      -29474.809        -497.649           0.255  
G07  23400741.996      -70617.037       -1307.980           0.248  
G09  23123370.777      -72444.123       -1427.072           0.252  
> 2023 05 18 00 01 24.5688020  0  7                     
G02  24232725.689      227573.106        2904.448           0.239  
G03  22342236.195      -35829.311        -520.442           0.255  
G04  23607425.532     -143858.733       -2193.422           0.244  
G05  22510707.548      141100.682        2037.774           0.255  
G06  20633221.698      -29524.648        -499.816           0.255  
G07  23400775.036      -70747.833       -1307.812           0.248  
G09  23123407.393      -72586.841       -1426.642           0.252  
> 2023 05 18 00 01 24.6688020  0  7                     
G02  24232652.238      227863.669        2905.235           0.239  
G03  22342249.676      -35881.576        -524.031           0.255  
G04  23607479.564     -144070.452       -2120.951           0.244  
G05  22510655.563      141304.433        2037.071           0.255  
G06  20633233.872      -29574.467        -497.522           0.255  
G07  23400808.669      -70878.637       -1308.350           0.248  
G09  23123443.626      -72729.585       -1428.357           0.251  
> 2023 05 18 00 01 24.7688020  0  7                     
G02  24232577.799      228154.213        2906.075           0.239  
G03  22342262.757      -35933.842        -521.089           0.255  
G04  23607534.299     -144282.685       -2122.051           0.244  
G05  22510603.718      141508.169        2036.582           0.255  
G06  20633247.524      -29624.290        -498.511           0.255  
G07  23400841.194      -71009.448       -1308.268           0.248  
G09  23123479.524      -72872.304       -1427.320           0.251  
> 2023 05 18 00 01 24.8688020  0  7                     
G02  24232504.083      228444.767        2906.667           0.239  
G03  22342276.792      -35986.107        -524.498           0.255  
G04  23607587.710     -144494.931       -2122.817           0.244  
G05  22510551.551      141711.924        2038.233           0.255  
G06  20633260.127      -29674.132        -497.519           0.255  
G07  23400874.664      -71140.248       -1308.179           0.248  
G09  23123515.189      -73015.020       -1426.516           0.251  
> 2023 05 18 00 01 24.9688020  0  7                     
G02  24232429.631      228735.308        2906.235           0.239  
G03  22342288.565      -36038.391        -521.287           0.255  
G04  23607641.389     -144707.167       -2123.300           0.244  
G05  22510499.560      141915.656        2038.150           0.255  
G06  20633273.180      -29723.954        -498.688           0.255  
G07  23400908.187      -71271.061       -1308.349           0.248  
G09  23123552.677      -73157.748       -1426.623           0.251  
> 2023 05 18 00 01 25.0688020  0  7                     
G02  24232356.032      229025.839        2904.832           0.239  
G03  22342302.054      -36090.628        -522.235           0.255  
G04  23607695.312     -144919.396       -2122.253           0.244  
G05  22510447.887      142119.390        2036.843           0.255  
G06  20633285.451      -29773.826        -499.101           0.255  
G07  23400941.606      -71401.872       -1308.513           0.248  
G09  23123589.923      -73300.469       -1427.789           0.251  
> 2023 05 18 00 01 25.1688020  0  7                     
G02  24232281.923      229316.401        2904.849           0.239  
G03  22342315.045      -36142.925        -522.593           0.255  
G04  23607748.906     -145131.633       -2122.031           0.244  
G05  22510396.325      142323.121        2036.579           0.255  
G06  20633297.787      -29823.654        -499.244           0.255  
G07  23400975.063      -71532.686       -1308.000           0.248  
G09  23123626.056      -73443.178       -1426.992           0.252  
> 2023 05 18 00 01 25.2688020  0  7                     
G02  24232207.656      229606.951        2905.844           0.239  
G03  22342328.764      -36195.182        -521.291           0.255  
G04  23607803.816     -145343.882       -2123.056           0.244  
G05  22510344.224      142526.867        2037.727           0.255  
G06  20633310.726      -29873.523        -500.011           0.255  
G07  23401008.481      -71663.503       -1308.364           0.248  
G09  23123662.280      -73585.909       -1428.253           0.252  
> 2023 05 18 00 01 25.3688020  0  7                     
G02  24232132.309      229897.485        2905.604           0.239  
G03  22342342.307      -36247.499        -525.473           0.255  
G04  23607858.221     -145556.115       -2122.392           0.244  
G05  22510292.137      142730.583        2037.663           0.255  
G06  20633323.103      -29923.351        -497.608           0.255  
G07  23401042.459      -71794.315       -1307.666           0.248  
G09  23123698.226      -73728.647       -1428.170           0.252  
> 2023 05 18 00 01 25.4688020  0  7                     
G02  24232060.470      230188.030        2904.722           0.239  
G03  22342355.307      -36299.786        -520.883           0.255  
G04  23607912.611     -145768.318       -2139.462           0.244  
G05  22510240.046      142934.309        2036.411           0.255  
G06  20633336.442      -29973.195        -498.509           0.255  
G07  23401074.549      -71925.190       -1317.335           0.248  
G09  23123734.436      -73871.678       -1389.321           0.252  
> 2023 05 18 00 01 25.5688020  0  7                     
G02  24231986.137      230478.587        2905.809           0.239  
G03  22342368.658      -36352.074        -523.341           0.255  
G04  23607967.593     -145980.471       -2121.291           0.244  
G05  22510188.297      143137.651        1981.930           0.255  
G06  20633348.787      -30023.059        -498.176           0.255  
G07  23401108.076      -72055.961       -1309.058           0.248  
G09  23123770.859      -74014.284       -1329.121           0.251  
> 2023 05 18 00 01 25.6688020  0  7                     
G02  24231911.718      230769.129        2905.721           0.239  
G03  22342381.221      -36404.386        -521.729           0.255  
G04  23608020.997     -146192.789       -2140.274           0.244  
G05  22510136.946      143341.762        2037.981           0.255  
G06  20633361.694      -30072.914        -499.070           0.255  
G07  23401141.423      -72186.897       -1322.791           0.248  
G09  23123807.707      -74156.842       -1426.198           0.251  
> 2023 05 18 00 01 25.7688020  0  7                     
G02  24231836.773      231059.681        2905.127           0.239  
G03  22342395.644      -36456.680        -524.176           0.255  
G04  23608074.836     -146405.105       -2123.040           0.244  
G05  22510085.069      143545.482        2037.167           0.255  
G06  20633373.925      -30122.794        -498.864           0.255  
G07  23401174.634      -72317.626       -1308.130           0.248  
G09  23123844.055      -74299.562       -1426.011           0.251  
> 2023 05 18 00 01 25.8688020  0  7                     
G02  24231763.457      231350.226        2905.600           0.239  
G03  22342408.627      -36509.001        -522.969           0.255  
G04  23608128.239     -146617.343       -2122.847           0.244  
G05  22510033.059      143749.191        2035.977           0.255  
G06  20633386.972      -30172.649        -498.859           0.255  
G07  23401208.679      -72448.460       -1308.314           0.248  
G09  23123879.739      -74442.292       -1426.652           0.252  
> 2023 05 18 00 01 25.9688020  0  7                     
G02  24231689.070      231640.766        2905.426           0.239  
G03  22342422.762      -36561.286        -522.072           0.255  
G04  23608182.492     -146829.596       -2122.871           0.244  
G05  22509980.877      143952.925        2037.858           0.255  
G06  20633399.720      -30222.540        -499.934           0.255  
G07  23401241.927      -72579.295       -1308.521           0.248  
G09  23123916.657      -74585.026       -1427.687           0.252  
> 2023 05 18 00 01 26.0688020  0  7                     
G02  24231615.278      231931.315        2905.626           0.239  
G03  22342435.676      -36613.656        -526.149           0.255  
G04  23608236.895     -147041.847       -2122.388           0.244  
G05  22509928.891      144156.631        2037.328           0.255  
G06  20633412.321      -30272.382        -496.917           0.255  
G07  23401274.941      -72710.133       -1308.294           0.248  
G09  23123952.927      -74727.755       -1427.594           0.252  
> 2023 05 18 00 01 26.1688020  0  7                     
G02  24231541.082      232221.867        2906.116           0.239  
G03  22342449.051      -36665.922        -519.654           0.255  
G04  23608290.718     -147254.099       -2123.295           0.244  
G05  22509876.816      144360.342        2036.232           0.255  
G06  20633425.299      -30322.289        -501.090           0.255  
G07  23401308.475      -72840.978       -1308.645           0.248  
G09  23123989.251      -74870.484       -1427.423           0.252  
> 2023 05 18 00 01 26.2688020  0  7                     
G02  24231467.109      232512.407        2905.443           0.239  
G03  22342462.574      -36718.292        -526.787           0.255  
G04  23608344.506     -147466.345       -2122.774           0.244  
G05  22509825.076      144564.059        2037.523           0.255  
G06  20633437.634      -30372.144        -496.778           0.255  
G07  23401341.990      -72971.823       -1308.369           0.248  
G09  23124025.381      -75013.213       -1427.010           0.252  
> 2023 05 18 00 01 26.3688020  0  7                     
G02  24231393.029      232802.942        2904.564           0.239  
G03  22342475.696      -36770.593        -519.936           0.255  
G04  23608398.683     -147678.586       -2121.844           0.244  
G05  22509773.031      144767.771        2037.330           0.255  
G06  20633450.608      -30422.040        -500.563           0.255  
G07  23401374.707      -73102.708       -1309.513           0.248  
G09  23124061.780      -75155.950       -1426.714           0.251  
> 2023 05 18 00 01 26.4688020  0  7                     
G02  24231319.579      233093.492        2904.406           0.239  
G03  22342489.478      -36822.942        -525.456           0.255  
G04  23608452.407     -147890.840       -2122.132           0.244  
G05  22509721.178      144971.471        2036.735           0.255  
G06  20633462.822      -30471.933        -497.942           0.255  
G07  23401408.052      -73233.523       -1308.267           0.248  
G09  23124098.489      -75298.689       -1427.247           0.252  
> 2023 05 18 00 01 26.5688020  0  7                     
G02  24231245.197      233384.046        2905.412           0.239  
G03  22342502.359      -36875.283        -521.983           0.255  
G04  23608506.891     -148103.098       -2122.163           0.244  
G05  22509669.162      145175.174        2036.236           0.255  
G06  20633475.926      -30521.814        -499.400           0.255  
G07  23401441.557      -73364.378       -1308.487           0.248  
G09  23124134.747      -75441.424       -1427.079           0.251  
> 2023 05 18 00 01 26.6688020  0  7                     
G02  24231171.027      233674.589        2904.235           0.239  
G03  22342516.030      -36927.613        -523.810           0.255  
G04  23608561.110     -148315.352       -2121.524           0.244  
G05  22509617.462      145378.882        2037.656           0.255  
G06  20633488.530      -30571.723        -498.893           0.255  
G07  23401475.236      -73495.237       -1308.378           0.248  
G09  23124171.226      -75584.164       -1427.491           0.252  
> 2023 05 18 00 01 26.7688020  0  7                     
G02  24231097.272      233965.150        2905.849           0.239  
G03  22342529.092      -36979.985        -523.402           0.255  
G04  23608614.946     -148527.618       -2123.228           0.244  
G05  22509565.495      145582.566        2037.372           0.255  
G06  20633501.415      -30621.604        -498.565           0.255  
G07  23401508.533      -73626.095       -1308.668           0.248  
G09  23124207.650      -75726.904       -1428.144           0.252  
> 2023 05 18 00 01 26.8688020  0  7                     
G02  24231022.859      234255.695        2906.492           0.239  
G03  22342542.576      -37032.315        -523.191           0.255  
G04  23608669.438     -148739.872       -2123.412           0.244  
G05  22509513.526      145786.263        2036.032           0.255  
G06  20633513.971      -30671.527        -499.791           0.255  
G07  23401541.785      -73756.960       -1308.408           0.248  
G09  23124244.128      -75869.637       -1427.764           0.252  
> 2023 05 18 00 01 26.9688020  0  7                     
G02  24230948.741      234546.228        2905.802           0.239  
G03  22342555.630      -37084.707        -525.561           0.255  
G04  23608723.592     -148952.116       -2123.076           0.244  
G05  22509461.570      145989.963        2037.612           0.255  
G06  20633526.762      -30721.407        -497.622           0.255  
G07  23401575.296      -73887.830       -1309.079           0.248  
G09  23124280.558      -76012.372       -1427.507           0.252  
> 2023 05 18 00 01 27.0688020  0  7                     
G02  24230875.047      234836.767        2903.799           0.239  
G03  22342569.759      -37136.133        -478.615           0.255  
G04  23608777.300     -149164.379       -2121.680           0.244  
G05  22509409.647      146193.646        2037.064           0.255  
G06  20633539.309      -30771.337        -500.392           0.255  
G07  23401608.469      -74018.697       -1308.894           0.248  
G09  23124316.573      -76155.109       -1427.291           0.252  
> 2023 05 18 00 01 27.1688020  0  7                     
G02  24230801.648      235127.326        2905.410           0.239  
G03  22342582.586      -37189.444        -526.990           0.255  
G04  23608831.326     -149376.642       -2121.875           0.244  
G05  22509357.835      146397.339        2036.070           0.255  
G06  20633551.897      -30821.221        -496.965           0.255  
G07  23401641.642      -74149.573       -1308.688           0.248  
G09  23124352.845      -76297.847       -1427.254           0.252  
> 2023 05 18 00 01 27.2688020  0  7                     
G02  24230727.072      235417.866        2904.991           0.239  
G03  22342595.694      -37240.737        -412.378           0.255  
G04  23608885.751     -149588.903       -2122.232           0.244  
G05  22509305.844      146601.035        2037.624           0.255  
G06  20633565.045      -30871.158        -501.135           0.255  
G07  23401675.240      -74280.450       -1309.007           0.248  
G09  23124389.137      -76440.590       -1427.192           0.252  
> 2023 05 18 00 01 27.3688020  0  7                     
G02  24230653.162      235708.425        2906.067           0.239  
G03  22342608.898      -37294.185        -527.636           0.255  
G04  23608939.682     -149801.173       -2122.977           0.244  
G05  22509254.138      146804.719        2037.468           0.255  
G06  20633577.580      -30921.063        -497.061           0.255  
G07  23401708.588      -74411.328       -1308.693           0.248  
G09  23124425.682      -76583.333       -1427.630           0.251  
> 2023 05 18 00 01 27.4688020  0  7                     
G02  24230578.834      235998.952        2906.067           0.239  
G03  22342622.510      -37346.540        -520.526           0.255  
G04  23608993.378     -150013.426       -2122.831           0.244  
G05  22509202.079      147008.405        2036.652           0.255  
G06  20633590.401      -30970.991        -500.816           0.255  
G07  23401741.781      -74542.209       -1308.638           0.248  
G09  23124462.122      -76726.073       -1427.341           0.252  
> 2023 05 18 00 01 27.5688020  0  7                     
G02  24230504.753      236289.497        2905.333           0.239  
G03  22342636.291      -37398.936        -526.367           0.255  
G04  23609047.873     -150225.691       -2123.008           0.244  
G05  22509150.151      147212.083        2036.850           0.255  
G06  20633602.864      -31020.920        -498.151           0.255  
G07  23401775.241      -74673.096       -1309.010           0.248  
G09  23124498.613      -76868.818       -1427.277           0.252  
> 2023 05 18 00 01 27.6688020  0  7                     
G02  24230431.189      236580.045        2905.693           0.239  
G03  22342649.070      -37451.330        -522.413           0.255  
G04  23609101.392     -150437.960       -2123.480           0.244  
G05  22509098.190      147415.766        2037.005           0.255  
G06  20633615.920      -31070.842        -499.806           0.255  
G07  23401808.901      -74803.975       -1308.600           0.248  
G09  23124534.726      -77011.561       -1427.669           0.252  
> 2023 05 18 00 01 27.7688020  0  7                     
G02  24230356.845      236870.582        2905.270           0.239  
G03  22342663.115      -37503.714        -525.162           0.255  
G04  23609156.278     -150650.225       -2122.948           0.244  
G05  22509046.262      147619.443        2036.431           0.255  
G06  20633628.286      -31120.783        -498.815           0.255  
G07  23401842.045      -74934.867       -1308.711           0.248  
G09  23124571.074      -77154.304       -1427.519           0.251  
> 2023 05 18 00 01 27.8688020  0  7                     
G02  24230282.857      237161.138        2905.491           0.239  
G03  22342675.754      -37556.109        -457.178           0.255  
G04  23609209.930     -150862.497       -2122.952           0.244  
G05  22508994.402      147823.117        2036.218           0.255  
G06  20633641.332      -31170.705        -499.342           0.255  
G07  23401875.428      -75065.757       -1309.183           0.248  
G09  23124607.895      -77297.045       -1427.383           0.252  
> 2023 05 18 00 01 27.9688020  0  7                     
G02  24230208.761      237451.679        2905.252           0.239  
G03  22342689.430      -37608.515        -524.376           0.255  
G04  23609264.130     -151074.764       -2122.653           0.244  
G05  22508942.643      148026.797        2037.018           0.255  
G06  20633653.853      -31220.657        -499.495           0.255  
G07  23401908.611      -75196.656       -1308.958           0.248  
G09  23124644.305      -77439.880       -1444.709           0.252  
> 2023 05 18 00 01 28.0688020  0  7                     
G02  24230134.352      237742.219        2904.899           0.239  
G03  22342702.316      -37660.949        -524.528           0.255  
G04  23609318.265     -151287.026       -2122.648           0.244  
G05  22508890.561      148230.460        2036.447           0.255  
G06  20633666.899      -31270.576        -498.640           0.255  
G07  23401941.990      -75327.550       -1308.964           0.248  
G09  23124680.302      -77582.540       -1427.290           0.251  
> 2023 05 18 00 01 28.1688020  0  7                     
G02  24230059.939      238032.769        2904.415           0.239  
G03  22342716.336      -37713.325        -523.235           0.255  
G04  23609372.777     -151499.296       -2122.306           0.244  
G05  22508838.676      148434.129        2036.044           0.255  
G06  20633679.445      -31320.544        -500.083           0.255  
G07  23401975.362      -75458.455       -1309.398           0.248  
G09  23124716.920      -77725.059       -1402.726           0.251  
> 2023 05 18 00 01 28.2688020  0  7                     
G02  24229986.735      238323.307        2905.265           0.239  
G03  22342729.301      -37765.783        -525.891           0.255  
G04  23609426.038     -151711.570       -2122.664           0.244  
G05  22508786.967      148637.801        2036.990           0.255  
G06  20633692.067      -31370.473        -497.916           0.255  
G07  23402008.969      -75589.354       -1308.790           0.248  
G09  23124753.496      -77868.036       -1427.750           0.252  
> 2023 05 18 00 01 28.3688020  0  7                     
G02  24229912.303      238613.855        2905.777           0.239  
G03  22342742.716      -37818.158        -521.731           0.255  
G04  23609480.594     -151923.848       -2123.185           0.244  
G05  22508735.067      148841.461        2036.611           0.255  
G06  20633705.029      -31420.452        -501.391           0.255  
G07  23402042.113      -75720.264       -1309.261           0.248  
G09  23124789.353      -78010.781       -1427.287           0.252  
> 2023 05 18 00 01 28.4688020  0  7                     
G02  24229838.392      238904.399        2905.294           0.239  
G03  22342756.153      -37870.633        -527.244           0.255  
G04  23609535.017     -152136.117       -2122.182           0.244  
G05  22508683.105      149045.123        2036.343           0.255  
G06  20633717.774      -31470.381        -497.582           0.255  
G07  23402075.619      -75851.171       -1308.872           0.248  
G09  23124825.694      -78153.530       -1427.105           0.252  
> 2023 05 18 00 01 28.5688020  0  7                     
G02  24229764.045      239195.128        2945.236           0.239  
G03  22342769.842      -37924.713        -695.287           0.255  
G04  23609588.852     -152348.393       -2122.550           0.244  
G05  22508631.182      149249.022        2109.672           0.255  
G06  20633730.235      -31520.365        -501.660           0.255  
G07  23402109.005      -75982.055       -1308.742           0.248  
G09  23124862.477      -78296.497       -1436.682           0.252  
> 2023 05 18 00 01 28.6688020  0  7                     
G02  24229690.777      239485.488        2905.728           0.239  
G03  22342783.029      -37975.487        -527.268           0.255  
G04  23609642.870     -152560.669       -2123.527           0.244  
G05  22508579.591      149451.949        1959.486           0.255  
G06  20633742.684      -31570.310        -497.890           0.255  
G07  23402142.136      -76112.986       -1303.751           0.248  
G09  23124898.614      -78439.154       -1454.542           0.252  
> 2023 05 18 00 01 28.7688020  0  7                     
G02  24229616.465      239776.380        2933.974           0.239  
G03  22342796.101      -38027.899        -521.726           0.255  
G04  23609697.078     -152772.930       -2122.185           0.244  
G05  22508527.544      149656.406        2057.342           0.255  
G06  20633755.962      -31620.288        -501.205           0.255  
G07  23402175.613      -76243.897       -1298.902           0.248  
G09  23124934.879      -78581.614       -1410.780           0.252  
> 2023 05 18 00 01 28.8688020  0  7                     
G02  24229542.707      240066.561        2904.757           0.239  
G03  22342809.575      -38080.368        -526.997           0.255  
G04  23609750.933     -152985.218       -2122.729           0.244  
G05  22508475.576      149860.084        2128.875           0.255  
G06  20633768.317      -31670.249        -498.479           0.255  
G07  23402209.044      -76374.873       -1310.679           0.248  
G09  23124971.359      -78724.528       -1427.530           0.252  
> 2023 05 18 00 01 28.9688020  0  7                     
G02  24229469.074      240357.105        2904.874           0.239  
G03  22342822.861      -38132.790        -521.511           0.255  
G04  23609804.795     -153197.504       -2122.741           0.244  
G05  22508423.668      150063.021        1961.521           0.255  
G06  20633781.244      -31720.231        -501.409           0.255  
G07  23402242.235      -76505.770       -1309.429           0.248  
G09  23125008.086      -78867.282       -1427.002           0.251  
> 2023 05 18 00 01 29.0688020  0  7                     
G02  24229394.294      240647.648        2906.000           0.239  
G03  22342836.484      -38185.261        -526.354           0.255  
G04  23609859.269     -153409.783       -2123.010           0.244  
G05  22508371.554      150267.058        2036.906           0.255  
G06  20633793.935      -31770.202        -498.914           0.255  
G07  23402275.861      -76636.693       -1309.253           0.248  
G09  23125044.339      -79010.038       -1427.035           0.251  
> 2023 05 18 00 01 29.1688020  0  7                     
G02  24229320.465      240938.175        2904.678           0.239  
G03  22342849.769      -38237.708        -521.968           0.255  
G04  23609913.215     -153622.052       -2122.290           0.244  
G05  22508320.043      150470.696        2036.492           0.255  
G06  20633806.688      -31820.184        -500.726           0.255  
G07  23402309.046      -76767.629       -1309.441           0.248  
G09  23125080.562      -79152.798       -1427.864           0.251  
> 2023 05 18 00 01 29.2688020  0  7                     
G02  24229246.464      241228.711        2904.854           0.239  
G03  22342863.359      -38290.179        -526.853           0.255  
G04  23609967.318     -153834.343       -2122.807           0.244  
G05  22508268.003      150674.339        2035.852           0.255  
G06  20633818.920      -31870.168        -498.758           0.255  
G07  23402342.395      -76898.559       -1309.186           0.248  
G09  23125117.113      -79295.551       -1428.077           0.252  
> 2023 05 18 00 01 29.3688020  0  7                     
G02  24229172.167      241519.258        2906.303           0.239  
G03  22342876.284      -38342.644        -522.489           0.255  
G04  23610021.478     -154046.632       -2123.453           0.244  
G05  22508216.227      150877.990        2037.185           0.255  
G06  20633832.230      -31920.151        -501.064           0.255  
G07  23402375.855      -77029.502       -1309.492           0.248  
G09  23125153.669      -79438.302       -1427.559           0.251  
> 2023 05 18 00 01 29.4688020  0  7                     
G02  24229097.756      241809.793        2905.354           0.239  
G03  22342889.893      -38395.616        -664.431           0.255  
G04  23610075.607     -154258.911       -2123.081           0.244  
G05  22508164.134      151081.619        2036.266           0.255  
G06  20633845.047      -31970.146        -499.221           0.255  
G07  23402409.188      -77160.435       -1309.169           0.248  
G09  23125189.902      -79580.779       -1407.244           0.251  
> 2023 05 18 00 01 29.5688020  0  7                     
G02  24229024.233      242100.331        2904.584           0.239  
G03  22342903.141      -38447.597        -522.689           0.255  
G04  23610129.822     -154471.199       -2122.477           0.244  
G05  22508112.117      151285.254        2035.151           0.255  
G06  20633857.714      -32020.128        -500.283           0.255  
G07  23402442.459      -77291.393       -1309.609           0.248  
G09  23125225.930      -79723.643       -1390.417           0.252  
> 2023 05 18 00 01 29.6688020  0  7                     
G02  24228950.139      242390.875        2905.221           0.239  
G03  22342916.543      -38500.309        -652.901           0.255  
G04  23610183.746     -154683.488       -2123.029           0.244  
G05  22508060.224      151488.898        2037.213           0.255  
G06  20633870.373      -32070.140        -499.771           0.255  
G07  23402475.933      -77422.335       -1309.711           0.248  
G09  23125262.443      -79866.823       -1431.844           0.252  
> 2023 05 18 00 01 29.7688020  0  7                     
G02  24228876.300      242681.418        2905.230           0.239  
G03  22342929.685      -38552.570        -524.274           0.255  
G04  23610238.004     -154895.772       -2122.613           0.244  
G05  22508008.400      151692.522        2036.795           0.255  
G06  20633883.290      -32120.122        -500.189           0.255  
G07  23402509.032      -77553.287       -1309.510           0.248  
G09  23125298.682      -80009.615       -1482.336           0.252  
> 2023 05 18 00 01 29.8688020  0  7                     
G02  24228802.103      242971.969        2906.972           0.239  
G03  22342943.594      -38605.034        -525.422           0.255  
G04  23610291.889     -155108.065       -2123.654           0.244  
G05  22507956.537      151896.152        2035.999           0.255  
G06  20633895.991      -32170.145        -500.009           0.255  
G07  23402542.646      -77684.236       -1309.508           0.248  
G09  23125335.281      -80152.096       -1427.357           0.251  
> 2023 05 18 00 01 29.9688020  0  7                     
G02  24228727.498      243262.498        2906.150           0.239  
G03  22342955.764      -38657.547        -524.612           0.255  
G04  23610346.644     -155320.352       -2123.855           0.244  
G05  22507904.899      152099.788        2036.612           0.255  
G06  20633908.828      -32220.133        -499.355           0.255  
G07  23402576.142      -77815.186       -1309.117           0.248  
G09  23125372.095      -80294.860       -1428.770           0.251  
> 2023 05 18 00 01 30.0688020  0  7                     
G02  24228653.297      243553.024        2904.859           0.239  
G03  22342970.115      -38710.032        -526.181           0.255  
G04  23610400.573     -155532.647       -2123.627           0.244  
G05  22507852.898      152303.410        2036.307           0.255  
G06  20633920.614      -32270.166        -499.616           0.255  
G07  23402609.577      -77946.149       -1310.277           0.248  
G09  23125409.202      -80437.601       -1427.744           0.252  
> 2023 05 18 00 01 30.1688020  0  7                     
G02  24228580.057      243843.079        2820.719           0.239  
G03  22342983.793      -38762.727        -620.239           0.255  
G04  23610454.065     -155744.937       -2123.102           0.244  
G05  22507800.941      152507.042        2037.297           0.255  
G06  20633933.952      -32320.160        -499.575           0.255  
G07  23402642.633      -78077.082       -1299.065           0.248  
G09  23125444.394      -80580.520       -1376.140           0.251  
> 2023 05 18 00 01 30.2688020  0  7                     
G02  24228506.475      244134.099        2904.504           0.239  
G03  22342997.313      -38815.042        -525.347           0.255  
G04  23610507.627     -155957.225       -2123.114           0.244  
G05  22507749.098      152710.661        2037.120           0.255  
G06  20633946.799      -32370.188        -499.672           0.255  
G07  23402676.159      -78208.068       -1309.615           0.248  
G09  23125480.245      -80723.143       -1427.353           0.251  
> 2023 05 18 00 01 30.3688020  0  7                     
G02  24228432.028      244424.642        2905.705           0.239  
G03  22343009.823      -38867.957        -456.811           0.255  
G04  23610562.394     -156169.519       -2123.575           0.244  
G05  22507697.213      152913.991        1981.185           0.255  
G06  20633959.877      -32420.189        -499.010           0.255  
G07  23402709.581      -78339.028       -1309.606           0.248  
G09  23125516.704      -80865.910       -1428.135           0.252  
> 2023 05 18 00 01 30.4688020  0  7                     
G02  24228357.350      244715.176        2903.569           0.239  
G03  22343023.994      -38920.050        -524.480           0.255  
G04  23610616.809     -156381.810       -2122.034           0.244  
G05  22507645.273      153117.906        2036.777           0.255  
G06  20633972.159      -32470.246        -501.420           0.255  
G07  23402742.934      -78470.000       -1309.791           0.248  
G09  23125553.306      -81008.656       -1428.232           0.252  
> 2023 05 18 00 01 30.5688020  0  7                     
G02  24228284.187      245005.726        2905.131           0.239  
G03  22343036.943      -38972.641        -427.667           0.255  
G04  23610670.536     -156594.113       -2122.931           0.244  
G05  22507593.349      153321.511        2036.121           0.255  
G06  20633985.215      -32520.245        -499.881           0.255  
G07  23402776.030      -78600.966       -1309.511           0.248  
G09  23125590.045      -81151.409       -1426.209           0.252  
> 2023 05 18 00 01 30.6688020  0  7                     
G02  24228209.091      245296.268        2907.245           0.239  
G03  22343050.632      -39025.114        -525.368           0.255  
G04  23610724.093     -156806.410       -2123.729           0.244  
G05  22507541.833      153525.127        2035.370           0.255  
G06  20633998.095      -32570.289        -499.988           0.255  
G07  23402809.413      -78731.910       -1308.641           0.248  
G09  23125625.848      -81294.186       -1426.508           0.251  
> 2023 05 18 00 01 30.7688020  0  7                     
G02  24228134.481      245586.794        2905.582           0.239  
G03  22343064.539      -39077.656        -525.189           0.255  
G04  23610778.973     -157018.698       -2122.581           0.244  
G05  22507489.688      153728.747        2036.743           0.255  
G06  20634010.986      -32620.318        -501.052           0.255  
G07  23402842.997      -78862.916       -1309.590           0.248  
G09  23125662.021      -81436.946       -1426.312           0.251  
> 2023 05 18 00 01 30.8688020  0  7                     
G02  24228061.634      245877.338        2905.632           0.239  
G03  22343077.573      -39130.158        -524.896           0.255  
G04  23610832.882     -157231.000       -2122.490           0.244  
G05  22507437.715      153932.345        2034.857           0.255  
G06  20634023.458      -32670.377        -501.600           0.255  
G07  23402876.220      -78993.902       -1309.877           0.248  
G09  23125698.655      -81579.714       -1428.014           0.252  
> 2023 05 18 00 01 30.9688020  0  7                     
G02  24227987.250      246167.773        2913.462           0.239  
G03  22343089.673      -39182.729        -525.310           0.255  
G04  23610886.592     -157443.297       -2113.165           0.244  
G05  22507386.124      154135.963        2036.955           0.255  
G06  20634036.523      -32720.390        -499.771           0.255  
G07  23402909.158      -79124.818       -1293.276           0.248  
G09  23125735.601      -81722.481       -1427.112           0.251  
> 2023 05 18 00 01 31.0688020  0  7                     
G02  24227913.696      246458.428        2906.198           0.239  
G03  22343103.957      -39235.246        -524.855           0.255  
G04  23610940.909     -157655.607       -2123.356           0.244  
G05  22507334.137      154339.554        2036.434           0.255  
G06  20634048.917      -32770.454        -500.958           0.255  
G07  23402943.071      -79255.868       -1309.584           0.248  
G09  23125772.066      -81864.857       -1368.798           0.251  
> 2023 05 18 00 01 31.1688020  0  7                     
G02  24227839.587      246748.970        2906.380           0.239  
G03  22343117.767      -39287.472        -472.962           0.255  
G04  23610995.040     -157867.698       -2091.152           0.244  
G05  22507282.242      154543.151        2035.217           0.255  
G06  20634061.655      -32820.495        -500.470           0.255  
G07  23402976.311      -79386.859       -1310.185           0.248  
G09  23125807.512      -82008.016       -1427.853           0.252  
> 2023 05 18 00 01 31.2688020  0  7                     
G02  24227765.603      247039.501        2905.122           0.239  
G03  22343130.858      -39340.350        -526.560           0.255  
G04  23611049.543     -158080.212       -2123.360           0.244  
G05  22507229.946      154747.046        2133.582           0.255  
G06  20634074.177      -32870.558        -499.950           0.255  
G07  23403010.358      -79517.849       -1309.836           0.248  
G09  23125844.220      -82150.787       -1430.225           0.251  
> 2023 05 18 00 01 31.3688020  0  7                     
G02  24227690.952      247330.048        2905.577           0.239  
G03  22343143.864      -39392.935        -526.466           0.255  
G04  23611104.274     -158292.519       -2122.623           0.244  
G05  22507178.208      154950.357        2035.478           0.255  
G06  20634087.042      -32920.585        -499.160           0.255  
G07  23403043.574      -79648.786       -1309.590           0.248  
G09  23125880.449      -82293.561       -1427.422           0.252  
> 2023 05 18 00 01 31.4688020  0  7                     
G02  24227617.461      247620.586        2905.520           0.239  
G03  22343157.178      -39445.489        -527.005           0.255  
G04  23611158.175     -158504.825       -2122.936           0.244  
G05  22507126.702      155153.961        2037.110           0.255  
G06  20634100.075      -32970.665        -500.973           0.255  
G07  23403076.696      -79779.841       -1309.968           0.248  
G09  23125917.369      -82436.313       -1424.559           0.252  
> 2023 05 18 00 01 31.5688020  0  7                     
G02  24227542.625      247911.121        2905.617           0.239  
G03  22343170.283      -39498.059        -526.254           0.255  
G04  23611212.516     -158717.126       -2122.781           0.244  
G05  22507074.667      155357.546        2036.318           0.255  
G06  20634112.638      -33020.709        -500.501           0.255  
G07  23403110.091      -79910.849       -1310.442           0.248  
G09  23125953.972      -82579.096       -1428.289           0.252  
> 2023 05 18 00 01 31.6688020  0  7                     
G02  24227469.330      248201.661        2905.232           0.239  
G03  22343184.307      -39550.594        -524.865           0.255  
G04  23611265.909     -158929.436       -2122.766           0.244  
G05  22507022.776      155561.135        2035.359           0.255  
G06  20634125.231      -33070.796        -501.833           0.255  
G07  23403143.386      -80041.849       -1310.012           0.248  
G09  23125989.831      -82721.871       -1426.722           0.252  
> 2023 05 18 00 01 31.7688020  0  7                     
G02  24227395.729      248492.199        2904.704           0.239  
G03  22343197.734      -39602.615        -461.753           0.255  
G04  23611319.290     -159141.745       -2122.298           0.244  
G05  22506970.782      155765.189        2064.381           0.255  
G06  20634138.381      -33120.834        -499.556           0.255  
G07  23403176.987      -80172.871       -1309.048           0.248  
G09  23126025.684      -82864.973       -1516.986           0.252  
> 2023 05 18 00 01 31.8688020  0  7                     
G02  24227321.218      248782.732        2904.513           0.239  
G03  22343211.517      -39655.758        -526.498           0.255  
G04  23611373.340     -159354.058       -2122.376           0.244  
G05  22506918.884      155968.310        2034.843           0.255  
G06  20634151.126      -33170.936        -501.014           0.255  
G07  23403210.023      -80303.868       -1310.324           0.248  
G09  23126062.988      -83007.422       -1427.626           0.252  
> 2023 05 18 00 01 31.9688020  0  7                     
G02  24227246.661      249073.268        2905.198           0.239  
G03  22343224.449      -39708.367        -525.488           0.255  
G04  23611427.807     -159566.372       -2123.514           0.244  
G05  22506866.742      156171.906        2036.987           0.255  
G06  20634163.910      -33220.987        -500.277           0.255  
G07  23403243.477      -80434.861       -1304.476           0.248  
G09  23126098.741      -83150.188       -1428.226           0.251  
> 2023 05 18 00 01 32.0688020  0  7                     
G02  24227173.563      249363.812        2904.618           0.239  
G03  22343238.331      -39760.865        -603.658           0.255  
G04  23611481.778     -159778.570       -2117.076           0.244  
G05  22506814.859      156375.479        2035.775           0.255  
G06  20634176.308      -33271.085        -501.111           0.255  
G07  23403276.867      -80565.896       -1310.052           0.248  
G09  23126135.327      -83292.973       -1427.841           0.252  
> 2023 05 18 00 01 32.1688020  0  7                     
G02  24227099.396      249654.358        2905.865           0.239  
G03  22343251.324      -39813.548        -526.071           0.255  
G04  23611536.004     -159990.998       -2123.751           0.244  
G05  22506763.165      156579.065        2035.730           0.255  
G06  20634189.213      -33321.146        -500.132           0.255  
G07  23403310.357      -80696.913       -1309.803           0.248  
G09  23126172.113      -83435.748       -1428.839           0.252  
> 2023 05 18 00 01 32.2688020  0  7                     
G02  24227025.194      249944.893        2905.607           0.239  
G03  22343264.500      -39866.113        -526.233           0.255  
G04  23611590.190     -160203.547       -2147.490           0.244  
G05  22506711.201      156782.507        2052.284           0.255  
G06  20634202.224      -33371.254        -501.551           0.255  
G07  23403343.755      -80827.933       -1309.979           0.248  
G09  23126208.147      -83578.513       -1427.609           0.251  
> 2023 05 18 00 01 32.3688020  0  7                     
G02  24226950.837      250235.427        2904.357           0.239  
G03  22343278.562      -39918.740        -525.305           0.255  
G04  23611644.803     -160415.622       -2122.730           0.244  
G05  22506659.472      156986.208        2034.484           0.255  
G06  20634214.498      -33421.315        -500.485           0.255  
G07  23403377.533      -80958.959       -1310.121           0.248  
G09  23126243.908      -83721.297       -1427.357           0.251  
> 2023 05 18 00 01 32.4688020  0  7                     
G02  24226878.602      250525.969        2905.558           0.239  
G03  22343291.385      -39971.331        -526.968           0.255  
G04  23611697.594     -160627.938       -2123.054           0.244  
G05  22506607.133      157189.797        2036.411           0.255  
G06  20634227.902      -33471.430        -501.232           0.255  
G07  23403410.606      -81089.982       -1310.250           0.248  
G09  23126280.616      -83864.067       -1426.870           0.251  
> 2023 05 18 00 01 32.5688020  0  7                     
G02  24226802.956      250816.522        2906.232           0.239  
G03  22343305.032      -40023.537        -366.419           0.255  
G04  23611752.713     -160840.199       -2144.139           0.244  
G05  22506555.605      157392.967        1958.618           0.255  
G06  20634240.386      -33521.513        -501.356           0.255  
G07  23403443.847      -81221.014       -1314.018           0.248  
G09  23126317.299      -84006.849       -1427.861           0.251  
> 2023 05 18 00 01 32.6688020  0  7                     
G02  24226728.548      251107.060        2906.369           0.239  
G03  22343318.839      -40076.549        -527.834           0.255  
G04  23611807.374     -161052.575       -2123.666           0.244  
G05  22506503.722      157596.941        2036.671           0.255  
G06  20634252.853      -33571.626        -500.568           0.255  
G07  23403477.410      -81352.044       -1310.319           0.248  
G09  23126353.376      -84149.633       -1427.755           0.251  
> 2023 05 18 00 01 32.7688020  0  7                     
G02  24226654.803      251397.602        2906.799           0.239  
G03  22343331.568      -40129.184        -525.233           0.255  
G04  23611861.210     -161264.898       -2124.254           0.244  
G05  22506452.208      157799.960        1945.599           0.255  
G06  20634265.883      -33621.714        -501.148           0.255  
G07  23403510.319      -81483.082       -1310.518           0.248  
G09  23126390.493      -84292.416       -1428.110           0.252  
> 2023 05 18 00 01 32.8688020  0  7                     
G02  24226580.100      251688.136        2907.032           0.239  
G03  22343344.929      -40181.802        -528.518           0.255  
G04  23611915.688     -161477.216       -2124.180           0.244  
G05  22506400.129      158004.070        2035.498           0.255  
G06  20634278.741      -33671.828        -500.144           0.255  
G07  23403544.076      -81614.117       -1310.271           0.248  
G09  23126426.705      -84435.193       -1427.696           0.252  
> 2023 05 18 00 01 32.9688020  0  7                     
G02  24226507.886      251978.676        2906.026           0.239  
G03  22343358.546      -40234.434        -523.819           0.255  
G04  23611968.764     -161689.535       -2123.244           0.244  
G05  22506348.307      158207.529        2040.000           0.255  
G06  20634291.128      -33721.929        -502.073           0.255  
G07  23403577.153      -81745.159       -1310.456           0.248  
G09  23126463.573      -84577.974       -1427.905           0.251  
> 2023 05 18 00 01 33.0688020  0  7                     
G02  24226432.644      252269.219        2905.458           0.239  
G03  22343371.807      -40287.054        -527.844           0.255  
G04  23612023.331     -161901.862       -2123.806           0.244  
G05  22506296.530      158411.190        2034.906           0.255  
G06  20634304.414      -33772.057        -501.490           0.255  
G07  23403610.943      -81876.196       -1309.894           0.248  
G09  23126498.101      -84720.745       -1427.074           0.251  
> 2023 05 18 00 01 33.1688020  0  7                     
G02  24226359.396      252559.750        2904.693           0.239  
G03  22343385.085      -40339.698        -524.641           0.255  
G04  23612077.358     -162114.178       -2122.750           0.244  
G05  22506244.441      158614.756        2036.473           0.255  
G06  20634317.449      -33822.166        -502.511           0.255  
G07  23403644.301      -82007.253       -1310.370           0.248  
G09  23126535.812      -84863.524       -1427.467           0.251  
> 2023 05 18 00 01 33.2688020  0  7                     
G02  24226285.275      252850.295        2905.192           0.239  
G03  22343398.989      -40392.353        -529.061           0.255  
G04  23612130.938     -162326.502       -2122.738           0.244  
G05  22506192.664      158818.307        2034.716           0.255  
G06  20634329.573      -33872.276        -499.869           0.255  
G07  23403677.669      -82138.298       -1310.748           0.248  
G09  23126572.148      -85006.319       -1427.540           0.251  
> 2023 05 18 00 01 33.3688020  0  7                     
G02  24226210.828      253140.830        2905.359           0.239  
G03  22343412.187      -40444.985        -523.482           0.255  
G04  23612185.204     -162538.831       -2123.367           0.244  
G05  22506140.859      159021.871        2036.434           0.255  
G06  20634342.527      -33922.405        -502.777           0.255  
G07  23403711.120      -82269.352       -1310.206           0.248  
G09  23126608.459      -85149.104       -1428.284           0.252  
> 2023 05 18 00 01 33.4688020  0  7                     
G02  24226136.701      253431.369        2906.473           0.239  
G03  22343425.557      -40497.661        -529.750           0.255  
G04  23612239.567     -162751.127       -2119.376           0.244  
G05  22506089.057      159225.412        2035.225           0.255  
G06  20634355.415      -33972.523        -499.549           0.255  
G07  23403744.629      -82400.449       -1319.261           0.248  
G09  23126645.100      -85291.886       -1427.475           0.251  
> 2023 05 18 00 01 33.5688020  0  7                     
G02  24226062.396      253721.897        2905.657           0.239  
G03  22343438.893      -40550.288        -523.670           0.255  
G04  23612293.385     -162963.506       -2123.823           0.244  
G05  22506037.206      159428.964        2036.147           0.255  
G06  20634367.872      -34022.661        -502.633           0.255  
G07  23403777.779      -82531.470       -1310.725           0.248  
G09  23126681.978      -85434.679       -1427.901           0.251  
> 2023 05 18 00 01 33.6688020  0  7                     
G02  24225988.900      254012.415        2904.507           0.239  
G03  22343452.343      -40602.944        -526.795           0.255  
G04  23612348.947     -163175.827       -2123.275           0.244  
G05  22505984.896      159632.502        2035.714           0.255  
G06  20634380.833      -34072.799        -502.016           0.255  
G07  23403810.966      -82662.535       -1311.208           0.248  
G09  23126717.439      -85577.457       -1427.791           0.252  
> 2023 05 18 00 01 33.7688020  0  7                     
G02  24225914.959      254302.945        2904.345           0.239  
G03  22343466.077      -40655.597        -523.888           0.255  
G04  23612402.224     -163388.152       -2122.704           0.244  
G05  22505933.144      159836.053        2035.646           0.255  
G06  20634393.570      -34122.946        -503.409           0.255  
G07  23403844.579      -82793.596       -1310.599           0.248  
G09  23126754.061      -85720.243       -1427.233           0.251  
> 2023 05 18 00 01 33.8688020  0  7                     
G02  24225840.855      254593.481        2904.283           0.239  
G03  22343479.209      -40708.312        -528.946           0.255  
G04  23612456.072     -163600.483       -2122.684           0.244  
G05  22505881.520      160039.595        2035.424           0.255  
G06  20634406.367      -34173.059        -499.553           0.255  
G07  23403877.798      -82924.666       -1310.701           0.248  
G09  23126790.618      -85863.036       -1428.124           0.252  
> 2023 05 18 00 01 33.9688020  0  7                     
G02  24225766.791      254884.022        2905.010           0.239  
G03  22343492.670      -40760.945        -524.711           0.255  
G04  23612510.104     -163812.838       -2123.698           0.244  
G05  22505829.534      160243.138        2034.939           0.255  
G06  20634419.081      -34223.225        -503.222           0.255  
G07  23403911.574      -83055.738       -1310.802           0.248  
G09  23126826.834      -86005.813       -1428.032           0.252  
> 2023 05 18 00 01 34.0688020  0  7                     
G02  24225693.047      255174.555        2905.783           0.239  
G03  22343505.885      -40813.677        -529.094           0.255  
G04  23612563.522     -164025.164       -2123.689           0.244  
G05  22505777.544      160446.678        2035.466           0.255  
G06  20634431.908      -34273.342        -500.383           0.255  
G07  23403945.316      -83186.809       -1310.466           0.248  
G09  23126863.317      -86148.607       -1427.076           0.251  
> 2023 05 18 00 01 34.1688020  0  7                     
G02  24225618.392      255465.088        2905.724           0.239  
G03  22343519.573      -40866.333        -528.411           0.255  
G04  23612618.429     -164237.510       -2124.877           0.244  
G05  22505725.755      160650.204        2034.089           0.255  
G06  20634444.615      -34323.504        -501.176           0.255  
G07  23403978.261      -83317.894       -1311.273           0.248  
G09  23126899.832      -86291.391       -1425.421           0.251  
> 2023 05 18 00 01 34.2688020  0  7                     
G02  24225547.091      255755.581        2941.535           0.238  
G03  22343533.201      -40919.772        -561.796           0.255  
G04  23612670.566     -164449.640       -2061.962           0.243  
G05  22505673.479      160853.749        2036.230           0.255  
G06  20634457.825      -34373.665        -502.539           0.255  
G07  23404011.589      -83448.967       -1310.432           0.248  
G09  23126935.498      -86433.939       -1411.705           0.251  
> 2023 05 18 00 01 34.3688020  0  7                     
G02  24225470.055      256046.134        2903.854           0.239  
G03  22343546.527      -40971.716        -524.916           0.255  
G04  23612725.997     -164662.161       -2122.663           0.243  
G05  22505621.957      161057.124        1991.496           0.255  
G06  20634470.253      -34423.802        -502.209           0.255  
G07  23404045.419      -83580.045       -1310.772           0.248  
G09  23126972.495      -86576.978       -1426.758           0.252  
> 2023 05 18 00 01 34.4688020  0  7                     
G02  24225397.141      256336.692        2904.562           0.238  
G03  22343559.915      -41024.443        -527.266           0.255  
G04  23612780.087     -164874.508       -2122.637           0.243  
G05  22505569.751      161260.814        2036.173           0.255  
G06  20634482.952      -34473.949        -501.516           0.255  
G07  23404078.178      -83711.133       -1311.166           0.248  
G09  23127009.656      -86719.781       -1427.951           0.251  
> 2023 05 18 00 01 34.5688020  0  7                     
G02  24225322.221      256627.236        2905.325           0.239  
G03  22343573.670      -41077.111        -524.527           0.255  
G04  23612834.850     -165086.851       -2123.433           0.244  
G05  22505517.936      161464.330        2034.532           0.255  
G06  20634495.683      -34524.125        -501.892           0.255  
G07  23404112.111      -83842.219       -1310.942           0.248  
G09  23127044.635      -86862.581       -1430.140           0.251  
> 2023 05 18 00 01 34.6688020  0  7                     
G02  24225247.733      256917.761        2906.114           0.239  
G03  22343586.782      -41129.806        -528.536           0.255  
G04  23612889.068     -165299.193       -2124.290           0.244  
G05  22505466.417      161667.871        2036.159           0.255  
G06  20634509.398      -34574.300        -500.770           0.255  
G07  23404145.534      -83973.323       -1323.472           0.248  
G09  23127079.624      -87005.368       -1427.893           0.252  
> 2023 05 18 00 01 34.7688020  0  7                     
G02  24225174.513      257208.286        2905.317           0.239  
G03  22343600.220      -41182.512        -524.721           0.255  
G04  23612943.056     -165511.530       -2123.274           0.244  
G05  22505414.584      161871.384        2034.990           0.255  
G06  20634521.679      -34624.475        -502.792           0.255  
G07  23404178.669      -84104.405       -1311.198           0.248  
G09  23127117.675      -87148.156       -1428.424           0.252  
> 2023 05 18 00 01 34.8688020  0  7                     
G02  24225100.502      257498.824        2904.804           0.239  
G03  22343613.557      -41235.234        -525.716           0.255  
G04  23612997.452     -165723.873       -2123.047           0.244  
G05  22505362.607      162074.916        2035.839           0.255  
G06  20634534.027      -34674.643        -502.395           0.255  
G07  23404212.015      -84235.498       -1310.903           0.248  
G09  23127154.784      -87290.960       -1429.021           0.251  
> 2023 05 18 00 01 34.9688020  0  7                     
G02  24225026.607      257789.358        2904.584           0.239  
G03  22343626.895      -41287.928        -523.042           0.255  
G04  23613051.028     -165936.212       -2122.598           0.244  
G05  22505310.836      162278.429        2035.299           0.255  
G06  20634546.871      -34724.830        -503.798           0.255  
G07  23404245.385      -84366.595       -1310.820           0.248  
G09  23127190.958      -87433.753       -1427.900           0.252  
> 2023 05 18 00 01 35.0688020  0  7                     
G02  24224952.782      258079.888        2904.437           0.239  
G03  22343640.436      -41340.692        -530.193           0.255  
G04  23613105.460     -166148.553       -2123.068           0.244  
G05  22505259.002      162482.347        2100.447           0.255  
G06  20634559.577      -34774.990        -499.944           0.255  
G07  23404278.959      -84497.704       -1310.979           0.248  
G09  23127227.306      -87576.542       -1427.928           0.252  
> 2023 05 18 00 01 35.1688020  0  7                     
G02  24224877.664      258370.422        2906.133           0.239  
G03  22343653.913      -41394.303        -568.044           0.255  
G04  23613159.481     -166360.898       -2116.378           0.244  
G05  22505207.141      162685.459        2035.143           0.255  
G06  20634572.643      -34825.167        -499.539           0.255  
G07  23404312.378      -84628.801       -1311.089           0.248  
G09  23127263.715      -87719.343       -1428.185           0.252  
> 2023 05 18 00 01 35.2688020  0  7                     
G02  24224803.769      258660.965        2906.097           0.239  
G03  22343667.118      -41446.117        -525.433           0.255  
G04  23613213.412     -166573.248       -2123.852           0.244  
G05  22505155.621      162888.981        2035.834           0.255  
G06  20634585.463      -34875.385        -503.514           0.255  
G07  23404346.456      -84759.913       -1310.728           0.248  
G09  23127299.820      -87862.138       -1427.818           0.251  
> 2023 05 18 00 01 35.3688020  0  7                     
G02  24224729.018      258951.492        2905.848           0.239  
G03  22343680.244      -41498.853        -527.273           0.255  
G04  23613267.906     -166785.587       -2123.157           0.244  
G05  22505103.869      163092.485        2034.677           0.255  
G06  20634597.793      -34925.574        -502.488           0.255  
G07  23404379.634      -84891.023       -1311.110           0.248  
G09  23127337.103      -88004.937       -1428.009           0.252  
> 2023 05 18 00 01 35.4688020  0  7                     
G02  24224656.204      259242.033        2904.839           0.239  
G03  22343693.846      -41551.599        -529.101           0.255  
G04  23613321.976     -166997.948       -2123.935           0.244  
G05  22505051.761      163296.003        2035.728           0.255  
G06  20634610.824      -34975.772        -500.997           0.255  
G07  23404412.834      -85022.137       -1310.690           0.248  
G09  23127373.742      -88147.735       -1428.575           0.251  
> 2023 05 18 00 01 35.5688020  0  7                     
G02  24224581.840      259532.565        2903.819           0.239  
G03  22343707.938      -41604.369        -527.589           0.255  
G04  23613376.243     -167210.288       -2122.214           0.244  
G05  22504999.535      163499.497        2035.026           0.255  
G06  20634623.413      -35025.947        -502.205           0.255  
G07  23404445.822      -85153.254       -1310.837           0.248  
G09  23127409.115      -88290.532       -1427.911           0.251  
> 2023 05 18 00 01 35.6688020  0  7                     
G02  24224506.744      259823.074        2904.323           0.239  
G03  22343721.012      -41657.118        -525.081           0.255  
G04  23613431.072     -167422.622       -2122.479           0.244  
G05  22504947.842      163703.004        2035.190           0.255  
G06  20634636.453      -35076.149        -503.113           0.255  
G07  23404479.108      -85284.375       -1311.018           0.248  
G09  23127445.956      -88433.329       -1428.070           0.251  
> 2023 05 18 00 01 35.7688020  0  7                     
G02  24224433.881      260113.628        2904.678           0.239  
G03  22343734.072      -41709.901        -526.939           0.255  
G04  23613484.404     -167634.991       -2122.220           0.244  
G05  22504895.993      163906.506        2035.096           0.255  
G06  20634649.531      -35126.337        -502.315           0.255  
G07  23404512.955      -85415.496       -1311.072           0.248  
G09  23127481.314      -88576.130       -1428.491           0.251  
> 2023 05 18 00 01 35.8688020  0  7                     
G02  24224360.267      260404.161        2906.205           0.239  
G03  22343747.495      -41762.624        -526.507           0.255  
G04  23613538.005     -167847.338       -2123.314           0.244  
G05  22504844.105      164110.004        2034.782           0.255  
G06  20634662.158      -35176.564        -502.306           0.255  
G07  23404546.415      -85546.625       -1310.768           0.248  
G09  23127518.589      -88718.930       -1427.333           0.252  
> 2023 05 18 00 01 35.9688020  0  7                     
G02  24224286.761      260694.697        2905.496           0.240  
G03  22343761.593      -41815.387        -526.230           0.255  
G04  23613591.838     -168059.694       -2122.625           0.244  
G05  22504792.485      164313.499        2034.949           0.255  
G06  20634675.019      -35226.779        -503.146           0.255  
G07  23404579.099      -85677.756       -1311.409           0.248  
G09  23127554.807      -88861.742       -1428.401           0.252  
> 2023 05 18 00 01 36.0688020  0  7                     
G02  24224211.722      260985.243        2905.742           0.239  
G03  22343774.230      -41868.163        -527.126           0.255  
G04  23613646.172     -168272.061       -2123.370           0.244  
G05  22504740.615      164517.009        2035.707           0.255  
G06  20634688.160      -35276.985        -501.646           0.255  
G07  23404612.720      -85808.893       -1311.665           0.248  
G09  23127590.624      -89004.551       -1428.895           0.252  
> 2023 05 18 00 01 36.1688020  0  7                     
G02  24224137.524      261275.770        2904.664           0.239  
G03  22343788.369      -41920.921        -525.763           0.255  
G04  23613700.323     -168484.404       -2122.459           0.244  
G05  22504688.361      164720.490        2034.593           0.255  
G06  20634700.646      -35327.213        -502.624           0.255  
G07  23404646.707      -85940.024       -1311.047           0.248  
G09  23127626.912      -89147.345       -1426.883           0.251  
> 2023 05 18 00 01 36.2688020  0  7                     
G02  24224063.971      261566.307        2905.798           0.239  
G03  22343801.664      -41973.696        -527.598           0.255  
G04  23613754.924     -168696.763       -2123.131           0.244  
G05  22504636.497      164923.987        2035.439           0.255  
G06  20634713.134      -35377.435        -502.890           0.255  
G07  23404679.949      -86071.162       -1311.626           0.248  
G09  23127664.220      -89290.148       -1428.623           0.251  
> 2023 05 18 00 01 36.3688020  0  7                     
G02  24223990.344      261856.844        2905.619           0.239  
G03  22343815.152      -42026.463        -526.932           0.255  
G04  23613808.655     -168909.130       -2124.143           0.244  
G05  22504584.951      165127.473        2034.782           0.255  
G06  20634726.097      -35427.674        -503.383           0.255  
G07  23404713.373      -86202.299       -1311.104           0.248  
G09  23127700.290      -89432.956       -1428.136           0.252  
> 2023 05 18 00 01 36.4688020  0  7                     
G02  24223915.371      262147.376        2906.268           0.239  
G03  22343828.504      -42079.284        -527.726           0.255  
G04  23613863.128     -169121.490       -2124.617           0.244  
G05  22504532.888      165330.968        2035.874           0.255  
G06  20634738.947      -35477.875        -501.828           0.255  
G07  23404746.484      -86333.452       -1311.544           0.248  
G09  23127736.614      -89575.758       -1428.421           0.252  
> 2023 05 18 00 01 36.5688020  0  7                     
G02  24223841.622      262437.803        2858.774           0.239  
G03  22343842.159      -42132.981        -570.701           0.255  
G04  23613916.983     -169333.839       -2099.038           0.244  
G05  22504481.084      165533.856        1947.909           0.255  
G06  20634751.679      -35528.125        -502.446           0.255  
G07  23404780.093      -86464.594       -1311.392           0.248  
G09  23127772.958      -89718.677       -1464.161           0.252  
> 2023 05 18 00 01 36.6688020  0  7                     
G02  24223767.534      262728.441        2905.679           0.239  
G03  22343855.454      -42184.245        -372.376           0.255  
G04  23613971.755     -169546.176       -2109.232           0.244  
G05  22504429.020      165737.927        2035.522           0.255  
G06  20634764.190      -35578.347        -502.766           0.255  
G07  23404813.391      -86595.741       -1310.903           0.248  
G09  23127809.576      -89861.362       -1427.246           0.252  
> 2023 05 18 00 01 36.7688020  0  7                     
G02  24223693.220      263018.974        2905.071           0.239  
G03  22343869.069      -42237.653        -530.012           0.255  
G04  23614025.687     -169758.559       -2123.015           0.244  
G05  22504377.393      165941.393        2033.751           0.255  
G06  20634777.097      -35628.591        -501.583           0.255  
G07  23404846.955      -86726.900       -1311.765           0.248  
G09  23127845.668      -90004.190       -1429.237           0.251  
> 2023 05 18 00 01 36.8688020  0  7                     
G02  24223619.425      263309.504        2904.425           0.239  
G03  22343882.701      -42290.447        -525.154           0.255  
G04  23614079.380     -169970.923       -2122.697           0.244  
G05  22504325.773      166144.886        2035.563           0.255  
G06  20634790.270      -35678.838        -503.800           0.255  
G07  23404879.792      -86858.043       -1311.587           0.248  
G09  23127882.015      -90147.000       -1428.477           0.252  
> 2023 05 18 00 01 36.9688020  0  7                     
G02  24223545.418      263600.043        2904.585           0.239  
G03  22343896.351      -42343.281        -528.944           0.255  
G04  23614133.183     -170183.291       -2123.344           0.244  
G05  22504273.791      166348.347        2033.867           0.255  
G06  20634803.106      -35729.066        -501.436           0.255  
G07  23404913.300      -86989.317       -1317.309           0.248  
G09  23127917.682      -90289.807       -1428.438           0.252  
> 2023 05 18 00 01 37.0688020  0  7                     
G02  24223471.577      263890.581        2905.252           0.239  
G03  22343909.425      -42396.072        -526.583           0.255  
G04  23614187.368     -170395.659       -2123.254           0.244  
G05  22504222.058      166552.065        2138.479           0.255  
G06  20634815.754      -35779.333        -503.234           0.255  
G07  23404947.826      -87120.369       -1312.006           0.248  
G09  23127954.818      -90432.619       -1428.227           0.252  
> 2023 05 18 00 01 37.1688020  0  7                     
G02  24223397.274      264181.114        2905.763           0.239  
G03  22343922.978      -42448.909        -528.394           0.255  
G04  23614242.168     -170608.024       -2123.568           0.244  
G05  22504170.284      166755.296        2034.015           0.255  
G06  20634828.342      -35829.576        -502.498           0.255  
G07  23404980.496      -87251.528       -1311.878           0.248  
G09  23127992.084      -90575.421       -1427.635           0.252  
> 2023 05 18 00 01 37.2688020  0  7                     
G02  24223323.021      264471.644        2905.007           0.239  
G03  22343936.066      -42501.722        -528.868           0.255  
G04  23614296.195     -170820.387       -2123.579           0.244  
G05  22504118.321      166958.759        2035.253           0.255  
G06  20634841.002      -35879.837        -502.117           0.255  
G07  23405014.444      -87382.693       -1311.385           0.248  
G09  23128028.592      -90718.240       -1428.606           0.252  
> 2023 05 18 00 01 37.3688020  0  7                     
G02  24223249.930      264762.180        2905.198           0.239  
G03  22343949.686      -42554.560        -527.037           0.255  
G04  23614349.329     -171032.754       -2123.664           0.244  
G05  22504066.166      167162.219        2033.293           0.255  
G06  20634854.333      -35930.082        -502.634           0.255  
G07  23405047.476      -87513.867       -1312.056           0.248  
G09  23128064.008      -90861.050       -1428.305           0.252  
> 2023 05 18 00 01 37.4688020  0  7                     
G02  24223173.634      265052.726        2906.012           0.239  
G03  22343963.473      -42607.419        -528.282           0.255  
G04  23614405.392     -171245.133       -2124.283           0.244  
G05  22504014.779      167365.595        2038.791           0.255  
G06  20634867.067      -35980.335        -502.433           0.255  
G07  23405080.976      -87645.031       -1311.494           0.248  
G09  23128100.311      -91003.681       -1395.387           0.252  
> 2023 05 18 00 01 37.5688020  0  7                     
G02  24223100.845      265343.250        2905.253           0.239  
G03  22343976.719      -42659.393        -462.412           0.255  
G04  23614458.996     -171457.499       -2123.300           0.244  
G05  22503962.664      167569.150        2034.260           0.255  
G06  20634879.807      -36030.613        -503.890           0.255  
G07  23405114.322      -87776.158       -1304.595           0.248  
G09  23128136.401      -91146.667       -1428.136           0.251  
> 2023 05 18 00 01 37.6688020  0  7                     
G02  24223027.668      265633.778        2904.613           0.239  
G03  22343991.057      -42713.075        -530.128           0.255  
G04  23614513.450     -171669.925       -2103.046           0.244  
G05  22503910.818      167772.614        2035.210           0.255  
G06  20634892.410      -36080.879        -501.162           0.255  
G07  23405147.875      -87907.387       -1311.531           0.248  
G09  23128172.919      -91289.490       -1428.307           0.252  
> 2023 05 18 00 01 37.7688020  0  7                     
G02  24222954.217      265924.314        2904.451           0.240  
G03  22344004.832      -42765.901        -528.315           0.255  
G04  23614566.300     -171882.242       -2123.174           0.244  
G05  22503858.757      167976.073        2034.772           0.255  
G06  20634904.781      -36131.162        -502.426           0.255  
G07  23405181.324      -88038.572       -1311.913           0.248  
G09  23128209.423      -91432.324       -1414.817           0.252  
> 2023 05 18 00 01 37.8688020  0  7                     
G02  24222879.516      266214.851        2907.007           0.239  
G03  22344017.997      -42819.040        -545.713           0.255  
G04  23614621.149     -172094.622       -2125.161           0.244  
G05  22503807.070      168178.920        1929.095           0.255  
G06  20634917.645      -36181.439        -503.690           0.255  
G07  23405214.734      -88169.755       -1311.804           0.248  
G09  23128244.936      -91575.124       -1428.449           0.251  
> 2023 05 18 00 01 37.9688020  0  7                     
G02  24222804.597      266505.365        2907.859           0.239  
G03  22344030.587      -42871.617        -526.313           0.255  
G04  23614675.463     -172306.993       -2125.367           0.244  
G05  22503755.212      168382.980        2034.700           0.255  
G06  20634930.786      -36231.704        -503.317           0.255  
G07  23405248.640      -88300.943       -1312.070           0.248  
G09  23128282.592      -91717.942       -1428.598           0.251  
> 2023 05 18 00 01 38.0688020  0  7                     
G02  24222730.054      266795.889        2904.603           0.239  
G03  22344043.501      -42924.464        -527.774           0.255  
G04  23614729.906     -172519.365       -2122.610           0.244  
G05  22503703.290      168586.423        2034.124           0.255  
G06  20634944.151      -36281.992        -503.089           0.255  
G07  23405281.789      -88432.129       -1311.608           0.248  
G09  23128318.692      -91860.756       -1428.174           0.252  
> 2023 05 18 00 01 38.1688020  0  7                     
G02  24222656.677      267086.176        2897.916           0.239  
G03  22344057.581      -42977.903        -576.214           0.255  
G04  23614782.683     -172731.742       -2123.623           0.244  
G05  22503651.873      168789.997        2103.331           0.255  
G06  20634956.795      -36332.283        -503.360           0.255  
G07  23405314.868      -88563.326       -1311.895           0.248  
G09  23128354.716      -92003.558       -1434.060           0.252  
> 2023 05 18 00 01 38.2688020  0  7                     
G02  24222583.029      267377.128        2938.109           0.239  
G03  22344068.787      -43030.125        -526.346           0.255  
G04  23614837.533     -172944.364       -2138.808           0.244  
G05  22503600.238      168993.194        1989.932           0.255  
G06  20634970.470      -36382.568        -503.569           0.255  
G07  23405348.922      -88694.521       -1311.792           0.248  
G09  23128390.476      -92146.166       -1423.261           0.251  
> 2023 05 18 00 01 38.3688020  0  7                     
G02  24222508.519      267667.747        2917.270           0.239  
G03  22344082.302      -43083.573        -556.879           0.255  
G04  23614892.175     -173156.504       -2123.532           0.244  
G05  22503547.945      169196.760        2035.185           0.255  
G06  20634983.310      -36432.858        -501.889           0.255  
G07  23405382.257      -88825.722       -1311.719           0.248  
G09  23128427.184      -92289.207       -1428.687           0.251  
> 2023 05 18 00 01 38.4688020  0  7                     
G02  24222435.749      267957.996        2904.772           0.239  
G03  22344097.387      -43135.294        -454.704           0.255  
G04  23614944.874     -173368.876       -2123.749           0.244  
G05  22503496.228      169400.201        2033.785           0.255  
G06  20634994.915      -36483.168        -503.915           0.255  
G07  23405414.961      -88956.926       -1312.090           0.248  
G09  23128465.604      -92432.026       -1427.991           0.251  
> 2023 05 18 00 01 38.5688020  0  7                     
G02  24222361.561      268248.527        2905.204           0.239  
G03  22344111.319      -43188.817        -528.950           0.255  
G04  23614998.763     -173581.272       -2123.499           0.244  
G05  22503444.471      169603.640        2034.804           0.255  
G06  20635007.443      -36533.463        -503.658           0.255  
G07  23405448.379      -89088.131       -1311.498           0.248  
G09  23128502.631      -92574.851       -1428.449           0.251  
> 2023 05 18 00 01 38.6688020  0  7                     
G02  24222287.134      268539.052        2904.612           0.239  
G03  22344125.285      -43241.697        -530.433           0.255  
G04  23615052.513     -173793.654       -2123.552           0.244  
G05  22503392.739      169807.078        2034.378           0.255  
G06  20635020.633      -36583.774        -502.581           0.255  
G07  23405481.612      -89219.342       -1312.341           0.248  
G09  23128537.325      -92717.678       -1428.922           0.251  
> 2023 05 18 00 01 38.7688020  0  7                     
G02  24222212.989      268829.574        2904.538           0.239  
G03  22344137.870      -43294.579        -529.909           0.255  
G04  23615107.947     -174006.044       -2123.621           0.244  
G05  22503340.340      170010.513        2034.578           0.255  
G06  20635033.839      -36634.077        -502.181           0.255  
G07  23405515.757      -89350.550       -1312.242           0.248  
G09  23128573.771      -92860.501       -1428.619           0.251  
> 2023 05 18 00 01 38.8688020  0  7                     
G02  24222138.957      269120.101        2905.100           0.239  
G03  22344151.727      -43347.465        -526.686           0.255  
G04  23615161.583     -174218.425       -2124.383           0.244  
G05  22503288.796      170213.958        2035.416           0.255  
G06  20635046.813      -36684.390        -504.191           0.255  
G07  23405548.959      -89481.762       -1312.143           0.248  
G09  23128609.917      -93003.316       -1428.548           0.252  
> 2023 05 18 00 01 38.9688020  0  7                     
G02  24222064.479      269410.639        2935.747           0.239  
G03  22344165.117      -43400.393        -529.480           0.255  
G04  23615215.934     -174430.542       -2073.946           0.244  
G05  22503236.905      170417.621        2065.086           0.255  
G06  20635059.256      -36734.690        -503.275           0.255  
G07  23405582.332      -89612.975       -1311.960           0.248  
G09  23128646.874      -93145.991       -1408.943           0.252  
> 2023 05 18 00 01 39.0688020  0  7                     
G02  24221991.082      269701.153        2905.971           0.239  
G03  22344179.139      -43453.319        -530.281           0.255  
G04  23615270.133     -174643.192       -2123.464           0.244  
G05  22503185.185      170620.817        2034.543           0.255  
G06  20635071.686      -36784.992        -501.857           0.255  
G07  23405616.057      -89744.195       -1312.179           0.248  
G09  23128683.064      -93288.958       -1427.724           0.252  
> 2023 05 18 00 01 39.1688020  0  7                     
G02  24221916.788      269991.677        2904.384           0.239  
G03  22344192.519      -43506.211        -527.646           0.255  
G04  23615324.729     -174855.589       -2123.295           0.244  
G05  22503132.912      170824.235        2033.493           0.255  
G06  20635084.661      -36835.315        -504.172           0.255  
G07  23405649.343      -89875.414       -1312.418           0.248  
G09  23128719.160      -93431.762       -1435.023           0.252  
> 2023 05 18 00 01 39.2688020  0  7                     
G02  24221842.937      270282.201        2904.767           0.239  
G03  22344205.846      -43559.106        -524.205           0.255  
G04  23615377.989     -175067.983       -2123.823           0.244  
G05  22503081.561      171027.661        2034.647           0.255  
G06  20635097.426      -36885.647        -505.511           0.255  
G07  23405683.295      -90006.642       -1312.295           0.248  
G09  23128755.331      -93574.609       -1428.053           0.251  
