     3.03           OBSERVATION DATA    M: Mixed            RINEX VERSION / TYPE
GNSS-SDRLIB v1.1                        20230710 053345 UTC PGM / RUN BY / DATE 
                                                            MARKER NAME         
                                                            MARKER NUMBER       
                                                            MARKER TYPE         
                                                            OBSERVER / AGENCY   
GNSS-SDRLIB         GNSS-SDRLIB         1.1                 REC # / TYPE / VERS 
                                                            ANT # / TYPE        
        0.0000        0.0000        0.0000                  APPROX POSITION XYZ 
        0.0000        0.0000        0.0000                  ANTENNA: DELTA H/E/N
G    4 C1C L1C D1C S1C                                      SYS / # / OBS TYPES 
R    4 C1C L1C D1C S1C                                      SYS / # / OBS TYPES 
E    4 C1C L1C D1C S1C                                      SYS / # / OBS TYPES 
J    4 C1C L1C D1C S1C                                      SYS / # / OBS TYPES 
S    4 C1C L1C D1C S1C                                      SYS / # / OBS TYPES 
C    4 C1C L1C D1C S1C                                      SYS / # / OBS TYPES 
  1970    01    01    00    00   00.0000000     GPS         TIME OF FIRST OBS   
  1970    01    01    00    00   00.0000000     GPS         TIME OF LAST OBS    
G L1C  0.00000                                              SYS / PHASE SHIFT   
R L1C  0.00000                                              SYS / PHASE SHIFT   
E L1C  0.00000                                              SYS / PHASE SHIFT   
J L1C  0.00000                                              SYS / PHASE SHIFT   
S L1C  0.00000                                              SYS / PHASE SHIFT   
C L1C  0.00000                                              SYS / PHASE SHIFT   
  0                                                         GLONASS SLOT / FRQ #
 C1C    0.000 C1P    0.000 C2C    0.000 C2P    0.000        GLONASS COD/PHS/BIS 
                                                            END OF HEADER       
> 2023 05 18 00 00 36.0688020  0  1                     
G06  20627155.506       -5846.718        -465.592           0.255  
> 2023 05 18 00 00 36.0688020  0  2                     
G04  23613783.373      -41584.584       -2126.173           0.244  
G06  20627155.506       -5846.718        -465.592           0.255  
> 2023 05 18 00 00 36.0688020  0  3                     
G04  23613783.373      -41584.584       -2126.173           0.244  
G05  22527681.934       42423.105        1961.594           0.255  
G06  20627155.506       -5846.718        -465.592           0.255  
> 2023 05 14 00 00 14.7688020  0  5                     
G02  22401851.574       87026.066        2910.209           0.239  
G04  30703265.491      -41555.565       -2127.041           0.244  
G05  20623395.327       42395.796        2039.585           0.255  
G06  30714558.905       -5840.364        -465.634           0.255  
G07  24497351.593       -7913.512       -1309.037           0.248  
> 2023 05 18 00 00 36.0688020  0  6                     
G02  24306132.811       87065.788        2910.547           0.239  
G03  22336826.892      -10695.735        -466.456           0.255  
G04  23613783.373      -41584.584       -2126.173           0.244  
G05  22527681.934       42423.105        1961.594           0.255  
G06  20627155.506       -5846.718        -465.592           0.255  
G07  23403727.587       -7931.477       -1325.680           0.248  
> 2023 05 18 00 00 36.1688020  0  6                     
G02  24306057.788       87356.884        2911.070           0.239  
G03  22336838.788      -10744.095        -483.375           0.255  
G04  23613838.518      -41797.276       -2126.419           0.244  
G05  22527629.763       42627.477        2038.996           0.255  
G06  20627167.447       -5893.298        -465.841           0.255  
G07  23403761.437       -8062.295       -1309.061           0.248  
> 2023 05 18 00 00 36.2688020  0  6                     
G02  24305983.238       87647.979        2912.065           0.239  
G03  22336851.183      -10792.475        -483.981           0.255  
G04  23613893.139      -42009.975       -2126.252           0.244  
G05  22527578.010       42831.338        2038.775           0.255  
G06  20627178.563       -5939.874        -465.826           0.255  
G07  23403795.116       -8193.208       -1309.169           0.248  
> 2023 05 18 00 00 36.3688020  0  6                     
G02  24305909.116       87939.065        2911.615           0.239  
G03  22336864.105      -10840.858        -484.272           0.255  
G04  23613946.763      -42222.677       -2127.059           0.244  
G05  22527526.116       43035.193        2038.695           0.255  
G06  20627190.485       -5986.454        -465.471           0.255  
G07  23403828.835       -8324.125       -1308.891           0.248  
> 2023 05 18 00 00 36.4688020  0  6                     
G02  24305835.303       88230.152        2911.469           0.239  
G03  22336876.252      -10889.247        -484.351           0.255  
G04  23614000.633      -42435.368       -2127.146           0.244  
G05  22527474.392       43239.046        2038.829           0.255  
G06  20627202.656       -6033.036        -465.713           0.255  
G07  23403862.476       -8455.046       -1308.851           0.248  
> 2023 05 18 00 00 36.5688020  0  6                     
G02  24305760.968       88521.414        2935.063           0.239  
G03  22336888.539      -10937.345        -459.697           0.255  
G04  23614054.960      -42648.220       -2168.702           0.244  
G05  22527422.283       43442.868        2049.204           0.255  
G06  20627214.573       -6079.626        -466.125           0.255  
G07  23403895.649       -8585.974       -1295.909           0.248  
> 2023 05 18 00 00 36.6688020  0  6                     
G02  24305687.298       88812.332        2910.650           0.239  
G03  22336900.494      -10986.032        -485.000           0.255  
G04  23614109.892      -42860.775       -2127.452           0.244  
G05  22527370.173       43646.750        2038.140           0.255  
G06  20627226.753       -6126.210        -465.334           0.255  
G07  23403928.942       -8716.913       -1309.153           0.248  
> 2023 05 18 00 00 36.7688020  0  6                     
G02  24305612.652       89103.420        2910.905           0.239  
G03  22336913.341      -11034.431        -484.148           0.255  
G04  23614164.275      -43073.466       -2127.487           0.244  
G05  22527318.223       43850.595        2037.961           0.255  
G06  20627239.213       -6172.812        -465.732           0.255  
G07  23403962.462       -8847.840       -1308.992           0.248  
> 2023 05 18 00 00 36.8688020  0  6                     
G02  24305538.915       89394.510        2911.329           0.239  
G03  22336925.592      -11082.839        -484.421           0.255  
G04  23614217.553      -43286.170       -2127.320           0.244  
G05  22527266.161       44054.515        2014.630           0.255  
G06  20627250.665       -6219.400        -465.316           0.255  
G07  23403996.010       -8978.771       -1309.528           0.248  
> 2023 05 18 00 00 36.9688020  0  6                     
G02  24305463.994       89685.603        2911.377           0.239  
G03  22336937.538      -11131.245        -484.342           0.255  
G04  23614271.734      -43498.844       -2142.568           0.244  
G05  22527214.443       44258.298        2038.618           0.255  
G06  20627262.525       -6266.001        -465.907           0.255  
G07  23404029.019       -9109.711       -1309.111           0.248  
> 2023 05 18 00 00 37.0688020  0  6                     
G02  24305389.992       89976.691        2911.190           0.239  
G03  22336949.878      -11179.604        -459.946           0.255  
G04  23614325.582      -43711.566       -2126.737           0.244  
G05  22527162.621       44462.138        2038.587           0.255  
G06  20627274.528       -6312.608        -466.344           0.255  
G07  23404062.360       -9240.661       -1309.151           0.248  
> 2023 05 18 00 00 37.1688020  0  6                     
G02  24305316.367       90267.779        2912.259           0.239  
G03  22336962.448      -11228.075        -483.552           0.255  
G04  23614379.811      -43924.267       -2126.286           0.244  
G05  22527110.529       44665.978        2038.860           0.255  
G06  20627286.177       -6359.211        -466.039           0.255  
G07  23404095.485       -9371.600       -1309.442           0.248  
> 2023 05 18 00 00 37.2688020  0  6                     
G02  24305242.018       90558.865        2911.694           0.239  
G03  22336974.681      -11276.504        -483.951           0.255  
G04  23614434.055      -44136.983       -2127.750           0.244  
G05  22527058.869       44869.818        2037.681           0.255  
G06  20627298.593       -6405.828        -465.938           0.255  
G07  23404129.500       -9502.545       -1309.328           0.248  
> 2023 05 18 00 00 37.3688020  0  6                     
G02  24305166.222       90849.954        2910.482           0.239  
G03  22336987.104      -11324.934        -484.698           0.255  
G04  23614488.843      -44349.688       -2127.398           0.244  
G05  22527006.640       45073.645        2036.895           0.255  
G06  20627309.664       -6452.442        -465.487           0.255  
G07  23404163.581       -9633.501       -1309.596           0.248  
> 2023 05 18 00 00 37.4688020  0  6                     
G02  24305092.590       91141.053        2911.816           0.239  
G03  22336998.704      -11373.364        -488.884           0.255  
G04  23614542.715      -44562.447       -2134.421           0.244  
G05  22526954.749       45277.490        2039.132           0.255  
G06  20627321.982       -6499.055        -466.365           0.255  
G07  23404196.251       -9764.450       -1309.464           0.248  
> 2023 05 18 00 00 37.5688020  0  6                     
G02  24305018.162       91432.133        2911.504           0.239  
G03  22337011.578      -11421.793        -484.213           0.255  
G04  23614597.333      -44775.099       -2127.182           0.244  
G05  22526902.962       45481.325        2039.130           0.255  
G06  20627333.580       -6545.684        -466.657           0.255  
G07  23404229.286       -9895.406       -1309.108           0.248  
> 2023 05 18 00 00 37.6688020  0  6                     
G02  24304944.574       91723.224        2911.254           0.239  
G03  22337025.146      -11470.246        -484.730           0.255  
G04  23614650.913      -44987.809       -2127.028           0.244  
G05  22526851.142       45685.307        2088.043           0.255  
G06  20627344.172       -6592.304        -466.693           0.255  
G07  23404262.889      -10026.511       -1315.127           0.248  
> 2023 05 18 00 00 37.7688020  0  6                     
G02  24304869.672       92014.319        2910.760           0.239  
G03  22337036.847      -11518.689        -485.604           0.255  
G04  23614705.819      -45200.531       -2139.004           0.244  
G05  22526798.661       45888.971        2038.601           0.255  
G06  20627356.811       -6638.928        -465.272           0.255  
G07  23404296.413      -10157.338       -1303.802           0.248  
> 2023 05 18 00 00 37.8688020  0  6                     
G02  24304797.556       92305.408        2911.732           0.239  
G03  22337048.777      -11567.141        -484.867           0.255  
G04  23614759.778      -45413.234       -2127.337           0.244  
G05  22526746.729       46092.796        2037.507           0.255  
G06  20627368.591       -6685.561        -465.714           0.255  
G07  23404329.986      -10288.290       -1309.430           0.248  
> 2023 05 18 00 00 37.9688020  0  6                     
G02  24304721.647       92596.495        2911.265           0.239  
G03  22337061.494      -11615.592        -484.865           0.255  
G04  23614814.731      -45625.945       -2127.032           0.244  
G05  22526694.950       46296.614        2037.333           0.255  
G06  20627381.072       -6732.208        -466.972           0.255  
G07  23404363.129      -10419.257       -1309.187           0.248  
> 2023 05 18 00 00 38.0688020  0  6                     
G02  24304648.388       92887.587        2911.319           0.239  
G03  22337073.945      -11664.056        -484.774           0.255  
G04  23614867.713      -45838.673       -2127.427           0.244  
G05  22526643.298       46500.450        2039.073           0.255  
G06  20627392.777       -6778.845        -466.551           0.255  
G07  23404395.758      -10550.228       -1309.406           0.248  
> 2023 05 18 00 00 38.1688020  0  6                     
G02  24304574.277       93178.678        2910.426           0.239  
G03  22337085.985      -11712.522        -484.565           0.255  
G04  23614922.100      -46051.418       -2133.561           0.244  
G05  22526591.139       46704.535        2070.372           0.255  
G06  20627404.571       -6825.477        -466.439           0.255  
G07  23404428.611      -10681.208       -1309.750           0.248  
> 2023 05 18 00 00 38.2688020  0  6                     
G02  24304500.472       93469.764        2910.118           0.239  
G03  22337098.108      -11760.980        -484.084           0.255  
G04  23614975.578      -46264.130       -2127.670           0.244  
G05  22526539.126       46908.074        2038.638           0.255  
G06  20627415.715       -6872.126        -466.087           0.255  
G07  23404462.863      -10812.181       -1309.284           0.248  
> 2023 05 18 00 00 38.3688020  0  6                     
G02  24304425.707       93760.859        2910.512           0.239  
G03  22337110.276      -11809.460        -484.530           0.255  
G04  23615030.704      -46476.843       -2104.668           0.244  
G05  22526487.244       47111.942        2054.929           0.255  
G06  20627428.671       -6918.774        -466.349           0.255  
G07  23404496.199      -10943.170       -1305.853           0.248  
> 2023 05 18 00 00 38.4688020  0  6                     
G02  24304351.190       94051.944        2910.192           0.239  
G03  22337122.702      -11857.947        -485.207           0.255  
G04  23615085.335      -46689.536       -2126.703           0.244  
G05  22526435.059       47315.692        2036.355           0.255  
G06  20627441.003       -6965.435        -466.784           0.255  
G07  23404530.166      -11074.116       -1305.637           0.248  
> 2023 05 18 00 00 38.5688020  0  6                     
G02  24304276.666       94343.034        2910.874           0.239  
G03  22337134.996      -11906.427        -485.062           0.255  
G04  23615139.210      -46902.261       -2127.672           0.244  
G05  22526383.096       47519.510        2038.178           0.255  
G06  20627451.392       -7012.089        -466.411           0.255  
G07  23404563.898      -11205.130       -1309.936           0.248  
> 2023 05 18 00 00 38.6688020  0  6                     
G02  24304202.111       94634.133        2911.126           0.239  
G03  22337147.153      -11954.906        -485.616           0.255  
G04  23615195.211      -47114.983       -2128.367           0.244  
G05  22526330.849       47723.325        2038.988           0.255  
G06  20627464.243       -7058.752        -465.898           0.255  
G07  23404596.403      -11336.121       -1309.770           0.248  
> 2023 05 18 00 00 38.7688020  0  6                     
G02  24304128.360       94925.217        2910.760           0.239  
G03  22337159.289      -12003.399        -484.973           0.255  
G04  23615248.198      -47327.698       -2127.213           0.244  
G05  22526279.529       47927.116        2038.583           0.255  
G06  20627476.113       -7105.413        -466.400           0.255  
G07  23404630.027      -11467.113       -1309.967           0.248  
> 2023 05 18 00 00 38.8688020  0  6                     
G02  24304055.562       95216.300        2910.785           0.239  
G03  22337171.679      -12051.901        -484.586           0.255  
G04  23615302.299      -47540.420       -2127.752           0.244  
G05  22526227.929       48130.922        2037.885           0.255  
G06  20627487.942       -7152.081        -467.069           0.255  
G07  23404662.901      -11598.105       -1309.800           0.248  
> 2023 05 18 00 00 38.9688020  0  6                     
G02  24303981.973       95507.399        2911.715           0.239  
G03  22337184.259      -12100.395        -484.750           0.255  
G04  23615355.229      -47752.965       -2119.728           0.244  
G05  22526176.062       48334.721        2036.653           0.255  
G06  20627499.941       -7198.751        -466.994           0.255  
G07  23404696.068      -11729.097       -1309.793           0.248  
> 2023 05 18 00 00 39.0688020  0  6                     
G02  24303905.319       95798.487        2912.872           0.240  
G03  22337197.055      -12148.900        -484.546           0.255  
G04  23615410.300      -47965.877       -2128.521           0.244  
G05  22526124.122       48538.359        1996.751           0.255  
G06  20627511.533       -7245.420        -466.909           0.255  
G07  23404729.717      -11860.052       -1299.946           0.248  
> 2023 05 18 00 00 39.1688020  0  6                     
G02  24303831.674       96089.583        2911.732           0.239  
G03  22337209.360      -12197.413        -484.824           0.255  
G04  23615464.608      -48178.576       -2118.250           0.244  
G05  22526071.667       48742.325        2038.698           0.255  
G06  20627523.607       -7292.091        -466.588           0.255  
G07  23404763.670      -11991.097       -1310.153           0.248  
> 2023 05 18 00 00 39.2688020  0  6                     
G02  24303757.331       96380.674        2911.829           0.239  
G03  22337222.193      -12245.931        -485.462           0.255  
G04  23615517.902      -48391.322       -2126.754           0.244  
G05  22526019.978       48946.114        2038.414           0.255  
G06  20627535.522       -7338.776        -466.850           0.255  
G07  23404796.683      -12121.977       -1277.594           0.248  
> 2023 05 18 00 00 39.3688020  0  6                     
G02  24303684.956       96671.760        2911.710           0.239  
G03  22337234.931      -12294.436        -483.661           0.255  
G04  23615572.340      -48604.052       -2127.581           0.244  
G05  22525967.574       49149.909        2038.007           0.255  
G06  20627547.004       -7385.463        -467.039           0.255  
G07  23404829.623      -12253.109       -1309.723           0.248  
> 2023 05 18 00 00 39.4688020  0  6                     
G02  24303611.223       96962.843        2911.024           0.239  
G03  22337246.180      -12342.966        -485.235           0.255  
G04  23615626.366      -48816.781       -2128.653           0.244  
G05  22525915.865       49353.690        2036.082           0.255  
G06  20627558.728       -7432.146        -466.751           0.255  
G07  23404863.747      -12384.122       -1309.341           0.248  
> 2023 05 18 00 00 39.5688020  0  6                     
G02  24303536.997       97253.933        2910.766           0.239  
G03  22337258.380      -12391.491        -485.036           0.255  
G04  23615680.515      -49029.516       -2128.116           0.244  
G05  22525864.023       49557.490        2038.390           0.255  
G06  20627570.649       -7478.840        -466.916           0.255  
G07  23404897.553      -12515.137       -1310.049           0.248  
> 2023 05 18 00 00 39.6688020  0  6                     
G02  24303461.658       97545.009        2910.771           0.239  
G03  22337271.215      -12440.023        -485.286           0.255  
G04  23615735.528      -49242.247       -2127.707           0.244  
G05  22525811.948       49761.279        2038.646           0.255  
G06  20627583.655       -7525.531        -467.001           0.255  
G07  23404930.241      -12646.160       -1310.251           0.248  
> 2023 05 18 00 00 39.7688020  0  6                     
G02  24303387.490       97836.102        2911.099           0.239  
G03  22337282.268      -12488.562        -485.310           0.255  
G04  23615789.178      -49454.977       -2127.874           0.244  
G05  22525760.036       49965.052        2038.196           0.255  
G06  20627594.935       -7572.230        -467.287           0.255  
G07  23404964.177      -12777.177       -1310.278           0.248  
> 2023 05 18 00 00 39.8688020  0  6                     
G02  24303313.857       98127.186        2910.344           0.239  
G03  22337295.522      -12537.101        -484.742           0.255  
G04  23615843.453      -49667.701       -2127.352           0.244  
G05  22525708.277       50168.835        2037.876           0.255  
G06  20627607.098       -7618.933        -467.255           0.255  
G07  23404996.929      -12908.207       -1310.390           0.248  
> 2023 05 18 00 00 39.9688020  0  6                     
G02  24303238.377       98418.280        2911.204           0.239  
G03  22337307.173      -12585.651        -485.674           0.255  
G04  23615898.006      -49880.431       -2126.532           0.244  
G05  22525656.466       50372.607        2036.710           0.255  
G06  20627618.730       -7665.632        -466.913           0.255  
G07  23405030.439      -13039.225       -1310.369           0.248  
> 2023 05 18 00 00 40.0688020  0  6                     
G02  24303163.484       98709.365        2911.950           0.239  
G03  22337321.206      -12634.200        -486.119           0.255  
G04  23615952.910      -50093.179       -2127.278           0.244  
G05  22525604.566       50576.391        2037.922           0.255  
G06  20627630.824       -7712.346        -466.905           0.255  
G07  23405063.736      -13170.257       -1309.724           0.248  
> 2023 05 18 00 00 40.1688020  0  6                     
G02  24303088.904       99000.458        2910.920           0.239  
G03  22337333.227      -12682.755        -485.609           0.255  
G04  23616007.300      -50305.917       -2127.094           0.244  
G05  22525552.485       50780.163        2037.962           0.255  
G06  20627642.660       -7759.058        -467.092           0.255  
G07  23405097.269      -13301.149       -1269.793           0.248  
> 2023 05 18 00 00 40.2688020  0  6                     
G02  24303016.347       99291.544        2911.846           0.239  
G03  22337345.798      -12731.551        -515.164           0.255  
G04  23616061.385      -50518.653       -2127.389           0.244  
G05  22525500.620       50983.924        2037.161           0.255  
G06  20627654.697       -7805.770        -467.597           0.255  
G07  23405129.980      -13432.331       -1310.396           0.248  
> 2023 05 18 00 00 40.3688020  0  6                     
G02  24302941.965       99582.635        2910.888           0.239  
G03  22337357.837      -12779.878        -485.098           0.255  
G04  23616114.988      -50731.387       -2126.784           0.244  
G05  22525448.749       51187.692        2036.339           0.255  
G06  20627666.436       -7852.486        -467.505           0.255  
G07  23405163.392      -13563.357       -1309.991           0.248  
> 2023 05 18 00 00 40.4688020  0  6                     
G02  24302867.446       99873.721        2910.630           0.240  
G03  22337370.358      -12828.447        -485.062           0.255  
G04  23616168.345      -50944.126       -2127.152           0.244  
G05  22525396.766       51391.463        2038.157           0.255  
G06  20627678.237       -7899.208        -466.552           0.255  
G07  23405196.799      -13694.398       -1310.244           0.248  
> 2023 05 18 00 00 40.5688020  0  6                     
G02  24302794.505      100164.820        2910.730           0.239  
G03  22337382.751      -12877.019        -485.615           0.255  
G04  23616222.577      -51156.875       -2127.258           0.244  
G05  22525344.548       51595.234        2038.245           0.255  
G06  20627689.983       -7945.934        -467.732           0.255  
G07  23405230.454      -13825.449       -1309.965           0.248  
> 2023 05 18 00 00 40.6688020  0  6                     
G02  24302720.436      100455.899        2911.175           0.239  
G03  22337395.155      -12925.602        -486.114           0.255  
G04  23616277.387      -51369.615       -2128.096           0.244  
G05  22525292.963       51798.993        2037.869           0.255  
G06  20627701.554       -7992.664        -467.755           0.255  
G07  23405264.081      -13956.501       -1310.356           0.248  
> 2023 05 18 00 00 40.7688020  0  6                     
G02  24302645.635      100746.980        2910.078           0.239  
G03  22337407.473      -12974.184        -485.780           0.255  
G04  23616330.743      -51582.357       -2127.002           0.244  
G05  22525241.093       52002.748        2036.953           0.255  
G06  20627713.470       -8039.397        -468.242           0.255  
G07  23405297.616      -14087.430       -1306.561           0.248  
> 2023 05 18 00 00 40.8688020  0  6                     
G02  24302571.008      101038.083        2913.121           0.239  
G03  22337419.959      -13022.763        -485.693           0.255  
G04  23616385.414      -51795.098       -2128.555           0.244  
G05  22525188.893       52206.513        2037.205           0.255  
G06  20627726.107       -8086.131        -467.335           0.255  
G07  23405331.034      -14218.608       -1310.647           0.248  
> 2023 05 18 00 00 40.9688020  0  6                     
G02  24302496.154      101329.164        2911.351           0.239  
G03  22337432.860      -13071.362        -486.376           0.255  
G04  23616440.546      -52007.842       -2127.798           0.244  
G05  22525137.052       52410.278        2037.895           0.255  
G06  20627737.713       -8132.864        -466.260           0.255  
G07  23405364.169      -14349.663       -1311.359           0.248  
> 2023 05 18 00 00 41.0688020  0  6                     
G02  24302423.356      101620.240        2910.728           0.239  
G03  22337444.736      -13119.954        -486.840           0.255  
G04  23616494.070      -52220.587       -2127.444           0.244  
G05  22525085.268       52614.142        2103.560           0.255  
G06  20627750.650       -8179.608        -466.754           0.255  
G07  23405398.345      -14480.469       -1277.597           0.248  
> 2023 05 18 00 00 41.1688020  0  6                     
G02  24302348.031      101911.330        2910.749           0.239  
G03  22337457.680      -13168.554        -486.456           0.255  
G04  23616548.871      -52433.339       -2127.680           0.244  
G05  22525033.531       52817.779        2036.683           0.255  
G06  20627760.672       -8226.361        -467.010           0.255  
G07  23405431.585      -14611.781       -1311.153           0.248  
> 2023 05 18 00 00 41.2688020  0  6                     
G02  24302273.049      102202.428        2911.555           0.239  
G03  22337469.460      -13217.158        -486.397           0.255  
G04  23616604.192      -52646.097       -2128.357           0.244  
G05  22524980.910       53021.527        2037.328           0.255  
G06  20627772.898       -8273.109        -467.571           0.255  
G07  23405465.032      -14742.846       -1310.409           0.248  
> 2023 05 18 00 00 41.3688020  0  6                     
G02  24302199.107      102493.514        2911.575           0.239  
G03  22337481.802      -13265.764        -486.045           0.255  
G04  23616657.668      -52858.786       -2132.765           0.244  
G05  22524929.372       53225.283        2037.839           0.255  
G06  20627785.393       -8319.864        -468.408           0.255  
G07  23405497.632      -14873.918       -1310.734           0.248  
> 2023 05 18 00 00 41.4688020  0  6                     
G02  24302126.277      102784.595        2909.939           0.239  
G03  22337494.144      -13314.374        -485.810           0.255  
G04  23616711.142      -53071.616       -2086.100           0.244  
G05  22524877.441       53429.023        2037.733           0.255  
G06  20627797.821       -8366.615        -467.300           0.255  
G07  23405532.121      -15004.991       -1311.367           0.248  
> 2023 05 18 00 00 41.5688020  0  6                     
G02  24302052.190      103075.696        2911.300           0.239  
G03  22337506.532      -13362.934        -482.719           0.255  
G04  23616765.243      -53284.530       -2130.494           0.244  
G05  22524825.138       53632.316        1967.296           0.255  
G06  20627809.622       -8413.382        -467.653           0.255  
G07  23405564.555      -15136.062       -1310.930           0.248  
> 2023 05 18 00 00 41.6688020  0  6                     
G02  24301977.969      103366.790        2910.995           0.239  
G03  22337518.434      -13411.623        -486.022           0.255  
G04  23616819.104      -53497.094       -2127.002           0.244  
G05  22524773.654       53836.511        2037.425           0.255  
G06  20627821.591       -8460.140        -468.295           0.255  
G07  23405597.810      -15267.141       -1310.946           0.248  
> 2023 05 18 00 00 41.7688020  0  6                     
G02  24301904.304      103657.871        2910.566           0.239  
G03  22337530.933      -13460.249        -485.717           0.255  
G04  23616873.962      -53709.853       -2127.802           0.244  
G05  22524721.619       54040.587        2104.265           0.255  
G06  20627833.072       -8506.902        -467.974           0.255  
G07  23405631.148      -15398.223       -1310.635           0.248  
> 2023 05 18 00 00 41.8688020  0  6                     
G02  24301829.808      103948.944        2910.323           0.239  
G03  22337543.285      -13508.884        -486.187           0.255  
G04  23616927.866      -53922.605       -2127.460           0.244  
G05  22524669.869       54244.038        2065.583           0.255  
G06  20627845.082       -8553.673        -467.545           0.255  
G07  23405664.678      -15529.302       -1310.969           0.248  
> 2023 05 18 00 00 41.9688020  0  6                     
G02  24301755.326      104240.035        2910.633           0.239  
G03  22337555.526      -13557.509        -486.037           0.255  
G04  23616981.984      -54135.366       -2127.350           0.244  
G05  22524618.113       54447.715        2036.299           0.255  
G06  20627856.865       -8600.449        -467.866           0.255  
G07  23405697.804      -15660.386       -1311.126           0.248  
> 2023 05 18 00 00 42.0688020  0  6                     
G02  24301681.386      104531.130        2909.708           0.239  
G03  22337568.046      -13606.149        -485.709           0.255  
G04  23617036.896      -54348.128       -2127.409           0.244  
G05  22524566.047       54651.462        2038.512           0.255  
G06  20627868.994       -8647.228        -468.052           0.255  
G07  23405731.856      -15791.468       -1310.635           0.248  
> 2023 05 18 00 00 42.1688020  0  6                     
G02  24301606.258      104822.214        2910.761           0.239  
G03  22337580.739      -13654.802        -485.785           0.255  
G04  23617091.512      -54560.967       -2170.145           0.244  
G05  22524514.399       54855.546        2112.010           0.255  
G06  20627880.995       -8694.005        -468.030           0.255  
G07  23405765.188      -15922.348       -1300.020           0.248  
> 2023 05 18 00 00 42.2688020  0  6                     
G02  24301532.893      105113.250        2908.775           0.239  
G03  22337593.866      -13704.187        -533.872           0.255  
G04  23617144.940      -54773.633       -2127.978           0.244  
G05  22524462.404       55058.915        2037.202           0.255  
G06  20627892.591       -8740.787        -468.120           0.255  
G07  23405799.042      -16053.522       -1297.661           0.248  
> 2023 05 18 00 00 42.3688020  0  6                     
G02  24301459.183      105404.399        2911.466           0.239  
G03  22337606.010      -13752.123        -487.658           0.255  
G04  23617198.832      -54986.437       -2123.000           0.244  
G05  22524410.387       55262.650        2086.655           0.255  
G06  20627904.513       -8787.569        -467.149           0.255  
G07  23405832.389      -16184.810       -1327.302           0.248  
> 2023 05 18 00 00 42.4688020  0  6                     
G02  24301384.808      105695.489        2911.070           0.239  
G03  22337618.587      -13800.766        -486.989           0.255  
G04  23617253.189      -55199.166       -2127.706           0.244  
G05  22524358.393       55466.372        2037.750           0.255  
G06  20627916.165       -8834.366        -468.039           0.255  
G07  23405865.580      -16315.847       -1311.215           0.248  
> 2023 05 18 00 00 42.5688020  0  6                     
G02  24301310.541      105986.578        2911.259           0.239  
G03  22337630.819      -13849.429        -485.785           0.255  
G04  23617307.639      -55412.082       -2153.790           0.244  
G05  22524306.391       55670.089        2037.466           0.255  
G06  20627928.471       -8881.161        -468.223           0.255  
G07  23405898.579      -16447.058       -1325.306           0.248  
> 2023 05 18 00 00 42.6688020  0  6                     
G02  24301236.067      106277.662        2911.269           0.239  
G03  22337643.179      -13898.100        -486.306           0.255  
G04  23617361.737      -55624.677       -2126.620           0.244  
G05  22524254.404       55873.806        2036.741           0.255  
G06  20627940.734       -8927.957        -468.505           0.255  
G07  23405932.880      -16578.054       -1310.780           0.248  
> 2023 05 18 00 00 42.7688020  0  6                     
G02  24301162.476      106568.753        2911.348           0.239  
G03  22337655.042      -13946.774        -487.575           0.255  
G04  23617415.652      -55837.451       -2128.084           0.244  
G05  22524202.353       56077.525        2036.894           0.255  
G06  20627952.523       -8974.755        -467.727           0.255  
G07  23405966.260      -16709.168       -1311.419           0.248  
> 2023 05 18 00 00 42.8688020  0  6                     
G02  24301088.452      106859.844        2910.763           0.239  
G03  22337667.400      -13995.445        -487.496           0.255  
G04  23617470.815      -56050.214       -2127.365           0.244  
G05  22524150.410       56281.250        2037.900           0.255  
G06  20627964.253       -9021.560        -467.453           0.255  
G07  23405998.332      -16840.273       -1310.615           0.248  
> 2023 05 18 00 00 42.9688020  0  6                     
G02  24301014.392      107150.930        2910.558           0.239  
G03  22337679.860      -14044.121        -487.437           0.255  
G04  23617524.883      -56262.979       -2119.809           0.244  
G05  22524098.831       56485.089        2048.635           0.255  
G06  20627976.061       -9068.372        -467.905           0.255  
G07  23406032.346      -16971.390       -1310.937           0.248  
> 2023 05 18 00 00 43.0688020  0  6                     
G02  24300939.468      107442.020        2910.700           0.239  
G03  22337692.399      -14092.810        -487.064           0.255  
G04  23617578.891      -56475.756       -2127.311           0.244  
G05  22524046.919       56688.651        2036.294           0.255  
G06  20627988.089       -9115.182        -468.180           0.255  
G07  23406065.725      -17102.502       -1311.233           0.248  
> 2023 05 18 00 00 43.1688020  0  6                     
G02  24300865.623      107733.115        2911.936           0.239  
G03  22337704.602      -14141.504        -487.200           0.255  
G04  23617632.629      -56688.509       -2123.990           0.244  
G05  22523994.951       56892.372        2037.817           0.255  
G06  20628000.516       -9161.991        -467.956           0.255  
G07  23406099.142      -17233.637       -1301.318           0.248  
> 2023 05 18 00 00 43.2688020  0  6                     
G02  24300791.488      108024.203        2911.257           0.239  
G03  22337716.391      -14190.198        -488.011           0.255  
G04  23617686.298      -56901.285       -2127.486           0.244  
G05  22523942.946       57096.069        2037.332           0.255  
G06  20628012.566       -9208.812        -467.613           0.255  
G07  23406132.504      -17364.748       -1310.892           0.248  
> 2023 05 18 00 00 43.3688020  0  6                     
G02  24300716.959      108315.294        2911.132           0.239  
G03  22337728.960      -14238.891        -488.383           0.255  
G04  23617741.172      -57114.063       -2127.538           0.244  
G05  22523891.213       57299.776        2036.372           0.255  
G06  20628024.624       -9255.636        -467.594           0.255  
G07  23406166.083      -17495.877       -1311.351           0.248  
> 2023 05 18 00 00 43.4688020  0  6                     
G02  24300642.040      108606.385        2910.971           0.239  
G03  22337742.415      -14287.587        -487.499           0.255  
G04  23617796.065      -57326.836       -2127.532           0.244  
G05  22523839.136       57503.483        2037.213           0.255  
G06  20628036.048       -9302.468        -468.072           0.255  
G07  23406199.435      -17627.004       -1311.189           0.248  
> 2023 05 18 00 00 43.5688020  0  6                     
G02  24300566.821      108897.462        2909.486           0.239  
G03  22337755.098      -14336.297        -486.899           0.255  
G04  23617850.995      -57539.608       -2126.139           0.244  
G05  22523787.316       57707.184        2037.358           0.255  
G06  20628047.562       -9349.293        -468.638           0.255  
G07  23406232.988      -17758.138       -1311.743           0.248  
> 2023 05 18 00 00 43.6688020  0  6                     
G02  24300493.380      109188.551        2910.645           0.239  
G03  22337766.200      -14385.019        -487.284           0.255  
G04  23617904.118      -57752.379       -2127.317           0.244  
G05  22523735.629       57910.877        2036.612           0.255  
G06  20628060.187       -9396.125        -468.616           0.255  
G07  23406265.711      -17889.272       -1311.552           0.248  
> 2023 05 18 00 00 43.7688020  0  6                     
G02  24300419.239      109479.650        2910.728           0.239  
G03  22337778.349      -14433.738        -486.656           0.255  
G04  23617958.254      -57965.170       -2127.487           0.244  
G05  22523683.779       58114.571        2036.503           0.255  
G06  20628072.261       -9442.953        -468.743           0.255  
G07  23406300.123      -18020.415       -1311.618           0.248  
> 2023 05 18 00 00 43.8688020  0  6                     
G02  24300345.713      109770.740        2911.473           0.239  
G03  22337791.849      -14482.462        -487.590           0.255  
G04  23618011.636      -58177.946       -2128.197           0.244  
G05  22523631.518       58318.272        2037.825           0.255  
G06  20628083.029       -9489.793        -467.894           0.255  
G07  23406333.963      -18151.553       -1311.197           0.248  
> 2023 05 18 00 00 43.9688020  0  6                     
G02  24300272.520      110061.827        2911.263           0.239  
G03  22337804.351      -14531.190        -487.304           0.255  
G04  23618066.474      -58390.727       -2127.439           0.244  
G05  22523579.697       58521.956        2037.041           0.255  
G06  20628095.697       -9536.635        -468.365           0.255  
G07  23406365.275      -18282.703       -1311.411           0.248  
> 2023 05 18 00 00 44.0688020  0  6                     
G02  24300197.007      110352.899        2910.442           0.239  
G03  22337816.817      -14579.872        -485.126           0.255  
G04  23618121.839      -58603.297       -2109.154           0.244  
G05  22523527.787       58725.638        2035.887           0.255  
G06  20628106.869       -9583.480        -467.978           0.255  
G07  23406401.209      -18413.846       -1311.493           0.248  
> 2023 05 18 00 00 44.1688020  0  6                     
G02  24300123.228      110643.979        2910.020           0.239  
G03  22337829.149      -14628.655        -487.203           0.255  
G04  23618175.632      -58816.278       -2127.367           0.244  
G05  22523475.733       58929.340        2037.808           0.255  
G06  20628119.391       -9630.332        -468.756           0.255  
G07  23406433.146      -18544.995       -1311.486           0.248  
> 2023 05 18 00 00 44.2688020  0  6                     
G02  24300048.762      110935.084        2911.022           0.239  
G03  22337841.184      -14677.401        -487.345           0.255  
G04  23618228.997      -59029.068       -2128.216           0.244  
G05  22523423.956       59133.014        2037.023           0.255  
G06  20628131.979       -9677.181        -468.463           0.255  
G07  23406466.587      -18676.149       -1311.164           0.248  
> 2023 05 18 00 00 44.3688020  0  6                     
G02  24299974.696      111226.167        2910.049           0.239  
G03  22337853.501      -14726.139        -487.071           0.255  
G04  23618283.765      -59241.850       -2128.053           0.244  
G05  22523372.201       59336.686        2034.911           0.255  
G06  20628144.684       -9724.039        -468.574           0.255  
G07  23406499.166      -18807.306       -1311.063           0.248  
> 2023 05 18 00 00 44.4688020  0  6                     
G02  24299900.957      111517.254        2910.047           0.239  
G03  22337865.474      -14774.897        -488.240           0.255  
G04  23618338.527      -59454.637       -2127.805           0.244  
G05  22523320.311       59540.387        2038.009           0.255  
G06  20628154.962       -9770.892        -467.854           0.255  
G07  23406533.315      -18938.473       -1312.421           0.248  
> 2023 05 18 00 00 44.5688020  0  6                     
G02  24299827.017      111808.340        2910.001           0.240  
G03  22337877.612      -14823.254        -470.400           0.255  
G04  23618392.111      -59667.203       -2092.868           0.244  
G05  22523268.380       59744.055        2036.939           0.255  
G06  20628167.523       -9817.765        -468.675           0.255  
G07  23406566.883      -19069.688       -1315.943           0.248  
> 2023 05 18 00 00 44.6688020  0  6                     
G02  24299752.784      112099.437        2910.323           0.239  
G03  22337891.111      -14872.397        -489.050           0.255  
G04  23618446.148      -59880.209       -2128.096           0.244  
G05  22523216.704       59947.729        2035.751           0.255  
G06  20628178.750       -9864.634        -468.145           0.255  
G07  23406600.556      -19200.791       -1310.967           0.248  
> 2023 05 18 00 00 44.7688020  0  6                     
G02  24299678.805      112390.530        2910.872           0.239  
G03  22337903.902      -14920.999        -471.773           0.255  
G04  23618500.472      -60093.157       -2190.801           0.244  
G05  22523164.477       60150.655        1926.205           0.255  
G06  20628190.803       -9911.502        -468.500           0.255  
G07  23406634.122      -19332.131       -1301.259           0.248  
> 2023 05 18 00 00 44.8688020  0  6                     
G02  24299604.304      112681.601        2911.500           0.239  
G03  22337916.096      -14969.927        -487.768           0.255  
G04  23618554.714      -60305.774       -2127.620           0.244  
G05  22523112.283       60355.083        2037.279           0.255  
G06  20628202.499       -9958.372        -468.492           0.255  
G07  23406667.994      -19463.131       -1311.216           0.248  
> 2023 05 18 00 00 44.9688020  0  6                     
G02  24299529.809      112972.700        2910.561           0.239  
G03  22337928.250      -15018.821        -480.715           0.255  
G04  23618608.914      -60518.577       -2128.381           0.244  
G05  22523060.835       60558.747        2035.988           0.255  
G06  20628214.973      -10005.250        -469.606           0.255  
G07  23406700.822      -19594.297       -1311.450           0.248  
> 2023 05 18 00 00 45.0688020  0  6                     
G02  24299457.103      113263.785        2911.201           0.239  
G03  22337941.195      -15067.476        -486.655           0.255  
G04  23618662.760      -60731.363       -2128.002           0.244  
G05  22523008.942       60762.427        2037.777           0.255  
G06  20628227.012      -10052.134        -469.513           0.255  
G07  23406734.303      -19725.469       -1311.240           0.248  
> 2023 05 18 00 00 45.1688020  0  6                     
G02  24299382.661      113554.859        2910.259           0.239  
G03  22337953.689      -15116.261        -487.233           0.255  
G04  23618716.555      -60944.151       -2127.776           0.244  
G05  22522956.751       60966.082        2037.278           0.255  
G06  20628238.962      -10099.006        -468.750           0.255  
G07  23406767.827      -19856.650       -1311.841           0.248  
> 2023 05 18 00 00 45.2688020  0  6                     
G02  24299306.733      113845.946        2910.037           0.239  
G03  22337965.988      -15165.045        -488.172           0.255  
G04  23618771.500      -61156.942       -2127.266           0.244  
G05  22522905.028       61169.741        2035.673           0.255  
G06  20628251.180      -10145.900        -468.339           0.255  
G07  23406801.301      -19987.830       -1311.570           0.248  
> 2023 05 18 00 00 45.3688020  0  6                     
G02  24299233.357      114137.029        2910.998           0.239  
G03  22337977.996      -15214.017        -496.829           0.255  
G04  23618827.045      -61369.737       -2127.479           0.244  
G05  22522853.110       61373.779        2071.679           0.255  
G06  20628263.051      -10192.781        -468.314           0.255  
G07  23406833.241      -20119.116       -1348.038           0.248  
> 2023 05 18 00 00 45.4688020  0  6                     
G02  24299159.670      114428.115        2911.560           0.239  
G03  22337990.678      -15262.624        -487.405           0.255  
G04  23618880.082      -61582.533       -2128.129           0.244  
G05  22522801.221       61577.058        2036.927           0.255  
G06  20628274.543      -10239.680        -468.640           0.255  
G07  23406868.379      -20250.205       -1312.190           0.248  
> 2023 05 18 00 00 45.5688020  0  6                     
G02  24299085.215      114719.183        2910.191           0.240  
G03  22338003.846      -15311.423        -487.876           0.255  
G04  23618933.996      -61795.324       -2127.099           0.244  
G05  22522749.294       61780.714        2035.587           0.255  
G06  20628286.570      -10286.585        -468.746           0.255  
G07  23406900.377      -20381.397       -1312.412           0.248  
> 2023 05 18 00 00 45.6688020  0  6                     
G02  24299011.172      115010.270        2911.699           0.239  
G03  22338016.292      -15360.230        -487.593           0.255  
G04  23618988.125      -62008.174       -2136.720           0.244  
G05  22522697.137       61984.383        2037.615           0.255  
G06  20628298.505      -10333.483        -468.954           0.255  
G07  23406933.782      -20512.751       -1334.179           0.248  
> 2023 05 18 00 00 45.7688020  0  6                     
G02  24298936.892      115301.345        2909.917           0.239  
G03  22338026.965      -15409.027        -488.187           0.255  
G04  23619043.303      -62220.919       -2127.479           0.244  
G05  22522645.713       62188.025        2037.003           0.255  
G06  20628310.388      -10380.391        -468.820           0.255  
G07  23406967.638      -20643.788       -1312.012           0.248  
> 2023 05 18 00 00 45.8688020  0  6                     
G02  24298861.810      115592.433        2910.510           0.239  
G03  22338039.719      -15457.848        -488.779           0.255  
G04  23619097.410      -62433.723       -2128.238           0.244  
G05  22522593.711       62391.662        2035.118           0.255  
G06  20628322.669      -10427.296        -469.366           0.255  
G07  23407001.711      -20774.982       -1311.227           0.248  
> 2023 05 18 00 00 45.9688020  0  6                     
G02  24298787.934      115883.523        2911.280           0.239  
G03  22338052.705      -15506.663        -488.826           0.255  
G04  23619151.598      -62646.524       -2128.292           0.244  
G05  22522541.687       62595.322        2037.112           0.255  
G06  20628334.508      -10474.204        -468.893           0.255  
G07  23407036.031      -20906.189       -1311.737           0.248  
> 2023 05 18 00 00 46.0688020  0  6                     
G02  24298713.938      116174.603        2911.212           0.239  
G03  22338064.011      -15555.491        -488.557           0.255  
G04  23619205.938      -62859.316       -2127.433           0.244  
G05  22522489.787       62798.959        2036.154           0.255  
G06  20628347.365      -10521.120        -469.325           0.255  
G07  23407069.046      -21037.398       -1312.095           0.248  
> 2023 05 18 00 00 46.1688020  0  6                     
G02  24298640.201      116465.689        2910.847           0.239  
G03  22338077.393      -15604.318        -488.831           0.255  
G04  23619260.513      -63072.125       -2127.836           0.244  
G05  22522438.018       63002.600        2035.445           0.255  
G06  20628357.676      -10568.033        -468.633           0.255  
G07  23407102.253      -21168.606       -1312.737           0.248  
> 2023 05 18 00 00 46.2688020  0  6                     
G02  24298565.876      116756.781        2911.265           0.239  
G03  22338089.330      -15653.142        -488.235           0.255  
G04  23619313.963      -63284.517       -2095.941           0.244  
G05  22522385.743       63206.251        2037.080           0.255  
G06  20628370.485      -10614.963        -469.203           0.255  
G07  23407136.097      -21299.817       -1311.843           0.248  
> 2023 05 18 00 00 46.3688020  0  6                     
G02  24298491.007      117047.854        2912.056           0.239  
G03  22338102.725      -15701.972        -488.633           0.255  
G04  23619367.721      -63497.731       -2129.235           0.244  
G05  22522334.208       63409.879        2036.088           0.255  
G06  20628382.257      -10661.890        -469.033           0.255  
G07  23407169.568      -21431.028       -1311.381           0.248  
> 2023 05 18 00 00 46.4688020  0  6                     
G02  24298416.659      117338.937        2911.229           0.239  
G03  22338115.388      -15750.813        -487.848           0.255  
G04  23619422.199      -63710.538       -2128.411           0.244  
G05  22522282.107       63613.519        2036.006           0.255  
G06  20628394.550      -10708.818        -469.493           0.255  
G07  23407202.545      -21562.249       -1312.300           0.248  
> 2023 05 18 00 00 46.5688020  0  6                     
G02  24298342.926      117630.017        2911.239           0.239  
G03  22338126.957      -15799.670        -488.934           0.255  
G04  23619477.147      -63923.343       -2128.665           0.244  
G05  22522230.313       63817.158        2036.993           0.255  
G06  20628406.507      -10755.745        -468.957           0.255  
G07  23407236.039      -21693.476       -1312.647           0.248  
> 2023 05 18 00 00 46.6688020  0  6                     
G02  24298270.017      117921.095        2910.579           0.239  
G03  22338140.031      -15848.517        -488.585           0.255  
G04  23619531.432      -64136.154       -2127.869           0.244  
G05  22522178.626       64020.784        2035.842           0.255  
G06  20628418.183      -10802.683        -469.431           0.255  
G07  23407268.644      -21824.700       -1312.143           0.248  
> 2023 05 18 00 00 46.7688020  0  6                     
G02  24298196.130      118212.184        2910.705           0.239  
G03  22338152.020      -15897.372        -488.744           0.255  
G04  23619585.241      -64348.966       -2127.467           0.244  
G05  22522126.491       64224.422        2036.975           0.255  
G06  20628430.101      -10849.618        -469.536           0.255  
G07  23407301.646      -21955.923       -1312.397           0.248  
> 2023 05 18 00 00 46.8688020  0  6                     
G02  24298119.541      118503.263        2910.744           0.239  
G03  22338164.044      -15946.238        -488.339           0.255  
G04  23619639.222      -64561.779       -2128.575           0.244  
G05  22522074.892       64428.041        2036.668           0.255  
G06  20628442.619      -10896.556        -469.592           0.255  
G07  23407335.283      -22087.157       -1313.074           0.248  
> 2023 05 18 00 00 46.9688020  0  6                     
G02  24298046.035      118794.349        2910.295           0.239  
G03  22338177.387      -15995.100        -489.014           0.255  
G04  23619693.334      -64774.591       -2128.666           0.244  
G05  22522022.988       64631.658        2034.900           0.255  
G06  20628454.335      -10943.494        -469.406           0.255  
G07  23407369.236      -22218.380       -1311.769           0.248  
> 2023 05 18 00 00 47.0688020  0  6                     
G02  24297971.910      119085.432        2910.199           0.239  
G03  22338189.904      -16043.974        -490.787           0.255  
G04  23619747.644      -64987.403       -2128.291           0.244  
G05  22521970.854       64835.300        2036.789           0.255  
G06  20628465.883      -10990.438        -468.285           0.255  
G07  23407402.976      -22349.623       -1312.055           0.248  
> 2023 05 18 00 00 47.1688020  0  6                     
G02  24297898.560      119376.515        2910.318           0.239  
G03  22338202.272      -16092.828        -489.748           0.255  
G04  23619801.958      -65200.215       -2128.150           0.244  
G05  22521919.194       65038.913        2036.168           0.255  
G06  20628478.135      -11037.400        -468.902           0.255  
G07  23407436.009      -22480.866       -1313.458           0.248  
> 2023 05 18 00 00 47.2688020  0  6                     
G02  24297824.211      119667.603        2910.740           0.239  
G03  22338214.456      -16141.697        -488.685           0.255  
G04  23619855.741      -65413.027       -2129.020           0.244  
G05  22521867.054       65242.518        2035.853           0.255  
G06  20628490.041      -11084.361        -469.544           0.255  
G07  23407470.056      -22612.105       -1312.401           0.248  
> 2023 05 18 00 00 47.3688020  0  6                     
G02  24297749.539      119958.690        2910.925           0.239  
G03  22338227.895      -16190.580        -489.039           0.255  
G04  23619911.535      -65625.930       -2134.361           0.244  
G05  22521814.949       65446.147        2036.556           0.255  
G06  20628501.364      -11131.322        -469.666           0.255  
G07  23407503.233      -22743.345       -1312.431           0.248  
> 2023 05 18 00 00 47.4688020  0  6                     
G02  24297675.923      120249.774        2911.467           0.239  
G03  22338240.103      -16239.465        -488.595           0.255  
G04  23619965.120      -65838.813       -2133.269           0.244  
G05  22521763.348       65649.755        2035.981           0.255  
G06  20628513.949      -11178.275        -469.693           0.255  
G07  23407537.227      -22874.446       -1306.967           0.248  
> 2023 05 18 00 00 47.5688020  0  6                     
G02  24297602.397      120540.847        2910.064           0.239  
G03  22338252.245      -16288.362        -489.302           0.255  
G04  23620018.634      -66051.485       -2127.694           0.244  
G05  22521711.320       65853.379        2036.849           0.255  
G06  20628526.926      -11225.239        -469.233           0.255  
G07  23407570.400      -23005.842       -1312.703           0.248  
> 2023 05 18 00 00 47.6688020  0  6                     
G02  24297527.625      120831.935        2911.381           0.239  
G03  22338264.532      -16337.249        -489.391           0.255  
G04  23620073.270      -66264.297       -2128.580           0.244  
G05  22521659.341       66056.976        2036.519           0.255  
G06  20628538.020      -11272.212        -469.870           0.255  
G07  23407603.590      -23137.081       -1311.607           0.248  
> 2023 05 18 00 00 47.7688020  0  6                     
G02  24297452.866      121122.999        2910.765           0.239  
G03  22338277.038      -16386.138        -488.638           0.255  
G04  23620127.355      -66477.119       -2128.251           0.244  
G05  22521607.539       66260.584        2035.554           0.255  
G06  20628550.093      -11319.190        -470.264           0.255  
G07  23407637.611      -23268.354       -1313.133           0.248  
> 2023 05 18 00 00 47.8688020  0  6                     
G02  24297380.417      121414.084        2910.750           0.239  
G03  22338289.662      -16435.041        -488.858           0.255  
G04  23620180.310      -66689.945       -2128.142           0.244  
G05  22521556.054       66464.196        2036.495           0.255  
G06  20628562.345      -11366.170        -470.099           0.255  
G07  23407669.815      -23399.608       -1312.524           0.248  
> 2023 05 18 00 00 47.9688020  0  6                     
G02  24297305.883      121705.165        2909.973           0.239  
G03  22338301.331      -16483.947        -488.747           0.255  
G04  23620234.747      -66902.768       -2128.228           0.244  
G05  22521503.453       66667.789        2035.164           0.255  
G06  20628574.878      -11413.145        -469.902           0.255  
G07  23407703.809      -23530.866       -1312.471           0.248  
> 2023 05 18 00 00 48.0688020  0  6                     
G02  24297230.328      121996.259        2910.191           0.239  
G03  22338314.517      -16532.866        -489.402           0.255  
G04  23620289.126      -67115.588       -2127.676           0.244  
G05  22521451.738       66871.401        2037.184           0.255  
G06  20628586.230      -11460.132        -469.298           0.255  
G07  23407737.070      -23662.136       -1313.347           0.248  
> 2023 05 18 00 00 48.1688020  0  6                     
G02  24297155.199      122287.339        2910.562           0.239  
G03  22338326.631      -16581.780        -488.884           0.255  
G04  23620344.688      -67328.417       -2128.350           0.244  
G05  22521399.942       67074.711        2016.409           0.255  
G06  20628597.722      -11507.114        -470.261           0.255  
G07  23407770.369      -23793.348       -1304.179           0.248  
> 2023 05 18 00 00 48.2688020  0  6                     
G02  24297082.138      122578.420        2910.201           0.239  
G03  22338339.213      -16630.939        -551.927           0.255  
G04  23620398.281      -67540.956       -2100.032           0.244  
G05  22521348.390       67278.585        2035.348           0.255  
G06  20628609.911      -11554.097        -470.255           0.255  
G07  23407804.240      -23924.818       -1314.030           0.248  
> 2023 05 18 00 00 48.3688020  0  6                     
G02  24297007.714      122869.493        2911.169           0.239  
G03  22338351.788      -16679.638        -490.135           0.255  
G04  23620453.337      -67754.059       -2128.567           0.244  
G05  22521296.461       67482.188        2036.350           0.255  
G06  20628621.627      -11601.089        -468.952           0.255  
G07  23407837.788      -24055.949       -1313.115           0.248  
> 2023 05 18 00 00 48.4688020  0  6                     
G02  24296933.850      123160.580        2911.823           0.239  
G03  22338364.150      -16728.558        -489.408           0.255  
G04  23620507.017      -67966.892       -2128.673           0.244  
G05  22521244.580       67685.782        2035.449           0.255  
G06  20628633.646      -11648.093        -470.065           0.255  
G07  23407871.510      -24187.214       -1312.139           0.248  
> 2023 05 18 00 00 48.5688020  0  6                     
G02  24296860.222      123451.766        2943.134           0.239  
G03  22338376.796      -16777.487        -488.706           0.255  
G04  23620561.190      -68179.582       -2115.065           0.244  
G05  22521192.583       67889.376        2036.472           0.255  
G06  20628645.317      -11695.099        -469.848           0.255  
G07  23407904.509      -24318.496       -1312.836           0.248  
> 2023 05 18 00 00 48.6688020  0  6                     
G02  24296785.373      123742.744        2911.202           0.239  
G03  22338389.328      -16826.426        -487.687           0.255  
G04  23620616.436      -68392.537       -2127.407           0.244  
G05  22521140.392       68092.957        2036.427           0.255  
G06  20628657.644      -11742.098        -470.720           0.255  
G07  23407938.334      -24449.778       -1313.154           0.248  
> 2023 05 18 00 00 48.7688020  0  6                     
G02  24296712.019      124033.828        2910.926           0.239  
G03  22338401.060      -16875.835        -535.050           0.255  
G04  23620669.947      -68605.040       -2080.210           0.244  
G05  22521088.689       68296.027        1950.808           0.255  
G06  20628669.373      -11789.113        -470.342           0.255  
G07  23407971.460      -24580.831       -1288.460           0.248  
> 2023 05 18 00 00 48.8688020  0  6                     
G02  24296637.240      124324.907        2910.691           0.239  
G03  22338413.978      -16924.338        -489.354           0.255  
G04  23620723.968      -68818.215       -2128.245           0.244  
G05  22521037.345       68500.125        2036.468           0.255  
G06  20628681.285      -11836.116        -470.944           0.255  
G07  23408005.088      -24712.348       -1312.779           0.248  
> 2023 05 18 00 00 48.9688020  0  6                     
G02  24296562.957      124615.988        2911.138           0.239  
G03  22338425.893      -16973.278        -489.379           0.255  
G04  23620778.223      -69031.310       -2148.499           0.244  
G05  22520985.364       68703.701        2034.755           0.255  
G06  20628693.620      -11883.134        -469.432           0.255  
G07  23408038.809      -24843.643       -1312.524           0.248  
> 2023 05 18 00 00 49.0688020  0  6                     
G02  24296488.567      124907.072        2910.200           0.240  
G03  22338439.649      -17022.230        -488.303           0.255  
G04  23620831.714      -69243.870       -2126.731           0.244  
G05  22520933.748       68907.290        2036.640           0.255  
G06  20628705.785      -11930.148        -470.454           0.255  
G07  23408071.272      -24974.938       -1312.700           0.248  
> 2023 05 18 00 00 49.1688020  0  6                     
G02  24296415.053      125198.157        2910.793           0.239  
G03  22338450.929      -17071.188        -489.219           0.255  
G04  23620886.653      -69456.722       -2128.383           0.244  
G05  22520881.393       69110.855        2035.053           0.255  
G06  20628717.539      -11977.172        -469.460           0.255  
G07  23408105.595      -25106.234       -1312.608           0.248  
> 2023 05 18 00 00 49.2688020  0  6                     
G02  24296341.410      125489.242        2911.314           0.239  
G03  22338463.761      -17120.157        -488.645           0.255  
G04  23620940.437      -69669.554       -2128.350           0.244  
G05  22520829.724       69314.441        2036.464           0.255  
G06  20628729.567      -12024.193        -470.522           0.255  
G07  23408138.697      -25237.542       -1313.431           0.248  
> 2023 05 18 00 00 49.3688020  0  6                     
G02  24296266.159      125780.319        2911.963           0.239  
G03  22338476.001      -17169.119        -487.135           0.255  
G04  23620994.725      -69882.397       -2128.970           0.244  
G05  22520777.923       69517.796        2022.326           0.255  
G06  20628741.356      -12071.235        -471.543           0.255  
G07  23408172.352      -25368.856       -1303.371           0.248  
> 2023 05 18 00 00 49.4688020  0  6                     
G02  24296191.681      126071.401        2911.277           0.239  
G03  22338488.566      -17218.104        -487.336           0.255  
G04  23621049.108      -70095.224       -2127.983           0.244  
G05  22520726.082       69721.575        2035.173           0.255  
G06  20628753.049      -12118.261        -471.718           0.255  
G07  23408206.043      -25500.057       -1298.538           0.248  
> 2023 05 18 00 00 49.5688020  0  6                     
G02  24296118.433      126362.478        2910.490           0.239  
G03  22338501.190      -17267.086        -488.337           0.255  
G04  23621103.477      -70308.070       -2128.068           0.244  
G05  22520673.846       69925.149        2036.094           0.255  
G06  20628764.709      -12165.292        -471.058           0.255  
G07  23408239.481      -25631.459       -1313.366           0.248  
> 2023 05 18 00 00 49.6688020  0  6                     
G02  24296044.236      126653.564        2912.055           0.239  
G03  22338513.620      -17316.103        -486.267           0.255  
G04  23621157.656      -70520.915       -2128.257           0.244  
G05  22520621.926       70128.512        1984.859           0.255  
G06  20628777.411      -12212.328        -470.679           0.255  
G07  23408272.765      -25762.772       -1313.094           0.248  
> 2023 05 18 00 00 49.7688020  0  6                     
G02  24295969.645      126944.647        2910.894           0.239  
G03  22338526.220      -17365.049        -489.471           0.255  
G04  23621212.577      -70733.756       -2128.745           0.244  
G05  22520569.951       70332.476        2087.784           0.255  
G06  20628789.314      -12259.373        -470.281           0.255  
G07  23408305.841      -25894.087       -1313.301           0.248  
> 2023 05 18 00 00 49.8688020  0  6                     
G02  24295896.038      127235.727        2910.636           0.239  
G03  22338537.519      -17413.553        -399.557           0.255  
G04  23621266.373      -70946.516       -2110.827           0.244  
G05  22520518.178       70535.839        2035.376           0.255  
G06  20628802.031      -12306.424        -470.346           0.255  
G07  23408339.385      -26025.341       -1301.577           0.248  
> 2023 05 18 00 00 49.9688020  0  6                     
G02  24295821.914      127526.801        2910.322           0.239  
G03  22338550.832      -17463.023        -488.541           0.255  
G04  23621321.048      -71159.448       -2128.521           0.244  
G05  22520466.282       70739.404        2036.440           0.255  
G06  20628813.796      -12353.478        -471.295           0.255  
G07  23408372.760      -26156.718       -1313.189           0.248  
> 2023 05 18 00 00 50.0688020  0  6                     
G02  24295748.177      127817.870        2909.858           0.239  
G03  22338564.201      -17512.024        -488.203           0.255  
G04  23621374.123      -71372.288       -2128.612           0.244  
G05  22520414.123       70942.956        2035.765           0.255  
G06  20628825.855      -12400.529        -471.709           0.255  
G07  23408406.512      -26288.043       -1313.362           0.248  
> 2023 05 18 00 00 50.1688020  0  6                     
G02  24295673.024      128108.966        2910.844           0.239  
G03  22338576.071      -17561.043        -488.845           0.255  
G04  23621428.750      -71585.133       -2128.392           0.244  
G05  22520362.481       71146.517        2035.296           0.255  
G06  20628837.466      -12447.581        -471.354           0.255  
G07  23408440.070      -26419.368       -1313.318           0.248  
> 2023 05 18 00 00 50.2688020  0  6                     
G02  24295598.908      128400.044        2910.251           0.239  
G03  22338588.923      -17610.064        -490.060           0.255  
G04  23621482.812      -71798.229       -2152.653           0.244  
G05  22520310.408       71350.068        2035.510           0.255  
G06  20628849.557      -12494.632        -470.075           0.255  
G07  23408473.467      -26550.694       -1313.099           0.248  
> 2023 05 18 00 00 50.3688020  0  6                     
G02  24295524.227      128691.133        2910.349           0.239  
G03  22338601.549      -17659.086        -491.024           0.255  
G04  23621537.271      -72011.022       -2109.003           0.244  
G05  22520259.124       71553.807        2031.504           0.255  
G06  20628861.375      -12541.693        -470.033           0.255  
G07  23408506.943      -26682.024       -1313.275           0.248  
> 2023 05 18 00 00 50.4688020  0  6                     
G02  24295449.726      128982.207        2910.138           0.239  
G03  22338614.152      -17708.103        -492.285           0.255  
G04  23621592.034      -72223.600       -2104.762           0.244  
G05  22520207.029       71757.172        2036.078           0.255  
G06  20628873.440      -12588.761        -469.566           0.255  
G07  23408540.501      -26813.357       -1313.223           0.248  
> 2023 05 18 00 00 50.5688020  0  6                     
G02  24295376.701      129273.303        2910.592           0.239  
G03  22338626.576      -17757.116        -491.864           0.255  
G04  23621646.641      -72436.538       -2128.322           0.244  
G05  22520155.303       71960.707        2034.612           0.255  
G06  20628885.090      -12635.837        -470.500           0.255  
G07  23408573.696      -26944.696       -1313.651           0.248  
> 2023 05 18 00 00 50.6688020  0  6                     
G02  24295302.369      129564.385        2911.109           0.239  
G03  22338638.932      -17806.141        -491.612           0.255  
G04  23621700.880      -72649.391       -2127.306           0.244  
G05  22520103.091       72164.271        2035.994           0.255  
G06  20628897.227      -12682.909        -469.998           0.255  
G07  23408607.304      -27076.040       -1313.484           0.248  
> 2023 05 18 00 00 50.7688020  0  6                     
G02  24295228.184      129855.458        2911.638           0.239  
G03  22338651.090      -17855.180        -490.241           0.255  
G04  23621754.599      -72862.245       -2128.845           0.244  
G05  22520051.326       72367.794        2035.027           0.255  
G06  20628909.343      -12729.984        -470.928           0.255  
G07  23408640.781      -27207.378       -1313.201           0.248  
> 2023 05 18 00 00 50.8688020  0  6                     
G02  24295153.151      130146.529        2910.557           0.239  
G03  22338664.561      -17904.222        -490.451           0.255  
G04  23621809.009      -73075.094       -2127.755           0.244  
G05  22519999.363       72571.345        2035.780           0.255  
G06  20628921.258      -12777.063        -471.265           0.255  
G07  23408674.194      -27338.727       -1313.415           0.248  
> 2023 05 18 00 00 50.9688020  0  6                     
G02  24295079.821      130437.620        2911.229           0.239  
G03  22338676.874      -17953.273        -490.764           0.255  
G04  23621862.588      -73287.948       -2128.150           0.244  
G05  22519947.455       72774.879        2035.238           0.255  
G06  20628933.149      -12824.138        -470.760           0.255  
G07  23408707.849      -27470.086       -1318.031           0.248  
> 2023 05 18 00 00 51.0688020  0  6                     
G02  24295006.424      130728.700        2910.417           0.239  
G03  22338689.565      -18002.323        -491.225           0.255  
G04  23621916.858      -73500.807       -2128.950           0.244  
G05  22519895.877       72978.418        2035.561           0.255  
G06  20628945.290      -12871.225        -470.649           0.255  
G07  23408741.533      -27601.428       -1313.531           0.248  
> 2023 05 18 00 00 51.1688020  0  6                     
G02  24294931.873      131020.009        2906.047           0.239  
G03  22338701.410      -18051.388        -492.192           0.255  
G04  23621971.234      -73713.868       -2156.785           0.244  
G05  22519844.020       73182.390        2136.742           0.255  
G06  20628957.145      -12918.304        -469.792           0.255  
G07  23408774.931      -27732.802       -1334.964           0.248  
> 2023 05 18 00 00 51.2688020  0  6                     
G02  24294857.183      131310.871        2910.502           0.239  
G03  22338713.998      -18100.445        -492.593           0.255  
G04  23622025.662      -73926.720       -2148.510           0.244  
G05  22519792.162       73385.472        2034.923           0.255  
G06  20628969.408      -12965.402        -469.917           0.255  
G07  23408808.228      -27864.145       -1313.945           0.248  
> 2023 05 18 00 00 51.3688020  0  6                     
G02  24294782.520      131601.957        2911.525           0.239  
G03  22338726.369      -18149.492        -491.768           0.255  
G04  23622079.921      -74139.617       -2161.015           0.244  
G05  22519740.170       73588.998        2035.399           0.255  
G06  20628981.322      -13012.503        -469.999           0.255  
G07  23408841.807      -27995.504       -1313.477           0.248  
> 2023 05 18 00 00 51.4688020  0  6                     
G02  24294708.651      131893.037        2911.247           0.239  
G03  22338738.684      -18198.553        -491.126           0.255  
G04  23622134.049      -74352.237       -2128.417           0.244  
G05  22519688.440       73792.529        2034.649           0.255  
G06  20628993.320      -13059.610        -471.112           0.255  
G07  23408875.341      -28126.864       -1313.372           0.248  
> 2023 05 18 00 00 51.5688020  0  6                     
G02  24294635.679      132184.121        2911.510           0.239  
G03  22338750.772      -18247.623        -490.092           0.255  
G04  23622187.569      -74565.113       -2128.941           0.244  
G05  22519636.576       73996.051        2035.630           0.255  
G06  20629005.646      -13106.714        -471.534           0.255  
G07  23408908.218      -28258.232       -1313.891           0.248  
> 2023 05 18 00 00 51.6688020  0  6                     
G02  24294559.943      132475.209        2910.838           0.239  
G03  22338763.890      -18296.687        -488.419           0.255  
G04  23622242.325      -74777.971       -2128.667           0.244  
G05  22519584.486       74199.574        2034.454           0.255  
G06  20629017.512      -13153.823        -472.440           0.255  
G07  23408942.217      -28389.606       -1313.298           0.248  
> 2023 05 18 00 00 51.7688020  0  6                     
G02  24294485.910      132765.985        2911.630           0.239  
G03  22338776.617      -18345.741        -393.384           0.255  
G04  23622297.307      -74990.699       -2103.925           0.244  
G05  22519532.764       74403.687        2102.379           0.255  
G06  20629029.381      -13200.931        -472.643           0.255  
G07  23408975.604      -28520.977       -1314.215           0.248  
> 2023 05 18 00 00 51.8688020  0  6                     
G02  24294411.954      133057.369        2911.597           0.239  
G03  22338788.878      -18394.862        -488.633           0.255  
G04  23622351.247      -75203.692       -2128.515           0.244  
G05  22519481.156       74606.610        2034.287           0.255  
G06  20629041.425      -13248.042        -472.204           0.255  
G07  23409009.184      -28652.358       -1313.831           0.248  
> 2023 05 18 00 00 51.9688020  0  6                     
G02  24294337.669      133348.446        2910.656           0.239  
G03  22338801.369      -18443.781        -445.382           0.255  
G04  23622405.515      -75416.712       -2155.094           0.244  
G05  22519429.058       74810.694        2081.255           0.255  
G06  20629053.251      -13295.161        -471.797           0.255  
G07  23409042.673      -28783.855       -1320.812           0.248  
> 2023 05 18 00 00 52.0688020  0  6                     
G02  24294263.696      133639.534        2911.127           0.239  
G03  22338813.854      -18493.042        -490.555           0.255  
G04  23622459.764      -75629.427       -2128.836           0.244  
G05  22519377.425       75013.639        2033.926           0.255  
G06  20629065.407      -13342.280        -471.001           0.255  
G07  23409076.070      -28915.119       -1313.636           0.248  
> 2023 05 18 00 00 52.1688020  0  6                     
G02  24294189.699      133930.622        2910.338           0.239  
G03  22338826.373      -18542.136        -491.115           0.255  
G04  23622513.667      -75842.292       -2128.760           0.244  
G05  22519325.357       75217.159        2036.018           0.255  
G06  20629077.426      -13389.413        -471.694           0.255  
G07  23409109.791      -29046.502       -1313.859           0.248  
> 2023 05 18 00 00 52.2688020  0  6                     
G02  24294116.514      134221.714        2911.542           0.239  
G03  22338838.389      -18591.245        -492.146           0.255  
G04  23622567.384      -76055.158       -2128.909           0.244  
G05  22519273.369       75420.654        2033.438           0.255  
G06  20629089.949      -13436.540        -471.574           0.255  
G07  23409142.721      -29177.696       -1301.692           0.248  
> 2023 05 18 00 00 52.3688020  0  6                     
G02  24294041.293      134512.794        2911.124           0.239  
G03  22338850.799      -18640.328        -490.650           0.255  
G04  23622622.148      -76268.042       -2128.968           0.244  
G05  22519221.603       75624.174        2035.732           0.255  
G06  20629101.780      -13483.670        -470.610           0.255  
G07  23409176.511      -29309.287       -1313.843           0.248  
> 2023 05 18 00 00 52.4688020  0  6                     
G02  24293967.292      134803.875        2910.689           0.239  
G03  22338863.728      -18689.439        -491.313           0.255  
G04  23622676.271      -76480.913       -2128.833           0.244  
G05  22519169.470       75827.670        2033.353           0.255  
G06  20629113.188      -13530.808        -471.896           0.255  
G07  23409209.991      -29440.680       -1313.803           0.248  
> 2023 05 18 00 00 52.5688020  0  6                     
G02  24293892.632      135094.954        2911.074           0.239  
G03  22338876.469      -18738.562        -490.585           0.255  
G04  23622730.608      -76694.022       -2161.529           0.244  
G05  22519117.704       76031.183        2035.730           0.255  
G06  20629125.282      -13577.943        -471.242           0.255  
G07  23409243.547      -29572.077       -1313.712           0.248  
> 2023 05 18 00 00 52.6688020  0  6                     
G02  24293817.860      135386.035        2910.253           0.239  
G03  22338889.326      -18787.688        -490.752           0.255  
G04  23622784.779      -76906.738       -2147.282           0.244  
G05  22519065.731       76234.658        2028.420           0.255  
G06  20629137.249      -13625.077        -471.389           0.255  
G07  23409277.074      -29703.480       -1313.903           0.248  
> 2023 05 18 00 00 52.7688020  0  6                     
G02  24293744.774      135677.119        2912.507           0.239  
G03  22338901.954      -18836.848        -517.679           0.255  
G04  23622839.680      -77119.420       -2116.750           0.244  
G05  22519014.298       76438.164        2090.330           0.255  
G06  20629149.682      -13672.224        -471.933           0.255  
G07  23409310.191      -29834.883       -1314.863           0.248  
> 2023 05 18 00 00 52.8688020  0  6                     
G02  24293670.265      135968.218        2911.801           0.239  
G03  22338914.554      -18885.959        -492.690           0.255  
G04  23622893.810      -77332.413       -2129.078           0.244  
G05  22518962.385       76641.670        2033.728           0.255  
G06  20629162.143      -13719.361        -470.508           0.255  
G07  23409344.296      -29966.283       -1313.869           0.248  
> 2023 05 18 00 00 52.9688020  0  6                     
G02  24293597.328      136259.280        2910.321           0.239  
G03  22338926.614      -18935.097        -493.563           0.255  
G04  23622947.517      -77545.294       -2129.635           0.244  
G05  22518910.581       76845.171        2035.146           0.255  
G06  20629173.322      -13766.511        -470.574           0.255  
G07  23409377.712      -30097.692       -1313.839           0.248  
> 2023 05 18 00 00 53.0688020  0  6                     
G02  24293521.963      136550.374        2911.710           0.239  
G03  22338939.434      -18984.150        -510.909           0.255  
G04  23623002.202      -77758.171       -2128.639           0.244  
G05  22518858.425       77048.651        2033.371           0.255  
G06  20629185.192      -13813.672        -470.455           0.255  
G07  23409411.282      -30229.094       -1311.405           0.248  
> 2023 05 18 00 00 53.1688020  0  6                     
G02  24293447.379      136841.450        2909.206           0.239  
G03  22338951.957      -19033.358        -492.336           0.255  
G04  23623056.271      -77971.044       -2128.263           0.244  
G05  22518806.820       77252.156        2035.967           0.255  
G06  20629197.035      -13860.832        -471.420           0.255  
G07  23409445.067      -30360.511       -1314.004           0.248  
> 2023 05 18 00 00 53.2688020  0  6                     
G02  24293373.249      137132.532        2911.470           0.239  
G03  22338964.534      -19082.500        -491.958           0.255  
G04  23623110.555      -78183.924       -2128.599           0.244  
G05  22518754.568       77455.631        2033.351           0.255  
G06  20629209.305      -13907.996        -471.662           0.255  
G07  23409478.406      -30491.921       -1313.925           0.248  
> 2023 05 18 00 00 53.3688020  0  6                     
G02  24293299.994      137423.439        2905.136           0.239  
G03  22338976.708      -19131.285        -431.388           0.255  
G04  23623164.612      -78397.212       -2188.408           0.244  
G05  22518702.673       77659.129        2036.130           0.255  
G06  20629221.280      -13955.169        -472.044           0.255  
G07  23409511.567      -30623.345       -1313.705           0.248  
> 2023 05 18 00 00 53.4688020  0  6                     
G02  24293225.759      137714.683        2911.097           0.239  
G03  22338988.900      -19181.025        -453.177           0.255  
G04  23623219.070      -78609.777       -2158.240           0.244  
G05  22518651.263       77862.601        2033.446           0.255  
G06  20629233.476      -14002.333        -472.188           0.255  
G07  23409545.068      -30754.773       -1314.417           0.248  
> 2023 05 18 00 00 53.5688020  0  6                     
G02  24293151.201      138005.766        2911.957           0.239  
G03  22339000.650      -19230.087        -466.920           0.255  
G04  23623274.084      -78822.563       -2128.790           0.244  
G05  22518599.288       78066.088        2035.489           0.255  
G06  20629245.238      -14049.512        -472.973           0.255  
G07  23409578.553      -30886.431       -1326.301           0.248  
> 2023 05 18 00 00 53.6688020  0  6                     
G02  24293077.438      138296.836        2909.778           0.239  
G03  22339014.182      -19279.125        -490.258           0.255  
G04  23623328.180      -79035.441       -2128.499           0.244  
G05  22518547.637       78269.566        2034.657           0.255  
G06  20629257.059      -14096.687        -472.821           0.255  
G07  23409611.709      -31017.604       -1299.297           0.248  
> 2023 05 18 00 00 53.7688020  0  6                     
G02  24293002.652      138587.915        2910.598           0.239  
G03  22339026.861      -19328.232        -458.352           0.255  
G04  23623381.949      -79248.336       -2129.191           0.244  
G05  22518495.626       78472.800        2014.357           0.255  
G06  20629269.517      -14143.866        -472.975           0.255  
G07  23409645.421      -31149.056       -1313.923           0.248  
> 2023 05 18 00 00 53.8688020  0  6                     
G02  24292928.559      138879.000        2911.352           0.239  
G03  22339039.291      -19377.481        -492.084           0.255  
G04  23623435.827      -79461.144       -2103.472           0.244  
G05  22518443.864       78677.034        2084.432           0.255  
G06  20629281.678      -14191.040        -471.705           0.255  
G07  23409678.650      -31280.489       -1313.876           0.248  
> 2023 05 18 00 00 53.9688020  0  6                     
G02  24292855.146      139170.070        2910.928           0.239  
G03  22339051.750      -19426.662        -493.206           0.255  
G04  23623489.624      -79674.104       -2129.421           0.244  
G05  22518392.068       78879.990        2034.897           0.255  
G06  20629293.838      -14238.227        -471.184           0.255  
G07  23409712.598      -31411.926       -1314.357           0.248  
> 2023 05 18 00 00 54.0688020  0  6                     
G02  24292780.367      139461.155        2911.815           0.239  
G03  22339064.104      -19475.849        -494.570           0.255  
G04  23623544.442      -79886.991       -2129.080           0.244  
G05  22518340.177       79083.458        2034.719           0.255  
G06  20629305.636      -14285.419        -470.601           0.255  
G07  23409745.509      -31543.364       -1314.272           0.248  
> 2023 05 18 00 00 54.1688020  0  6                     
G02  24292706.409      139752.229        2911.012           0.239  
G03  22339077.105      -19525.029        -494.199           0.255  
G04  23623598.711      -80099.889       -2129.716           0.244  
G05  22518288.269       79286.926        2034.947           0.255  
G06  20629317.769      -14332.615        -470.989           0.255  
G07  23409779.132      -31674.812       -1313.899           0.248  
> 2023 05 18 00 00 54.2688020  0  6                     
G02  24292632.291      140043.298        2910.952           0.239  
G03  22339090.166      -19574.219        -493.015           0.255  
G04  23623653.268      -80312.769       -2129.113           0.244  
G05  22518236.163       79490.396        2035.132           0.255  
G06  20629329.995      -14379.812        -471.251           0.255  
G07  23409812.696      -31806.264       -1314.796           0.248  
> 2023 05 18 00 00 54.3688020  0  6                     
G02  24292557.713      140334.379        2910.421           0.239  
G03  22339101.865      -19623.421        -492.989           0.255  
G04  23623707.494      -80525.661       -2128.566           0.244  
G05  22518184.442       79693.851        2034.287           0.255  
G06  20629341.731      -14427.011        -471.509           0.255  
G07  23409846.425      -31937.713       -1314.905           0.248  
> 2023 05 18 00 00 54.4688020  0  6                     
G02  24292483.325      140625.442        2910.469           0.239  
G03  22339114.550      -19672.617        -491.688           0.255  
G04  23623761.537      -80738.555       -2129.041           0.244  
G05  22518132.563       79897.321        2035.497           0.255  
G06  20629353.835      -14474.216        -471.779           0.255  
G07  23409879.853      -32069.167       -1314.821           0.248  
> 2023 05 18 00 00 54.5688020  0  6                     
G02  24292409.479      140916.522        2911.154           0.239  
G03  22339126.954      -19721.822        -491.539           0.255  
G04  23623815.603      -80951.442       -2128.930           0.244  
G05  22518080.790       80100.629        1995.265           0.255  
G06  20629365.816      -14521.422        -472.281           0.255  
G07  23409913.423      -32200.623       -1314.233           0.248  
> 2023 05 18 00 00 54.6688020  0  6                     
G02  24292334.732      141207.597        2911.094           0.239  
G03  22339139.025      -19771.028        -490.292           0.255  
G04  23623869.391      -81164.346       -2129.258           0.244  
G05  22518028.840       80304.373        2108.092           0.255  
G06  20629378.041      -14568.634        -473.139           0.255  
G07  23409945.740      -32332.080       -1314.521           0.248  
> 2023 05 18 00 00 54.7688020  0  6                     
G02  24292260.575      141498.672        2912.055           0.239  
G03  22339151.255      -19820.239        -489.873           0.255  
G04  23623924.440      -81377.231       -2129.054           0.244  
G05  22517977.093       80507.683        2033.623           0.255  
G06  20629390.098      -14615.846        -473.169           0.255  
G07  23409980.204      -32463.544       -1314.368           0.248  
> 2023 05 18 00 00 54.8688020  0  6                     
G02  24292187.167      141789.750        2911.282           0.239  
G03  22339164.279      -19869.461        -490.743           0.255  
G04  23623979.100      -81590.131       -2129.434           0.244  
G05  22517924.798       80711.142        2035.130           0.255  
G06  20629400.985      -14663.061        -472.691           0.255  
G07  23410015.315      -32595.007       -1314.964           0.248  
> 2023 05 18 00 00 54.9688020  0  6                     
G02  24292112.605      142080.830        2910.838           0.239  
G03  22339176.917      -19918.687        -491.123           0.255  
G04  23624032.910      -81803.026       -2128.669           0.244  
G05  22517873.602       80914.576        2033.825           0.255  
G06  20629413.367      -14710.286        -473.127           0.255  
G07  23410047.440      -32726.470       -1314.620           0.248  
> 2023 05 18 00 00 55.0688020  0  6                     
G02  24292037.221      142372.012        2927.749           0.239  
G03  22339189.977      -19967.914        -492.186           0.255  
G04  23624088.193      -82016.010       -2159.861           0.244  
G05  22517821.704       81117.699        2004.331           0.255  
G06  20629425.953      -14757.506        -472.316           0.255  
G07  23410080.933      -32858.099       -1340.292           0.248  
> 2023 05 18 00 00 55.1688020  0  6                     
G02  24291963.381      142662.982        2910.145           0.239  
G03  22339202.421      -20017.143        -493.200           0.255  
G04  23624141.875      -82228.662       -2126.941           0.244  
G05  22517769.802       81321.831        2072.471           0.255  
G06  20629437.308      -14804.739        -471.698           0.255  
G07  23410114.614      -32989.410       -1315.708           0.248  
> 2023 05 18 00 00 55.2688020  0  6                     
G02  24291889.284      142954.060        2911.595           0.239  
G03  22339214.802      -20066.386        -494.328           0.255  
G04  23624195.363      -82441.723       -2129.156           0.244  
G05  22517717.929       81524.918        2034.464           0.255  
G06  20629449.305      -14851.963        -471.161           0.255  
G07  23410148.408      -33120.886       -1315.416           0.248  
> 2023 05 18 00 00 55.3688020  0  6                     
G02  24291814.974      143245.138        2911.199           0.239  
G03  22339227.297      -20115.193        -475.177           0.255  
G04  23624250.463      -82654.628       -2129.175           0.244  
G05  22517666.018       81728.689        2108.954           0.255  
G06  20629462.156      -14899.196        -470.994           0.255  
G07  23410181.267      -33252.363       -1314.825           0.248  
> 2023 05 18 00 00 55.4688020  0  6                     
G02  24291741.496      143536.216        2911.455           0.239  
G03  22339239.585      -20164.775        -493.809           0.255  
G04  23624303.091      -82867.527       -2129.212           0.244  
G05  22517614.188       81931.793        2033.497           0.255  
G06  20629474.333      -14946.434        -471.540           0.255  
G07  23410214.650      -33383.848       -1314.916           0.248  
> 2023 05 18 00 00 55.5688020  0  6                     
G02  24291667.565      143827.286        2910.666           0.239  
G03  22339252.847      -20214.118        -492.751           0.255  
G04  23624358.644      -83080.435       -2129.148           0.244  
G05  22517562.433       82135.241        2035.615           0.255  
G06  20629485.895      -14993.672        -471.628           0.255  
G07  23410248.546      -33515.327       -1315.802           0.248  
> 2023 05 18 00 00 55.6688020  0  6                     
G02  24291593.530      144118.369        2910.010           0.239  
G03  22339265.220      -20263.375        -492.569           0.255  
G04  23624412.653      -83293.334       -2128.914           0.244  
G05  22517510.642       82338.662        2033.214           0.255  
G06  20629498.277      -15040.923        -472.568           0.255  
G07  23410282.256      -33646.810       -1314.703           0.248  
> 2023 05 18 00 00 55.7688020  0  6                     
G02  24291519.042      144409.442        2910.953           0.239  
G03  22339277.209      -20312.733        -500.563           0.255  
G04  23624466.158      -83506.235       -2129.304           0.244  
G05  22517458.525       82542.098        2034.496           0.255  
G06  20629510.577      -15088.179        -472.639           0.255  
G07  23410315.315      -33778.297       -1314.276           0.248  
> 2023 05 18 00 00 55.8688020  0  6                     
G02  24291444.580      144700.517        2910.367           0.239  
G03  22339290.131      -20361.893        -491.410           0.255  
G04  23624520.748      -83719.152       -2128.986           0.244  
G05  22517407.064       82745.531        2033.797           0.255  
G06  20629522.390      -15135.431        -473.080           0.255  
G07  23410349.479      -33909.800       -1314.918           0.248  
> 2023 05 18 00 00 55.9688020  0  6                     
G02  24291370.831      144991.604        2911.158           0.239  
G03  22339302.803      -20411.376        -460.702           0.255  
G04  23624574.980      -83932.059       -2128.498           0.244  
G05  22517355.046       82948.958        2034.871           0.255  
G06  20629534.192      -15182.691        -474.352           0.255  
G07  23410382.917      -34041.285       -1314.771           0.248  
> 2023 05 18 00 00 56.0688020  0  6                     
G02  24291296.082      145282.677        2910.903           0.239  
G03  22339315.042      -20460.424        -490.342           0.255  
G04  23624629.361      -84144.969       -2129.226           0.244  
G05  22517303.181       83152.378        2034.421           0.255  
G06  20629546.374      -15229.946        -473.569           0.255  
G07  23410415.849      -34172.787       -1315.053           0.248  
> 2023 05 18 00 00 56.1688020  0  6                     
G02  24291222.318      145573.755        2910.665           0.239  
G03  22339327.814      -20509.713        -491.248           0.255  
G04  23624684.003      -84357.873       -2128.820           0.244  
G05  22517251.373       83355.352        1949.020           0.255  
G06  20629558.436      -15277.203        -473.149           0.255  
G07  23410449.204      -34304.288       -1314.927           0.248  
> 2023 05 18 00 00 56.2688020  0  6                     
G02  24291147.888      145864.843        2910.369           0.239  
G03  22339340.315      -20559.007        -493.039           0.255  
G04  23624738.331      -84570.787       -2128.967           0.244  
G05  22517199.624       83559.231        2035.522           0.255  
G06  20629570.711      -15324.465        -472.840           0.255  
G07  23410483.005      -34435.795       -1314.785           0.248  
> 2023 05 18 00 00 56.3688020  0  6                     
G02  24291074.611      146155.909        2909.478           0.239  
G03  22339353.438      -20608.301        -494.149           0.255  
G04  23624792.220      -84783.700       -2128.984           0.244  
G05  22517147.741       83762.640        2032.899           0.255  
G06  20629582.492      -15371.723        -471.914           0.255  
G07  23410516.739      -34567.303       -1315.018           0.248  
> 2023 05 18 00 00 56.4688020  0  6                     
G02  24291000.267      146446.981        2909.939           0.239  
G03  22339365.544      -20657.601        -494.686           0.255  
G04  23624846.619      -84996.613       -2128.727           0.244  
G05  22517095.911       83966.059        2034.734           0.255  
G06  20629594.486      -15418.992        -471.220           0.255  
G07  23410550.048      -34698.815       -1315.188           0.248  
> 2023 05 18 00 00 56.5688020  0  6                     
G02  24290925.932      146738.068        2910.795           0.239  
G03  22339378.048      -20706.900        -494.589           0.255  
G04  23624900.598      -85209.529       -2128.619           0.244  
G05  22517044.087       84169.472        2034.035           0.255  
G06  20629606.709      -15466.273        -471.806           0.255  
G07  23410583.141      -34830.328       -1315.411           0.248  
> 2023 05 18 00 00 56.6688020  0  6                     
G02  24290851.822      147028.735        2854.042           0.239  
G03  22339390.881      -20756.448        -542.443           0.255  
G04  23624954.962      -85422.442       -2128.943           0.244  
G05  22516992.120       84372.880        2033.818           0.255  
G06  20629618.603      -15513.556        -472.717           0.255  
G07  23410616.858      -34961.980       -1308.666           0.248  
> 2023 05 18 00 00 56.7688020  0  6                     
G02  24290777.557      147320.203        2911.107           0.239  
G03  22339403.336      -20805.490        -493.290           0.255  
G04  23625009.724      -85635.359       -2129.389           0.244  
G05  22516940.322       84576.304        2035.104           0.255  
G06  20629630.516      -15560.840        -472.432           0.255  
G07  23410650.420      -35093.369       -1315.569           0.248  
> 2023 05 18 00 00 56.8688020  0  6                     
G02  24290702.819      147611.292        2911.565           0.239  
G03  22339415.826      -20854.793        -493.051           0.255  
G04  23625064.122      -85848.274       -2129.360           0.244  
G05  22516888.598       84779.696        2032.950           0.255  
G06  20629642.790      -15608.129        -472.546           0.255  
G07  23410684.051      -35224.891       -1315.149           0.248  
> 2023 05 18 00 00 56.9688020  0  6                     
G02  24290629.070      147902.359        2910.136           0.239  
G03  22339428.036      -20904.105        -493.010           0.255  
G04  23625117.972      -86061.192       -2128.897           0.244  
G05  22516836.803       84983.109        2034.446           0.255  
G06  20629654.971      -15655.424        -473.150           0.255  
G07  23410717.456      -35356.414       -1315.021           0.248  
> 2023 05 18 00 00 57.0688020  0  6                     
G02  24290555.041      148193.433        2910.558           0.239  
G03  22339440.754      -20953.415        -493.164           0.255  
G04  23625171.977      -86274.111       -2128.430           0.244  
G05  22516784.947       85186.509        2033.567           0.255  
G06  20629666.942      -15702.717        -473.187           0.255  
G07  23410751.080      -35487.946       -1315.385           0.248  
> 2023 05 18 00 00 57.1688020  0  6                     
G02  24290480.789      148484.519        2911.238           0.239  
G03  22339453.229      -21002.737        -493.667           0.255  
G04  23625226.233      -86487.033       -2128.750           0.244  
G05  22516733.036       85389.912        2034.687           0.255  
G06  20629678.980      -15750.013        -472.776           0.255  
G07  23410784.420      -35619.478       -1315.580           0.248  
> 2023 05 18 00 00 57.2688020  0  6                     
G02  24290407.042      148775.585        2909.907           0.239  
G03  22339466.253      -21052.067        -494.269           0.255  
G04  23625280.434      -86699.959       -2129.237           0.244  
G05  22516681.155       85593.320        2034.766           0.255  
G06  20629690.907      -15797.317        -472.541           0.255  
G07  23410818.266      -35751.016       -1315.526           0.248  
> 2023 05 18 00 00 57.3688020  0  6                     
G02  24290332.890      149066.666        2910.872           0.239  
G03  22339478.856      -21101.400        -493.793           0.255  
G04  23625334.592      -86912.880       -2129.166           0.244  
G05  22516629.480       85796.705        2032.739           0.255  
G06  20629702.926      -15844.618        -473.117           0.255  
G07  23410851.790      -35882.552       -1315.474           0.248  
> 2023 05 18 00 00 57.4688020  0  6                     
G02  24290258.677      149357.743        2911.580           0.239  
G03  22339491.325      -21150.739        -492.643           0.255  
G04  23625388.985      -87125.811       -2129.746           0.244  
G05  22516577.405       86000.108        2034.556           0.255  
G06  20629714.913      -15891.922        -473.381           0.255  
G07  23410885.094      -36014.090       -1315.447           0.248  
> 2023 05 18 00 00 57.5688020  0  6                     
G02  24290184.325      149648.817        2910.503           0.239  
G03  22339503.890      -21200.082        -491.609           0.255  
G04  23625443.524      -87338.733       -2129.450           0.244  
G05  22516525.688       86203.503        2033.446           0.255  
G06  20629727.120      -15939.228        -473.666           0.255  
G07  23410918.548      -36145.634       -1315.570           0.248  
> 2023 05 18 00 00 57.6688020  0  6                     
G02  24290110.094      149939.889        2911.554           0.239  
G03  22339516.418      -21249.428        -491.542           0.255  
G04  23625497.434      -87551.660       -2129.386           0.244  
G05  22516474.042       86406.889        2033.695           0.255  
G06  20629739.339      -15986.545        -474.099           0.255  
G07  23410952.281      -36277.174       -1315.278           0.248  
> 2023 05 18 00 00 57.7688020  0  6                     
G02  24290035.344      150230.972        2911.981           0.239  
G03  22339529.095      -21298.774        -491.978           0.255  
G04  23625551.872      -87764.587       -2129.709           0.244  
G05  22516422.014       86610.664        2144.828           0.255  
G06  20629751.302      -16033.861        -474.129           0.255  
G07  23410985.940      -36408.721       -1315.313           0.248  
> 2023 05 18 00 00 57.8688020  0  6                     
G02  24289961.768      150522.037        2910.439           0.239  
G03  22339541.464      -21348.126        -492.145           0.255  
G04  23625606.077      -87977.512       -2129.489           0.244  
G05  22516370.142       86813.665        2032.110           0.255  
G06  20629763.402      -16081.182        -473.875           0.255  
G07  23411019.447      -36540.272       -1315.374           0.248  
> 2023 05 18 00 00 57.9688020  0  6                     
G02  24289887.238      150813.108        2910.237           0.239  
G03  22339554.308      -21397.484        -492.424           0.255  
G04  23625660.148      -88190.439       -2129.312           0.244  
G05  22516318.351       87017.050        2034.221           0.255  
G06  20629775.334      -16128.502        -473.465           0.255  
G07  23411052.914      -36671.829       -1315.490           0.248  
> 2023 05 18 00 00 58.0688020  0  6                     
G02  24289813.006      151104.212        2912.709           0.239  
G03  22339566.763      -21446.857        -493.667           0.255  
G04  23625714.762      -88403.374       -2129.422           0.244  
G05  22516266.496       87220.439        2034.295           0.255  
G06  20629787.365      -16175.828        -473.332           0.255  
G07  23411086.117      -36803.382       -1315.317           0.248  
> 2023 05 18 00 00 58.1688020  0  6                     
G02  24289739.123      151395.282        2910.901           0.239  
G03  22339579.845      -21496.226        -494.131           0.255  
G04  23625769.462      -88616.310       -2130.035           0.244  
G05  22516214.710       87423.810        2033.438           0.255  
G06  20629799.433      -16223.160        -473.071           0.255  
G07  23411119.945      -36934.945       -1315.548           0.248  
> 2023 05 18 00 00 58.2688020  0  6                     
G02  24289665.024      151686.349        2910.427           0.239  
G03  22339592.438      -21545.607        -494.949           0.255  
G04  23625823.621      -88829.005       -2100.463           0.244  
G05  22516162.934       87627.017        2054.658           0.255  
G06  20629811.505      -16270.488        -472.814           0.255  
G07  23411153.380      -37066.504       -1315.406           0.248  
> 2023 05 18 00 00 58.3688020  0  6                     
G02  24289591.002      151977.432        2911.963           0.239  
G03  22339604.926      -21594.984        -494.454           0.255  
G04  23625877.510      -89042.172       -2129.377           0.244  
G05  22516111.115       87830.563        2033.096           0.255  
G06  20629823.541      -16317.825        -472.750           0.255  
G07  23411186.771      -37198.071       -1315.309           0.248  
> 2023 05 18 00 00 58.4688020  0  6                     
G02  24289517.059      152268.512        2911.179           0.239  
G03  22339616.989      -21644.543        -522.768           0.255  
G04  23625931.583      -89255.075       -2133.410           0.244  
G05  22516059.300       88033.940        2033.969           0.255  
G06  20629835.699      -16365.163        -473.043           0.255  
G07  23411220.336      -37329.640       -1315.474           0.248  
> 2023 05 18 00 00 58.5688020  0  6                     
G02  24289442.144      152559.574        2909.735           0.239  
G03  22339629.232      -21693.634        -477.560           0.255  
G04  23625985.746      -89468.092       -2121.743           0.244  
G05  22516007.494       88237.315        2034.328           0.255  
G06  20629847.997      -16412.512        -473.205           0.255  
G07  23411253.674      -37461.212       -1315.649           0.248  
> 2023 05 18 00 00 58.6688020  0  6                     
G02  24289367.529      152850.664        2911.613           0.239  
G03  22339641.767      -21743.128        -494.447           0.255  
G04  23626040.279      -89680.977       -2129.458           0.244  
G05  22515955.662       88440.670        2032.481           0.255  
G06  20629860.129      -16459.864        -473.261           0.255  
G07  23411287.393      -37592.785       -1315.140           0.248  
> 2023 05 18 00 00 58.7688020  0  6                     
G02  24289293.561      153141.754        2912.614           0.239  
G03  22339654.619      -21792.520        -495.477           0.255  
G04  23626094.682      -89893.919       -2129.850           0.244  
G05  22515903.906       88644.051        2034.622           0.255  
G06  20629872.049      -16507.218        -472.875           0.255  
G07  23411321.025      -37724.367       -1315.445           0.248  
> 2023 05 18 00 00 58.8688020  0  6                     
G02  24289219.501      153432.805        2910.794           0.239  
G03  22339667.355      -21841.928        -495.536           0.255  
G04  23626149.128      -90106.857       -2129.785           0.244  
G05  22515851.924       88847.415        2033.814           0.255  
G06  20629883.915      -16554.573        -473.007           0.255  
G07  23411354.484      -37855.946       -1315.700           0.248  
> 2023 05 18 00 00 58.9688020  0  6                     
G02  24289145.664      153723.880        2911.010           0.239  
G03  22339679.868      -21891.331        -494.932           0.255  
G04  23626203.290      -90319.792       -2129.276           0.244  
G05  22515800.378       89050.767        2032.953           0.255  
G06  20629896.229      -16601.929        -473.174           0.255  
G07  23411387.967      -37987.533       -1315.718           0.248  
> 2023 05 18 00 00 59.0688020  0  6                     
G02  24289071.649      154014.954        2910.667           0.239  
G03  22339692.259      -21940.742        -495.030           0.255  
G04  23626257.333      -90532.735       -2129.447           0.244  
G05  22515748.154       89254.134        2034.544           0.255  
G06  20629908.295      -16649.291        -473.054           0.255  
G07  23411421.646      -38119.119       -1315.796           0.248  
> 2023 05 18 00 00 59.1688020  0  6                     
G02  24288997.667      154306.034        2910.361           0.239  
G03  22339704.948      -21990.157        -494.864           0.255  
G04  23626311.474      -90745.679       -2129.201           0.244  
G05  22515696.463       89457.493        2033.417           0.255  
G06  20629920.164      -16696.653        -472.925           0.255  
G07  23411455.235      -38250.711       -1315.766           0.248  
> 2023 05 18 00 00 59.2688020  0  6                     
G02  24288923.025      154597.108        2910.397           0.239  
G03  22339717.642      -22039.571        -494.066           0.255  
G04  23626365.953      -90958.628       -2129.982           0.244  
G05  22515644.701       89660.841        2033.225           0.255  
G06  20629932.151      -16744.027        -473.773           0.255  
G07  23411488.663      -38382.302       -1315.488           0.248  
> 2023 05 18 00 00 59.3688020  0  6                     
G02  24288848.383      154888.196        2911.848           0.239  
G03  22339730.124      -22088.990        -494.056           0.255  
G04  23626420.462      -91171.571       -2129.691           0.244  
G05  22515592.829       89864.200        2034.262           0.255  
G06  20629944.296      -16791.400        -474.435           0.255  
G07  23411522.077      -38513.897       -1315.329           0.248  
> 2023 05 18 00 00 59.4688020  0  6                     
G02  24288774.800      155179.274        2911.487           0.239  
G03  22339742.577      -22138.412        -493.852           0.255  
G04  23626474.757      -91384.514       -2129.629           0.244  
G05  22515540.848       90067.548        2032.841           0.255  
G06  20629956.708      -16838.775        -474.081           0.255  
G07  23411555.817      -38645.501       -1316.112           0.248  
> 2023 05 18 00 00 59.5688020  0  6                     
G02  24288700.926      155470.342        2910.252           0.239  
G03  22339754.853      -22187.843        -494.099           0.255  
G04  23626528.725      -91597.456       -2128.879           0.244  
G05  22515489.031       90270.896        2033.320           0.255  
G06  20629968.660      -16886.151        -473.899           0.255  
G07  23411589.236      -38777.104       -1315.775           0.248  
> 2023 05 18 00 00 59.6688020  0  6                     
G02  24288626.197      155761.418        2910.689           0.239  
G03  22339768.129      -22237.276        -494.706           0.255  
G04  23626583.131      -91810.404       -2129.308           0.244  
G05  22515437.130       90474.249        2034.414           0.255  
G06  20629980.451      -16933.534        -473.697           0.255  
G07  23411622.757      -38908.707       -1315.436           0.248  
> 2023 05 18 00 00 59.7688020  0  6                     
G02  24288552.233      156052.494        2911.156           0.239  
G03  22339780.814      -22286.720        -494.359           0.255  
G04  23626637.334      -92023.355       -2128.987           0.244  
G05  22515385.836       90677.584        2032.545           0.255  
G06  20629992.435      -16980.920        -473.850           0.255  
G07  23411656.235      -39040.315       -1315.353           0.248  
> 2023 05 18 00 00 59.8688020  0  6                     
G02  24288478.195      156343.580        2910.615           0.239  
G03  22339793.426      -22336.565        -487.638           0.255  
G04  23626691.126      -92236.370       -2143.836           0.244  
G05  22515333.790       90880.932        2033.734           0.255  
G06  20630004.467      -17028.308        -474.524           0.255  
G07  23411689.931      -39171.928       -1315.952           0.248  
> 2023 05 18 00 00 59.9688020  0  6                     
G02  24288403.104      156634.649        2909.800           0.239  
G03  22339805.805      -22385.617        -492.804           0.255  
G04  23626745.898      -92449.258       -2129.236           0.244  
G05  22515282.445       91084.281        2034.416           0.255  
G06  20630016.487      -17075.700        -474.854           0.255  
G07  23411723.699      -39303.543       -1316.715           0.248  
> 2023 05 18 00 01 00.0688020  0  6                     
G02  24288328.746      156925.734        2910.631           0.239  
G03  22339818.557      -22435.151        -488.961           0.255  
G04  23626800.220      -92662.212       -2129.745           0.244  
G05  22515230.386       91287.607        2031.747           0.255  
G06  20630029.049      -17123.096        -474.559           0.255  
G07  23411756.826      -39435.155       -1316.137           0.248  
> 2023 05 18 00 01 00.1688020  0  6                     
G02  24288255.133      157216.814        2911.418           0.239  
G03  22339830.940      -22484.516        -485.402           0.255  
G04  23626854.815      -92875.081       -2114.663           0.244  
G05  22515178.348       91490.290        1925.735           0.255  
G06  20630041.211      -17170.498        -474.473           0.255  
G07  23411790.443      -39566.774       -1316.501           0.248  
> 2023 05 18 00 01 00.2688020  0  6                     
G02  24288181.847      157507.884        2909.827           0.239  
G03  22339843.316      -22533.991        -494.612           0.255  
G04  23626908.811      -93088.110       -2129.093           0.244  
G05  22515126.407       91694.282        2034.558           0.255  
G06  20630053.215      -17217.895        -473.831           0.255  
G07  23411824.327      -39698.398       -1316.371           0.248  
> 2023 05 18 00 01 00.3688020  0  6                     
G02  24288107.146      157798.943        2909.301           0.239  
G03  22339856.271      -22583.458        -494.607           0.255  
G04  23626963.066      -93301.070       -2129.154           0.244  
G05  22515074.314       91897.608        2032.736           0.255  
G06  20630064.993      -17265.303        -474.352           0.255  
G07  23411857.876      -39830.019       -1316.353           0.248  
> 2023 05 18 00 01 00.4688020  0  6                     
G02  24288032.706      158090.020        2909.327           0.239  
G03  22339868.867      -22632.932        -494.468           0.255  
G04  23627017.273      -93514.028       -2129.336           0.244  
G05  22515023.110       92100.932        2033.159           0.255  
G06  20630077.072      -17312.712        -474.295           0.255  
G07  23411891.103      -39961.644       -1316.285           0.248  
> 2023 05 18 00 01 00.5688020  0  6                     
G02  24287959.230      158381.104        2910.598           0.239  
G03  22339881.573      -22682.408        -494.280           0.255  
G04  23627071.584      -93726.985       -2129.398           0.244  
G05  22514970.757       92304.266        2034.001           0.255  
G06  20630089.277      -17360.122        -474.210           0.255  
G07  23411924.704      -40093.273       -1315.892           0.248  
> 2023 05 18 00 01 00.6688020  0  6                     
G02  24287885.300      158672.177        2911.201           0.239  
G03  22339893.507      -22731.884        -494.156           0.255  
G04  23627124.836      -93939.943       -2129.615           0.244  
G05  22514919.467       92507.581        2032.381           0.255  
G06  20630102.052      -17407.541        -474.270           0.255  
G07  23411958.093      -40224.914       -1317.054           0.248  
> 2023 05 18 00 01 00.7688020  0  6                     
G02  24287810.803      158963.244        2909.534           0.239  
G03  22339906.206      -22781.372        -493.725           0.255  
G04  23627180.456      -94152.902       -2129.036           0.244  
G05  22514867.695       92710.908        2033.433           0.255  
G06  20630113.272      -17454.965        -474.683           0.255  
G07  23411991.423      -40356.542       -1316.604           0.248  
> 2023 05 18 00 01 00.8688020  0  6                     
G02  24287735.934      159254.305        2908.974           0.239  
G03  22339918.973      -22830.858        -493.926           0.255  
G04  23627234.925      -94365.862       -2129.048           0.244  
G05  22514815.453       92914.235        2034.021           0.255  
G06  20630125.481      -17502.390        -474.600           0.255  
G07  23412024.993      -40488.188       -1317.184           0.248  
> 2023 05 18 00 01 00.9688020  0  6                     
G02  24287661.694      159545.392        2910.909           0.239  
G03  22339932.241      -22880.357        -494.957           0.255  
G04  23627287.734      -94578.830       -2129.802           0.244  
G05  22514763.628       93117.546        2032.386           0.255  
G06  20630137.560      -17549.811        -474.779           0.255  
G07  23412058.642      -40619.828       -1316.987           0.248  
> 2023 05 18 00 01 01.0688020  0  6                     
G02  24287588.207      159836.467        2911.660           0.239  
G03  22339944.441      -22929.860        -495.219           0.255  
G04  23627342.558      -94791.791       -2129.500           0.244  
G05  22514711.778       93320.858        2032.842           0.255  
G06  20630149.811      -17597.239        -474.630           0.255  
G07  23412092.363      -40751.465       -1316.023           0.248  
> 2023 05 18 00 01 01.1688020  0  6                     
G02  24287514.157      160127.530        2910.603           0.239  
G03  22339957.214      -22979.369        -495.489           0.255  
G04  23627396.684      -95004.756       -2129.709           0.244  
G05  22514659.906       93524.186        2034.378           0.255  
G06  20630161.834      -17644.666        -474.246           0.255  
G07  23412126.586      -40883.115       -1316.509           0.248  
> 2023 05 18 00 01 01.2688020  0  6                     
G02  24287440.027      160418.598        2910.046           0.239  
G03  22339970.093      -23028.871        -495.102           0.255  
G04  23627451.289      -95217.720       -2130.232           0.244  
G05  22514608.102       93727.495        2033.123           0.255  
G06  20630173.754      -17692.105        -474.092           0.255  
G07  23412159.928      -41014.771       -1317.123           0.248  
> 2023 05 18 00 01 01.3688020  0  6                     
G02  24287365.030      160709.676        2911.197           0.239  
G03  22339982.485      -23078.382        -495.000           0.255  
G04  23627505.453      -95430.682       -2129.452           0.244  
G05  22514557.225       93930.794        2032.105           0.255  
G06  20630186.029      -17739.551        -474.543           0.255  
G07  23412192.365      -41146.420       -1316.493           0.248  
> 2023 05 18 00 01 01.4688020  0  6                     
G02  24287291.335      161000.754        2912.066           0.239  
G03  22339994.790      -23127.904        -495.141           0.255  
G04  23627559.864      -95643.653       -2129.727           0.244  
G05  22514506.045       94134.112        2033.807           0.255  
G06  20630198.137      -17786.995        -474.665           0.255  
G07  23412226.599      -41278.084       -1316.620           0.248  
> 2023 05 18 00 01 01.5688020  0  6                     
G02  24287217.797      161291.824        2910.653           0.239  
G03  22340008.067      -23177.426        -495.027           0.255  
G04  23627614.770      -95856.628       -2129.747           0.244  
G05  22514453.702       94337.417        2033.850           0.255  
G06  20630209.873      -17834.444        -474.673           0.255  
G07  23412259.849      -41409.745       -1316.694           0.248  
> 2023 05 18 00 01 01.6688020  0  6                     
G02  24287143.329      161582.887        2909.901           0.239  
G03  22340020.710      -23226.950        -495.246           0.255  
G04  23627668.290      -96069.596       -2129.799           0.244  
G05  22514401.924       94540.711        2032.131           0.255  
G06  20630222.078      -17881.893        -474.529           0.255  
G07  23412293.645      -41541.406       -1316.647           0.248  
> 2023 05 18 00 01 01.7688020  0  6                     
G02  24287068.896      161873.956        2910.360           0.239  
G03  22340032.973      -23276.480        -495.324           0.255  
G04  23627722.575      -96282.563       -2129.810           0.244  
G05  22514350.022       94744.017        2033.686           0.255  
G06  20630234.657      -17929.346        -474.397           0.255  
G07  23412327.360      -41673.074       -1316.545           0.248  
> 2023 05 18 00 01 01.8688020  0  6                     
G02  24286995.081      162165.025        2910.943           0.239  
G03  22340045.766      -23326.014        -495.002           0.255  
G04  23627776.526      -96495.359       -2108.467           0.244  
G05  22514297.877       94947.372        2098.668           0.255  
G06  20630246.316      -17976.802        -474.571           0.255  
G07  23412360.331      -41804.742       -1317.073           0.248  
> 2023 05 18 00 01 01.9688020  0  6                     
G02  24286920.399      162456.090        2911.054           0.239  
G03  22340058.291      -23375.561        -495.098           0.255  
G04  23627831.036      -96708.503       -2130.119           0.244  
G05  22514245.455       95150.607        2032.154           0.255  
G06  20630258.369      -18024.262        -474.439           0.255  
G07  23412394.251      -41936.406       -1316.264           0.248  
> 2023 05 18 00 01 02.0688020  0  6                     
G02  24286846.769      162747.160        2911.278           0.239  
G03  22340070.634      -23425.102        -495.113           0.255  
G04  23627885.269      -96921.476       -2129.794           0.244  
G05  22514194.228       95353.903        2032.859           0.255  
G06  20630270.671      -18071.731        -475.012           0.255  
G07  23412427.768      -42068.088       -1316.038           0.248  
> 2023 05 18 00 01 02.1688020  0  6                     
G02  24286771.968      163038.229        2910.880           0.239  
G03  22340083.566      -23474.652        -495.634           0.255  
G04  23627939.481      -97134.454       -2129.980           0.244  
G05  22514142.668       95557.196        2033.611           0.255  
G06  20630282.628      -18119.198        -474.887           0.255  
G07  23412461.392      -42199.765       -1316.648           0.248  
> 2023 05 18 00 01 02.2688020  0  6                     
G02  24286697.724      163329.304        2911.091           0.239  
G03  22340096.029      -23524.210        -496.377           0.255  
G04  23627994.050      -97347.429       -2130.015           0.244  
G05  22514090.079       95760.847        2101.846           0.255  
G06  20630294.706      -18166.669        -474.482           0.255  
G07  23412495.118      -42331.453       -1317.336           0.248  
> 2023 05 18 00 01 02.3688020  0  6                     
G02  24286624.346      163620.371        2910.725           0.239  
G03  22340108.521      -23573.769        -496.476           0.255  
G04  23628047.717      -97560.404       -2129.929           0.244  
G05  22514038.358       95963.769        2031.780           0.255  
G06  20630307.155      -18214.139        -474.191           0.255  
G07  23412528.444      -42463.139       -1317.407           0.248  
> 2023 05 18 00 01 02.4688020  0  6                     
G02  24286549.265      163911.439        2910.798           0.239  
G03  22340121.036      -23623.323        -496.002           0.255  
G04  23628102.752      -97773.373       -2129.696           0.244  
G05  22513987.030       96167.053        2033.127           0.255  
G06  20630319.065      -18261.628        -474.927           0.255  
G07  23412562.276      -42594.818       -1316.546           0.248  
> 2023 05 18 00 01 02.5688020  0  6                     
G02  24286475.495      164202.499        2911.097           0.239  
G03  22340133.454      -23672.889        -495.619           0.255  
G04  23628156.836      -97986.354       -2129.907           0.244  
G05  22513934.914       96370.354        2033.942           0.255  
G06  20630331.490      -18309.101        -474.449           0.255  
G07  23412596.002      -42726.509       -1316.646           0.248  
> 2023 05 18 00 01 02.6688020  0  6                     
G02  24286401.120      164493.569        2910.449           0.239  
G03  22340146.730      -23722.459        -495.352           0.255  
G04  23628211.134      -98199.088       -2087.237           0.244  
G05  22513883.113       96573.613        2031.460           0.255  
G06  20630343.418      -18356.588        -474.742           0.255  
G07  23412629.408      -42858.198       -1317.001           0.248  
> 2023 05 18 00 01 02.7688020  0  6                     
G02  24286327.220      164784.644        2910.825           0.239  
G03  22340159.417      -23772.032        -495.599           0.255  
G04  23628265.571      -98412.320       -2130.334           0.244  
G05  22513830.972       96776.892        2032.262           0.255  
G06  20630355.295      -18404.075        -474.806           0.255  
G07  23412662.827      -42989.889       -1316.879           0.248  
> 2023 05 18 00 01 02.8688020  0  6                     
G02  24286252.827      165075.717        2911.187           0.239  
G03  22340171.899      -23821.615        -496.069           0.255  
G04  23628319.889      -98625.302       -2129.956           0.244  
G05  22513779.572       96980.180        2033.769           0.255  
G06  20630367.449      -18451.567        -474.801           0.255  
G07  23412696.429      -43121.585       -1316.660           0.248  
> 2023 05 18 00 01 02.9688020  0  6                     
G02  24286179.167      165366.790        2911.385           0.239  
G03  22340184.680      -23871.199        -496.162           0.255  
G04  23628373.691      -98838.286       -2130.430           0.244  
G05  22513727.234       97183.450        2032.965           0.255  
G06  20630379.888      -18499.067        -475.172           0.255  
G07  23412729.302      -43253.286       -1316.528           0.248  
> 2023 05 18 00 01 03.0688020  0  6                     
G02  24286105.556      165657.857        2910.242           0.239  
G03  22340197.285      -23920.789        -495.974           0.255  
G04  23628427.815      -99051.263       -2129.895           0.244  
G05  22513676.122       97386.713        2032.172           0.255  
G06  20630391.616      -18546.559        -475.421           0.255  
G07  23412763.649      -43384.991       -1317.212           0.248  
> 2023 05 18 00 01 03.1688020  0  6                     
G02  24286030.816      165948.934        2910.366           0.239  
G03  22340210.017      -23970.383        -495.969           0.255  
G04  23628482.131      -99264.259       -2129.225           0.244  
G05  22513624.424       97589.988        2032.937           0.255  
G06  20630403.633      -18594.065        -475.438           0.255  
G07  23412797.313      -43516.703       -1317.119           0.248  
> 2023 05 18 00 01 03.2688020  0  6                     
G02  24285955.829      166239.999        2910.849           0.239  
G03  22340222.392      -24019.978        -495.817           0.255  
G04  23628536.662      -99477.253       -2130.084           0.244  
G05  22513572.303       97793.260        2033.290           0.255  
G06  20630415.896      -18641.569        -475.206           0.255  
G07  23412830.746      -43648.412       -1317.188           0.248  
> 2023 05 18 00 01 03.3688020  0  6                     
G02  24285882.225      166531.055        2911.340           0.239  
G03  22340235.175      -24069.696        -525.422           0.255  
G04  23628590.826      -99690.241       -2130.336           0.244  
G05  22513520.586       97996.803        2094.303           0.255  
G06  20630428.032      -18689.078        -474.975           0.255  
G07  23412864.203      -43780.243       -1332.583           0.248  
> 2023 05 18 00 01 03.4688020  0  6                     
G02  24285807.492      166822.126        2911.289           0.239  
G03  22340247.697      -24119.195        -496.559           0.255  
G04  23628645.353      -99903.228       -2130.335           0.244  
G05  22513468.699       98199.782        2032.170           0.255  
G06  20630440.024      -18736.587        -474.636           0.255  
G07  23412897.758      -43911.837       -1316.973           0.248  
> 2023 05 18 00 01 03.5688020  0  6                     
G02  24285733.250      167113.206        2911.334           0.239  
G03  22340260.495      -24168.805        -496.303           0.255  
G04  23628699.463     -100116.218       -2130.170           0.244  
G05  22513417.010       98403.045        2033.179           0.255  
G06  20630452.184      -18784.102        -474.668           0.255  
G07  23412930.825      -44043.556       -1317.083           0.248  
> 2023 05 18 00 01 03.6688020  0  6                     
G02  24285660.211      167404.269        2910.165           0.239  
G03  22340272.605      -24218.415        -495.562           0.255  
G04  23628754.243     -100329.198       -2129.434           0.244  
G05  22513365.211       98606.314        2033.593           0.255  
G06  20630464.344      -18831.633        -474.814           0.255  
G07  23412965.247      -44175.274       -1317.598           0.248  
> 2023 05 18 00 01 03.7688020  0  6                     
G02  24285585.651      167695.338        2910.997           0.239  
G03  22340285.512      -24268.039        -496.102           0.255  
G04  23628808.119     -100542.197       -2130.076           0.244  
G05  22513313.437       98809.558        2031.483           0.255  
G06  20630476.418      -18879.153        -475.165           0.255  
G07  23412998.713      -44306.998       -1317.316           0.248  
> 2023 05 18 00 01 03.8688020  0  6                     
G02  24285511.545      167986.407        2910.656           0.239  
G03  22340298.230      -24317.666        -496.161           0.255  
G04  23628862.106     -100755.192       -2130.058           0.244  
G05  22513261.621       99012.806        2032.025           0.255  
G06  20630488.557      -18926.683        -475.475           0.255  
G07  23413032.126      -44438.723       -1317.072           0.248  
> 2023 05 18 00 01 03.9688020  0  6                     
G02  24285437.188      168277.483        2910.569           0.239  
G03  22340310.998      -24367.295        -496.558           0.255  
G04  23628916.736     -100968.195       -2129.892           0.244  
G05  22513210.089       99216.054        2033.166           0.255  
G06  20630500.632      -18974.211        -475.518           0.255  
G07  23413065.680      -44570.457       -1317.193           0.248  
> 2023 05 18 00 01 04.0688020  0  6                     
G02  24285363.141      168568.554        2910.565           0.239  
G03  22340323.257      -24416.930        -496.559           0.255  
G04  23628970.779     -101181.191       -2130.273           0.244  
G05  22513158.240       99419.314        2034.110           0.255  
G06  20630512.828      -19021.745        -475.730           0.255  
G07  23413099.038      -44702.197       -1317.913           0.248  
> 2023 05 18 00 01 04.1688020  0  6                     
G02  24285289.357      168859.615        2910.997           0.239  
G03  22340335.821      -24466.566        -495.933           0.255  
G04  23629024.597     -101394.187       -2130.224           0.244  
G05  22513106.507       99622.550        2031.854           0.255  
G06  20630524.802      -19069.272        -475.563           0.255  
G07  23413132.876      -44833.932       -1317.228           0.248  
> 2023 05 18 00 01 04.2688020  0  6                     
G02  24285215.889      169150.684        2911.177           0.239  
G03  22340348.582      -24516.218        -496.571           0.255  
G04  23629078.907     -101607.187       -2129.982           0.244  
G05  22513054.248       99826.132        2040.591           0.255  
G06  20630536.930      -19116.814        -474.758           0.255  
G07  23413166.449      -44965.676       -1317.414           0.248  
> 2023 05 18 00 01 04.3688020  0  6                     
G02  24285141.096      169441.752        2910.882           0.239  
G03  22340361.457      -24565.861        -496.632           0.255  
G04  23629132.614     -101820.188       -2130.209           0.244  
G05  22513002.782      100029.040        2033.154           0.255  
G06  20630548.938      -19164.358        -475.238           0.255  
G07  23413199.899      -45097.416       -1317.479           0.248  
> 2023 05 18 00 01 04.4688020  0  6                     
G02  24285066.401      169732.824        2910.065           0.239  
G03  22340374.167      -24615.512        -496.532           0.255  
G04  23629186.616     -102033.184       -2129.909           0.244  
G05  22512950.743      100232.288        2033.698           0.255  
G06  20630560.853      -19211.906        -475.646           0.255  
G07  23413234.099      -45229.159       -1317.149           0.248  
> 2023 05 18 00 01 04.5688020  0  6                     
G02  24284991.055      170023.906        2911.314           0.239  
G03  22340387.068      -24665.176        -496.090           0.255  
G04  23629241.339     -102246.191       -2130.573           0.244  
G05  22512899.205      100435.520        2031.890           0.255  
G06  20630573.467      -19259.465        -475.556           0.255  
G07  23413266.849      -45360.911       -1317.241           0.248  
> 2023 05 18 00 01 04.6688020  0  6                     
G02  24284917.717      170314.970        2910.612           0.239  
G03  22340399.897      -24714.832        -496.391           0.255  
G04  23629295.278     -102459.329       -2123.641           0.244  
G05  22512847.357      100639.129        2047.572           0.255  
G06  20630585.409      -19307.008        -474.790           0.255  
G07  23413299.755      -45492.548       -1311.673           0.248  
> 2023 05 18 00 01 04.7688020  0  6                     
G02  24284843.955      170606.039        2910.109           0.239  
G03  22340412.123      -24764.499        -496.701           0.255  
G04  23629350.408     -102672.223       -2121.682           0.244  
G05  22512795.459      100841.988        2032.811           0.255  
G06  20630597.378      -19354.567        -474.800           0.255  
G07  23413333.780      -45624.405       -1317.312           0.248  
> 2023 05 18 00 01 04.8688020  0  6                     
G02  24284769.893      170897.119        2910.923           0.239  
G03  22340424.748      -24814.172        -497.733           0.255  
G04  23629405.330     -102885.191       -2129.278           0.244  
G05  22512744.053      101045.231        2033.093           0.255  
G06  20630609.478      -19402.127        -475.491           0.255  
G07  23413367.042      -45756.170       -1318.066           0.248  
> 2023 05 18 00 01 04.9688020  0  6                     
G02  24284695.647      171188.172        2911.067           0.239  
G03  22340437.363      -24863.848        -496.913           0.255  
G04  23629459.696     -103098.202       -2129.996           0.244  
G05  22512691.952      101248.458        2032.071           0.255  
G06  20630621.766      -19449.693        -475.238           0.255  
G07  23413401.031      -45887.926       -1318.490           0.248  
> 2023 05 18 00 01 05.0688020  0  6                     
G02  24284620.668      171479.237        2910.666           0.239  
G03  22340449.730      -24913.524        -497.003           0.255  
G04  23629513.941     -103311.208       -2129.948           0.244  
G05  22512639.998      101451.668        2030.727           0.255  
G06  20630633.960      -19497.259        -475.641           0.255  
G07  23413434.857      -46019.692       -1318.025           0.248  
> 2023 05 18 00 01 05.1688020  0  6                     
G02  24284546.758      171770.308        2910.854           0.239  
G03  22340462.480      -24963.207        -497.134           0.255  
G04  23629568.240     -103524.214       -2130.185           0.244  
G05  22512588.321      101654.893        2032.168           0.255  
G06  20630645.978      -19544.826        -475.533           0.255  
G07  23413468.332      -46151.456       -1317.891           0.248  
> 2023 05 18 00 01 05.2688020  0  6                     
G02  24284473.708      172061.377        2910.068           0.239  
G03  22340475.303      -25012.897        -497.209           0.255  
G04  23629622.392     -103737.224       -2130.434           0.244  
G05  22512536.157      101858.119        2032.798           0.255  
G06  20630658.163      -19592.403        -475.279           0.255  
G07  23413501.918      -46283.227       -1317.745           0.248  
> 2023 05 18 00 01 05.3688020  0  6                     
G02  24284399.431      172352.454        2910.456           0.239  
G03  22340487.818      -25062.595        -497.034           0.255  
G04  23629676.793     -103950.229       -2130.680           0.244  
G05  22512484.567      102061.403        2102.905           0.255  
G06  20630670.338      -19639.978        -475.457           0.255  
G07  23413534.974      -46414.828       -1296.234           0.248  
> 2023 05 18 00 01 05.4688020  0  6                     
G02  24284324.630      172643.524        2911.258           0.239  
G03  22340501.371      -25112.301        -498.186           0.255  
G04  23629731.204     -104163.242       -2130.216           0.244  
G05  22512432.275      102264.561        2031.705           0.255  
G06  20630681.924      -19687.567        -475.563           0.255  
G07  23413568.600      -46546.771       -1318.080           0.248  
> 2023 05 18 00 01 05.5688020  0  6                     
G02  24284250.415      172934.525        2934.706           0.239  
G03  22340514.075      -25161.856        -461.705           0.255  
G04  23629784.705     -104376.280       -2142.434           0.244  
G05  22512381.019      102467.772        2031.552           0.255  
G06  20630694.289      -19735.152        -476.021           0.255  
G07  23413603.186      -46678.498       -1332.018           0.248  
> 2023 05 18 00 01 05.6688020  0  6                     
G02  24284176.387      173225.662        2910.418           0.239  
G03  22340526.047      -25211.694        -497.001           0.255  
G04  23629839.063     -104589.266       -2130.665           0.244  
G05  22512329.056      102670.727        1966.586           0.255  
G06  20630706.429      -19782.739        -475.946           0.255  
G07  23413636.913      -46810.322       -1318.064           0.248  
> 2023 05 18 00 01 05.7688020  0  6                     
G02  24284102.119      173516.726        2910.853           0.239  
G03  22340538.582      -25261.359        -494.924           0.255  
G04  23629894.364     -104802.276       -2130.154           0.244  
G05  22512276.915      102874.211        2033.179           0.255  
G06  20630718.821      -19830.324        -475.435           0.255  
G07  23413669.537      -46942.132       -1327.514           0.248  
> 2023 05 18 00 01 05.8688020  0  6                     
G02  24284028.335      173807.795        2910.941           0.239  
G03  22340552.062      -25311.076        -500.942           0.255  
G04  23629947.986     -105015.286       -2129.819           0.244  
G05  22512225.244      103077.416        2032.104           0.255  
G06  20630730.244      -19877.925        -476.386           0.255  
G07  23413703.868      -47073.800       -1309.604           0.248  
> 2023 05 18 00 01 05.9688020  0  6                     
G02  24283954.553      174098.867        2911.669           0.239  
G03  22340564.525      -25360.840        -497.271           0.255  
G04  23630001.929     -105228.306       -2130.438           0.244  
G05  22512173.657      103280.623        2031.010           0.255  
G06  20630742.182      -19925.520        -476.371           0.255  
G07  23413737.926      -47205.683       -1318.318           0.248  
> 2023 05 18 00 01 06.0688020  0  7                     
G02  24283879.670      174389.935        2910.033           0.239  
G03  22340576.328      -25410.561        -496.990           0.255  
G04  23630057.077     -105441.321       -2130.009           0.244  
G05  22512122.355      103483.825        2031.579           0.255  
G06  20630754.795      -19973.121        -476.683           0.255  
G07  23413771.151      -47337.475       -1317.905           0.248  
G09  23111370.343      -46531.997       -1434.654           0.251  
> 2023 05 18 00 01 06.1688020  0  7                     
G02  24283805.716      174681.005        2909.924           0.239  
G03  22340589.352      -25460.300        -497.394           0.255  
G04  23630110.944     -105654.333       -2129.455           0.244  
G05  22512070.599      103687.038        2033.204           0.255  
G06  20630767.360      -20020.729        -476.426           0.255  
G07  23413804.715      -47469.293       -1308.469           0.248  
G09  23111406.355      -46675.627       -1435.750           0.251  
> 2023 05 18 00 01 06.2688020  0  7                     
G02  24283730.551      174972.083        2910.164           0.239  
G03  22340601.943      -25510.030        -497.135           0.255  
G04  23630164.678     -105867.347       -2129.565           0.244  
G05  22512018.697      103890.235        2033.134           0.255  
G06  20630779.410      -20068.337        -476.375           0.255  
G07  23413838.238      -47601.066       -1317.409           0.248  
G09  23111443.229      -46819.261       -1436.021           0.252  
> 2023 05 18 00 01 06.3688020  0  7                     
G02  24283656.860      175263.155        2911.430           0.239  
G03  22340614.412      -25559.769        -497.250           0.255  
G04  23630219.409     -106080.375       -2130.487           0.244  
G05  22511966.486      104093.737        2126.514           0.255  
G06  20630791.767      -20115.953        -476.276           0.255  
G07  23413871.339      -47732.865       -1317.662           0.248  
G09  23111480.093      -46962.574       -1394.896           0.252  
> 2023 05 18 00 01 06.4688020  0  7                     
G02  24283582.716      175554.220        2910.185           0.239  
G03  22340627.237      -25609.510        -496.717           0.255  
G04  23630273.888     -106293.393       -2129.907           0.244  
G05  22511915.149      104296.627        2030.667           0.255  
G06  20630803.766      -20163.566        -476.635           0.255  
G07  23413904.695      -47864.674       -1318.162           0.248  
G09  23111516.163      -47106.525       -1435.802           0.252  
> 2023 05 18 00 01 06.5688020  0  7                     
G02  24283508.646      175845.294        2910.457           0.239  
G03  22340640.015      -25659.262        -497.387           0.255  
G04  23630328.138     -106506.412       -2130.114           0.244  
G05  22511863.421      104499.816        2031.025           0.255  
G06  20630815.887      -20211.184        -476.242           0.255  
G07  23413938.667      -47996.479       -1318.507           0.248  
G09  23111553.211      -47250.163       -1436.048           0.252  
> 2023 05 18 00 01 06.6688020  0  7                     
G02  24283434.692      176136.364        2910.742           0.239  
G03  22340652.559      -25709.012        -497.882           0.255  
G04  23630382.665     -106719.433       -2129.957           0.244  
G05  22511811.463      104703.010        2032.309           0.255  
G06  20630827.797      -20258.807        -476.545           0.255  
G07  23413972.690      -48128.286       -1317.939           0.248  
G09  23111590.867      -47393.788       -1434.911           0.251  
> 2023 05 18 00 01 06.7688020  0  7                     
G02  24283359.481      176427.439        2911.444           0.239  
G03  22340666.195      -25758.767        -497.903           0.255  
G04  23630436.750     -106932.466       -2130.413           0.244  
G05  22511760.277      104906.208        2032.444           0.255  
G06  20630839.954      -20306.431        -475.875           0.255  
G07  23414005.407      -48260.101       -1318.309           0.248  
G09  23111625.914      -47537.438       -1437.007           0.251  
> 2023 05 18 00 01 06.8688020  0  7                     
G02  24283285.786      176718.504        2910.942           0.239  
G03  22340678.744      -25808.531        -497.945           0.255  
G04  23630490.567     -107145.487       -2130.138           0.244  
G05  22511708.010      105109.395        2032.209           0.255  
G06  20630852.297      -20354.061        -475.935           0.255  
G07  23414038.255      -48391.919       -1317.875           0.248  
G09  23111663.234      -47681.078       -1437.640           0.251  
> 2023 05 18 00 01 06.9688020  0  7                     
G02  24283211.619      177009.572        2910.898           0.239  
G03  22340691.586      -25858.296        -497.814           0.255  
G04  23630545.107     -107358.509       -2130.021           0.244  
G05  22511656.125      105312.574        2030.705           0.255  
G06  20630863.905      -20401.697        -476.412           0.255  
G07  23414072.890      -48523.741       -1318.092           0.248  
G09  23111699.600      -47824.719       -1437.148           0.251  
> 2023 05 18 00 01 07.0688020  0  7                     
G02  24283137.759      177300.649        2910.801           0.239  
G03  22340703.636      -25908.063        -497.585           0.255  
G04  23630599.387     -107571.537       -2130.168           0.244  
G05  22511604.889      105515.759        2030.609           0.255  
G06  20630876.498      -20449.336        -476.325           0.255  
G07  23414106.343      -48655.564       -1318.186           0.248  
G09  23111735.952      -47968.357       -1436.641           0.252  
> 2023 05 18 00 01 07.1688020  0  7                     
G02  24283063.051      177591.729        2912.052           0.239  
G03  22340716.201      -25957.839        -497.418           0.255  
G04  23630653.833     -107784.567       -2130.311           0.244  
G05  22511553.209      105718.941        2031.693           0.255  
G06  20630889.014      -20496.975        -476.778           0.255  
G07  23414139.899      -48787.381       -1317.787           0.248  
G09  23111771.358      -48111.996       -1435.496           0.251  
> 2023 05 18 00 01 07.2688020  0  7                     
G02  24282989.206      177882.802        2911.871           0.239  
G03  22340728.841      -26007.625        -497.940           0.255  
G04  23630707.862     -107997.598       -2130.614           0.244  
G05  22511501.698      105921.297        1897.236           0.255  
G06  20630901.125      -20544.614        -476.183           0.255  
G07  23414173.037      -48919.380       -1358.333           0.248  
G09  23111808.606      -48255.249       -1389.788           0.251  
> 2023 05 18 00 01 07.3688020  0  7                     
G02  24282914.159      178173.870        2911.043           0.239  
G03  22340741.886      -26057.407        -498.025           0.255  
G04  23630762.921     -108210.627       -2130.111           0.244  
G05  22511449.545      106125.304        2032.907           0.255  
G06  20630912.868      -20592.259        -476.145           0.255  
G07  23414207.829      -49051.035       -1317.910           0.248  
G09  23111845.112      -48399.276       -1437.023           0.252  
> 2023 05 18 00 01 07.4688020  0  7                     
G02  24282841.326      178464.939        2910.785           0.239  
G03  22340753.657      -26107.191        -498.029           0.255  
G04  23630815.944     -108423.653       -2130.753           0.244  
G05  22511397.606      106328.476        2031.940           0.255  
G06  20630925.498      -20639.908        -476.165           0.255  
G07  23414240.571      -49182.867       -1318.713           0.248  
G09  23111881.790      -48542.928       -1437.271           0.252  
> 2023 05 18 00 01 07.5688020  0  7                     
G02  24282766.870      178756.011        2910.849           0.239  
G03  22340766.585      -26156.983        -497.889           0.255  
G04  23630870.740     -108636.686       -2130.239           0.244  
G05  22511345.187      106531.639        2029.930           0.255  
G06  20630937.286      -20687.560        -476.397           0.255  
G07  23414274.517      -49314.708       -1318.597           0.248  
G09  23111918.897      -48686.556       -1436.572           0.252  
> 2023 05 18 00 01 07.6688020  0  7                     
G02  24282692.949      179047.077        2911.335           0.239  
G03  22340778.155      -26206.789        -498.606           0.255  
G04  23630925.373     -108849.722       -2130.493           0.244  
G05  22511293.504      106734.809        2030.766           0.255  
G06  20630950.003      -20735.217        -476.544           0.255  
G07  23414308.408      -49446.539       -1318.426           0.248  
G09  23111956.060      -48830.199       -1436.106           0.252  
> 2023 05 18 00 01 07.7688020  0  7                     
G02  24282619.555      179338.241        2901.422           0.239  
G03  22340792.532      -26256.403        -467.533           0.255  
G04  23630978.958     -109062.757       -2130.083           0.244  
G05  22511241.610      106937.736        2027.420           0.255  
G06  20630961.670      -20782.882        -476.913           0.255  
G07  23414342.608      -49578.365       -1325.747           0.248  
G09  23111991.673      -48973.845       -1435.869           0.251  
> 2023 05 18 00 01 07.8688020  0  7                     
G02  24282544.729      179629.198        2911.014           0.239  
G03  22340805.594      -26306.387        -497.870           0.255  
G04  23631033.590     -109275.794       -2130.154           0.244  
G05  22511189.715      107140.620        1946.081           0.255  
G06  20630973.226      -20830.545        -476.964           0.255  
G07  23414375.310      -49709.972       -1267.583           0.248  
G09  23112028.908      -49117.494       -1437.042           0.251  
> 2023 05 18 00 01 07.9688020  0  7                     
G02  24282469.034      179920.256        2910.870           0.239  
G03  22340818.805      -26356.205        -498.713           0.255  
G04  23631087.854     -109488.867       -2141.031           0.244  
G05  22511138.253      107344.321        2032.725           0.255  
G06  20630985.458      -20878.210        -476.480           0.255  
G07  23414409.103      -49842.070       -1318.117           0.248  
G09  23112065.370      -49261.136       -1436.016           0.251  
> 2023 05 18 00 01 08.0688020  0  7                     
G02  24282395.288      180211.316        2910.023           0.239  
G03  22340831.276      -26406.016        -498.455           0.255  
G04  23631142.291     -109701.869       -2130.637           0.244  
G05  22511087.146      107547.480        2032.026           0.255  
G06  20630997.455      -20925.881        -476.506           0.255  
G07  23414442.641      -49973.926       -1318.751           0.248  
G09  23112103.145      -49404.788       -1436.724           0.251  
> 2023 05 18 00 01 08.1688020  0  7                     
G02  24282320.450      180502.386        2910.556           0.239  
G03  22340842.115      -26455.835        -498.449           0.255  
G04  23631196.546     -109914.900       -2129.852           0.244  
G05  22511035.199      107750.632        2030.393           0.255  
G06  20631010.625      -20973.556        -476.497           0.255  
G07  23414477.082      -50105.776       -1318.819           0.248  
G09  23112139.159      -49548.429       -1435.413           0.251  
> 2023 05 18 00 01 08.2688020  0  7                     
G02  24282246.704      180793.449        2911.831           0.239  
G03  22340856.087      -26505.658        -497.430           0.255  
G04  23631251.083     -110127.939       -2130.538           0.244  
G05  22510983.254      107953.784        2030.891           0.255  
G06  20631022.308      -21021.230        -477.004           0.255  
G07  23414508.218      -50237.630       -1318.428           0.248  
G09  23112176.284      -49691.946       -1414.264           0.252  
> 2023 05 18 00 01 08.3688020  0  7                     
G02  24282173.339      181084.516        2910.695           0.239  
G03  22340868.597      -26555.481        -497.793           0.255  
G04  23631305.647     -110340.984       -2130.244           0.244  
G05  22510931.238      108156.938        2031.315           0.255  
G06  20631033.698      -21068.914        -477.200           0.255  
G07  23414543.254      -50369.487       -1317.601           0.248  
G09  23112214.052      -49835.721       -1436.308           0.251  
> 2023 05 18 00 01 08.4688020  0  7                     
G02  24282098.616      181375.579        2910.844           0.239  
G03  22340880.338      -26605.315        -497.803           0.255  
G04  23631359.754     -110554.027       -2130.720           0.244  
G05  22510879.693      108360.105        2032.228           0.255  
G06  20631046.873      -21116.601        -476.971           0.255  
G07  23414577.343      -50501.356       -1318.543           0.248  
G09  23112248.598      -49979.377       -1436.613           0.251  
> 2023 05 18 00 01 08.5688020  0  7                     
G02  24282024.681      181666.647        2911.597           0.239  
G03  22340893.230      -26655.163        -498.521           0.255  
G04  23631414.174     -110767.070       -2130.782           0.244  
G05  22510827.916      108563.260        2032.567           0.255  
G06  20631058.549      -21164.285        -476.974           0.255  
G07  23414609.817      -50633.218       -1317.931           0.248  
G09  23112286.476      -50123.031       -1435.968           0.251  
> 2023 05 18 00 01 08.6688020  0  7                     
G02  24281951.311      181957.569        2910.520           0.239  
G03  22340906.147      -26704.996        -497.861           0.255  
G04  23631466.416     -110980.120       -2130.886           0.244  
G05  22510776.447      108766.407        2032.289           0.255  
G06  20631070.899      -21211.978        -476.911           0.255  
G07  23414643.587      -50765.171       -1294.195           0.248  
G09  23112322.249      -50266.683       -1437.267           0.252  
> 2023 05 18 00 01 08.7688020  0  7                     
G02  24281877.046      182248.779        2911.096           0.239  
G03  22340919.284      -26754.800        -528.212           0.255  
G04  23631522.156     -111193.126       -2132.850           0.244  
G05  22510724.250      108969.906        2112.392           0.255  
G06  20631083.433      -21259.669        -477.086           0.255  
G07  23414676.508      -50896.957       -1315.963           0.248  
G09  23112356.967      -50410.338       -1436.774           0.251  
> 2023 05 18 00 01 08.8688020  0  7                     
G02  24281803.016      182539.853        2912.416           0.239  
G03  22340932.825      -26804.722        -485.373           0.255  
G04  23631576.854     -111406.209       -2132.078           0.244  
G05  22510672.363      109172.682        2029.816           0.255  
G06  20631094.822      -21307.374        -476.976           0.255  
G07  23414711.161      -51028.835       -1318.738           0.248  
G09  23112394.493      -50553.955       -1496.922           0.251  
> 2023 05 18 00 01 08.9688020  0  7                     
G02  24281727.067      182830.915        2911.143           0.239  
G03  22340944.801      -26854.555        -498.423           0.255  
G04  23631631.955     -111619.256       -2130.695           0.244  
G05  22510619.599      109375.827        2031.121           0.255  
G06  20631107.625      -21355.068        -476.974           0.255  
G07  23414745.701      -51160.713       -1319.194           0.248  
G09  23112431.136      -50697.640       -1436.624           0.251  
> 2023 05 18 00 01 09.0688020  0  7                     
G02  24281655.564      183121.971        2909.708           0.239  
G03  22340957.465      -26904.423        -499.147           0.255  
G04  23631685.944     -111832.304       -2131.522           0.244  
G05  22510567.673      109578.961        2031.923           0.255  
G06  20631119.764      -21402.769        -476.526           0.255  
G07  23414779.000      -51292.589       -1318.780           0.248  
G09  23112468.958      -50841.289       -1436.470           0.252  
> 2023 05 18 00 01 09.1688020  0  7                     
G02  24281578.998      183413.038        2911.272           0.239  
G03  22340970.672      -26954.277        -499.235           0.255  
G04  23631739.963     -112045.353       -2130.771           0.244  
G05  22510516.731      109782.108        2032.294           0.255  
G06  20631131.032      -21450.482        -477.038           0.255  
G07  23414812.515      -51424.474       -1318.776           0.248  
G09  23112507.721      -50984.945       -1435.620           0.252  
> 2023 05 18 00 01 09.2688020  0  7                     
G02  24281505.740      183704.088        2909.985           0.239  
G03  22340982.953      -27004.153        -498.797           0.255  
G04  23631793.756     -112258.397       -2129.557           0.244  
G05  22510465.663      109985.251        2032.674           0.255  
G06  20631142.669      -21498.191        -476.981           0.255  
G07  23414845.746      -51556.359       -1318.715           0.248  
G09  23112545.342      -51128.595       -1436.589           0.251  
> 2023 05 18 00 01 09.3688020  0  7                     
G02  24281431.014      183995.151        2911.371           0.239  
G03  22340996.833      -27054.039        -488.962           0.255  
G04  23631847.875     -112471.444       -2130.571           0.244  
G05  22510413.582      110188.178        2036.515           0.255  
G06  20631153.965      -21545.909        -476.968           0.255  
G07  23414879.093      -51688.251       -1318.657           0.248  
G09  23112582.022      -51272.233       -1474.374           0.251  
> 2023 05 18 00 01 09.4688020  0  7                     
G02  24281357.206      184286.221        2911.660           0.238  
G03  22341009.410      -27103.900        -498.135           0.255  
G04  23631902.161     -112684.507       -2130.573           0.244  
G05  22510361.429      110391.508        2030.626           0.255  
G06  20631167.517      -21593.626        -477.244           0.255  
G07  23414912.894      -51820.143       -1319.204           0.248  
G09  23112615.693      -51415.917       -1437.078           0.251  
> 2023 05 18 00 01 09.5688020  0  7                     
G02  24281283.253      184577.280        2910.716           0.239  
G03  22341020.496      -27153.785        -498.842           0.255  
G04  23631956.086     -112897.559       -2130.000           0.244  
G05  22510309.885      110594.634        2029.976           0.255  
G06  20631180.087      -21641.351        -477.190           0.255  
G07  23414946.448      -51952.032       -1318.613           0.248  
G09  23112651.273      -51559.570       -1436.660           0.252  
> 2023 05 18 00 01 09.6688020  0  7                     
G02  24281208.659      184868.355        2911.189           0.239  
G03  22341033.822      -27203.673        -499.083           0.255  
G04  23632011.349     -113110.610       -2129.905           0.244  
G05  22510258.241      110797.758        2030.201           0.255  
G06  20631192.192      -21689.075        -477.516           0.255  
G07  23414980.217      -52083.718       -1301.896           0.248  
G09  23112687.238      -51703.224       -1435.565           0.251  
> 2023 05 18 00 01 09.7688020  0  7                     
G02  24281133.869      185159.410        2908.905           0.240  
G03  22341046.890      -27253.563        -499.174           0.255  
G04  23632065.652     -113323.665       -2129.325           0.244  
G05  22510206.610      111000.883        2030.984           0.255  
G06  20631203.940      -21736.806        -477.411           0.255  
G07  23415013.630      -52215.829       -1319.187           0.248  
G09  23112725.387      -51846.882       -1436.106           0.251  
> 2023 05 18 00 01 09.8688020  0  7                     
G02  24281060.929      185450.493        2912.772           0.239  
G03  22341059.078      -27303.457        -498.754           0.255  
G04  23632120.340     -113536.730       -2130.767           0.244  
G05  22510154.754      111204.006        2031.149           0.255  
G06  20631216.754      -21784.528        -476.897           0.255  
G07  23415046.617      -52347.731       -1318.772           0.248  
G09  23112761.197      -51990.560       -1437.685           0.252  
> 2023 05 18 00 01 09.9688020  0  7                     
G02  24280986.451      185741.547        2910.282           0.239  
G03  22341073.090      -27353.362        -499.198           0.255  
G04  23632174.867     -113749.787       -2131.095           0.244  
G05  22510103.067      111407.131        2032.037           0.255  
G06  20631228.789      -21832.269        -477.333           0.255  
G07  23415080.050      -52479.634       -1318.581           0.248  
G09  23112796.083      -52134.206       -1437.114           0.252  
> 2023 05 18 00 01 10.0688020  0  7                     
G02  24280911.448      186032.613        2913.284           0.239  
G03  22341084.414      -27403.265        -499.275           0.255  
G04  23632229.576     -113962.844       -2130.989           0.244  
G05  22510051.179      111610.248        2032.103           0.255  
G06  20631241.109      -21880.020        -477.274           0.255  
G07  23415114.474      -52611.546       -1318.715           0.248  
G09  23112833.458      -52277.836       -1436.477           0.252  
> 2023 05 18 00 01 10.1688020  0  7                     
G02  24280837.176      186323.663        2911.184           0.239  
G03  22341096.065      -27453.166        -498.203           0.255  
G04  23632283.207     -114175.902       -2130.898           0.244  
G05  22510000.148      111813.370        2032.076           0.255  
G06  20631252.952      -21927.761        -478.118           0.255  
G07  23415147.713      -52743.456       -1318.926           0.248  
G09  23112873.126      -52421.513       -1435.265           0.251  
> 2023 05 18 00 01 10.2688020  0  7                     
G02  24280762.726      186614.740        2912.797           0.239  
G03  22341108.845      -27503.093        -499.391           0.255  
G04  23632337.089     -114388.963       -2131.475           0.244  
G05  22509948.389      112016.813        2160.986           0.255  
G06  20631268.030      -21975.500        -477.347           0.255  
G07  23415181.548      -52875.332       -1320.314           0.248  
G09  23112900.989      -52565.509       -1447.394           0.251  
> 2023 05 18 00 01 10.3688020  0  7                     
G02  24280690.347      186905.781        2910.548           0.239  
G03  22341123.481      -27553.112        -503.274           0.255  
G04  23632391.366     -114602.027       -2130.655           0.244  
G05  22509896.330      112220.145        2128.208           0.255  
G06  20631277.993      -22023.248        -477.762           0.255  
G07  23415215.420      -53007.185       -1283.967           0.248  
G09  23112943.425      -52709.198       -1530.520           0.251  
> 2023 05 18 00 01 10.4688020  0  7                     
G02  24280615.844      187196.852        2910.606           0.239  
G03  22341134.835      -27602.930        -499.028           0.255  
G04  23632445.798     -114815.094       -2131.006           0.244  
G05  22509844.068      112422.686        2029.114           0.255  
G06  20631289.628      -22071.004        -477.387           0.255  
G07  23415249.620      -53139.209       -1319.088           0.248  
G09  23112981.957      -52852.515       -1436.683           0.251  
> 2023 05 18 00 01 10.5688020  0  7                     
G02  24280540.873      187487.917        2910.591           0.239  
G03  22341147.700      -27652.860        -499.337           0.255  
G04  23632499.547     -115028.160       -2130.952           0.244  
G05  22509792.652      112625.795        2030.619           0.255  
G06  20631301.481      -22118.758        -477.886           0.255  
G07  23415282.261      -53271.211       -1332.334           0.248  
G09  23113022.058      -52996.180       -1435.625           0.251  
> 2023 05 18 00 01 10.6688020  0  7                     
G02  24280467.467      187778.997        2912.263           0.239  
G03  22341160.297      -27702.881        -522.916           0.255  
G04  23632553.755     -115241.232       -2131.574           0.244  
G05  22509740.938      112828.900        2030.953           0.255  
G06  20631312.261      -22166.514        -477.535           0.255  
G07  23415316.031      -53403.104       -1332.370           0.248  
G09  23113059.949      -53139.847       -1436.479           0.250  
> 2023 05 18 00 01 10.7688020  0  7                     
G02  24280394.455      188070.039        2910.649           0.239  
G03  22341174.189      -27752.731        -499.453           0.255  
G04  23632607.884     -115454.295       -2131.301           0.244  
G05  22509688.765      113032.003        2031.346           0.255  
G06  20631324.494      -22214.279        -477.871           0.255  
G07  23415349.779      -53534.981       -1319.127           0.248  
G09  23113095.153      -53283.515       -1436.901           0.250  
> 2023 05 18 00 01 10.8688020  0  7                     
G02  24280319.473      188361.108        2911.381           0.239  
G03  22341186.050      -27802.675        -499.733           0.255  
G04  23632662.398     -115667.359       -2131.386           0.244  
G05  22509637.126      113235.109        2031.717           0.255  
G06  20631339.421      -22262.042        -477.546           0.255  
G07  23415383.611      -53666.918       -1319.277           0.248  
G09  23113126.277      -53427.176       -1436.318           0.251  
> 2023 05 18 00 01 10.9688020  0  7                     
G02  24280246.021      188652.178        2910.370           0.239  
G03  22341198.435      -27852.614        -499.691           0.255  
G04  23632716.620     -115880.438       -2130.446           0.244  
G05  22509585.279      113438.207        2032.259           0.255  
G06  20631350.766      -22309.819        -477.748           0.255  
G07  23415417.581      -53798.851       -1319.649           0.248  
G09  23113164.382      -53570.844       -1436.454           0.252  
> 2023 05 18 00 01 11.0688020  0  7                     
G02  24280170.521      188943.247        2910.079           0.239  
G03  22341212.111      -27902.563        -499.019           0.255  
G04  23632771.583     -116093.315       -2119.786           0.244  
G05  22509533.827      113641.304        2032.244           0.255  
G06  20631362.747      -22357.596        -478.262           0.255  
G07  23415451.297      -53930.791       -1320.037           0.248  
G09  23113199.522      -53714.502       -1436.490           0.251  
> 2023 05 18 00 01 11.1688020  0  7                     
G02  24280096.615      189234.309        2911.118           0.239  
G03  22341224.406      -27952.519        -498.723           0.255  
G04  23632825.723     -116306.578       -2130.741           0.244  
G05  22509482.030      113844.396        2031.139           0.255  
G06  20631375.516      -22405.361        -476.971           0.255  
G07  23415484.578      -54062.732       -1319.272           0.248  
G09  23113235.574      -53858.216       -1440.445           0.251  
> 2023 05 18 00 01 11.2688020  0  7                     
G02  24280021.308      189525.377        2911.322           0.239  
G03  22341237.325      -28002.474        -498.697           0.255  
G04  23632878.873     -116519.667       -2131.551           0.244  
G05  22509430.751      114047.479        2030.418           0.255  
G06  20631386.908      -22453.144        -477.856           0.255  
G07  23415518.385      -54194.671       -1318.943           0.248  
G09  23113273.824      -54001.876       -1438.624           0.251  
> 2023 05 18 00 01 11.3688020  0  7                     
G02  24279947.764      189816.434        2910.455           0.239  
G03  22341249.912      -28052.444        -498.729           0.255  
G04  23632934.170     -116732.739       -2131.806           0.244  
G05  22509378.471      114250.731        2096.397           0.255  
G06  20631399.381      -22500.935        -478.809           0.255  
G07  23415551.462      -54326.409       -1289.447           0.248  
G09  23113310.951      -54145.529       -1436.073           0.251  
> 2023 05 18 00 01 11.4688020  0  7                     
G02  24279873.956      190107.501        2910.755           0.239  
G03  22341262.820      -28102.488        -491.013           0.255  
G04  23632988.364     -116945.806       -2131.069           0.244  
G05  22509326.923      114454.061        2104.330           0.255  
G06  20631411.255      -22548.714        -477.627           0.255  
G07  23415585.099      -54458.583       -1321.251           0.248  
G09  23113347.032      -54289.206       -1438.227           0.251  
> 2023 05 18 00 01 11.5688020  0  7                     
G02  24279800.424      190398.570        2910.853           0.239  
G03  22341275.458      -28152.389        -498.952           0.255  
G04  23633042.625     -117158.880       -2130.815           0.244  
G05  22509275.040      114656.733        2029.743           0.255  
G06  20631423.843      -22596.503        -478.078           0.255  
G07  23415620.069      -54590.525       -1320.083           0.248  
G09  23113381.717      -54432.877       -1435.933           0.251  
> 2023 05 18 00 01 11.6688020  0  7                     
G02  24279725.530      190689.639        2911.326           0.239  
G03  22341288.622      -28202.371        -500.205           0.255  
G04  23633096.617     -117371.959       -2130.826           0.244  
G05  22509223.310      114859.817        2030.261           0.255  
G06  20631435.759      -22644.302        -477.806           0.255  
G07  23415653.208      -54722.483       -1320.279           0.248  
G09  23113420.006      -54576.546       -1436.984           0.251  
> 2023 05 18 00 01 11.7688020  0  7                     
G02  24279651.873      190980.706        2910.819           0.239  
G03  22341301.260      -28252.356        -500.147           0.255  
G04  23633150.723     -117585.039       -2131.191           0.244  
G05  22509171.852      115062.900        2030.857           0.255  
G06  20631447.828      -22692.097        -477.806           0.255  
G07  23415686.334      -54854.442       -1319.686           0.248  
G09  23113456.535      -54720.208       -1436.690           0.251  
> 2023 05 18 00 01 11.8688020  0  7                     
G02  24279577.393      191271.775        2910.962           0.239  
G03  22341313.990      -28302.504        -474.946           0.255  
G04  23633205.366     -117798.119       -2131.262           0.244  
G05  22509120.103      115266.023        1998.629           0.255  
G06  20631460.065      -22739.902        -478.562           0.255  
G07  23415720.014      -54986.394       -1318.742           0.248  
G09  23113493.051      -54863.886       -1436.672           0.251  
> 2023 05 18 00 01 11.9688020  0  7                     
G02  24279504.420      191562.841        2910.994           0.239  
G03  22341326.503      -28352.325        -498.841           0.255  
G04  23633258.973     -118011.196       -2130.942           0.244  
G05  22509068.285      115468.567        2002.469           0.255  
G06  20631472.553      -22787.709        -478.546           0.255  
G07  23415753.289      -55118.361       -1318.992           0.248  
G09  23113528.993      -55006.971       -1364.318           0.251  
> 2023 05 18 00 01 12.0688020  0  7                     
G02  24279428.560      191853.896        2909.474           0.239  
G03  22341340.036      -28402.324        -499.652           0.255  
G04  23633315.017     -118224.262       -2129.960           0.244  
G05  22509016.358      115671.670        1938.363           0.255  
G06  20631484.361      -22835.523        -478.234           0.255  
G07  23415786.715      -55250.330       -1320.343           0.248  
G09  23113565.842      -55151.227       -1436.061           0.252  
> 2023 05 18 00 01 12.1688020  0  7                     
G02  24279354.970      192144.967        2910.731           0.239  
G03  22341352.211      -28452.326        -499.559           0.255  
G04  23633368.627     -118437.345       -2130.483           0.244  
G05  22508964.355      115875.189        2031.436           0.255  
G06  20631496.154      -22883.330        -478.035           0.255  
G07  23415821.277      -55382.297       -1319.445           0.248  
G09  23113603.349      -55294.910       -1437.350           0.252  
> 2023 05 18 00 01 12.2688020  0  7                     
G02  24279280.291      192436.027        2910.567           0.239  
G03  22341365.091      -28502.326        -499.568           0.255  
G04  23633422.592     -118650.432       -2130.666           0.244  
G05  22508912.715      116077.619        1955.195           0.255  
G06  20631508.557      -22931.146        -478.228           0.255  
G07  23415854.432      -55514.266       -1319.757           0.248  
G09  23113639.232      -55438.591       -1437.073           0.252  
> 2023 05 18 00 01 12.3688020  0  7                     
G02  24279206.393      192727.091        2910.910           0.239  
G03  22341377.189      -28552.338        -500.614           0.255  
G04  23633476.525     -118863.519       -2130.514           0.244  
G05  22508860.906      116281.330        2031.894           0.255  
G06  20631521.181      -22978.958        -477.942           0.255  
G07  23415887.539      -55646.243       -1319.398           0.248  
G09  23113676.160      -55582.268       -1436.904           0.252  
> 2023 05 18 00 01 12.4688020  0  7                     
G02  24279132.511      193018.162        2911.447           0.239  
G03  22341389.663      -28602.367        -502.218           0.255  
G04  23633531.118     -119076.607       -2130.835           0.244  
G05  22508809.210      116484.392        2031.537           0.255  
G06  20631533.624      -23026.775        -477.381           0.255  
G07  23415921.073      -55778.220       -1319.416           0.248  
G09  23113713.002      -55725.947       -1436.443           0.251  
> 2023 05 18 00 01 12.5688020  0  7                     
G02  24279058.249      193309.223        2910.875           0.239  
G03  22341402.956      -28652.385        -500.754           0.255  
G04  23633585.749     -119289.689       -2130.507           0.244  
G05  22508757.638      116687.449        2030.910           0.255  
G06  20631546.204      -23074.600        -477.993           0.255  
G07  23415954.844      -55910.157       -1307.443           0.248  
G09  23113748.563      -55869.624       -1436.528           0.251  
> 2023 05 18 00 01 12.6688020  0  7                     
G02  24278983.574      193600.294        2911.746           0.239  
G03  22341415.702      -28702.400        -498.849           0.255  
G04  23633640.485     -119502.769       -2129.702           0.244  
G05  22508705.705      116890.500        2029.924           0.255  
G06  20631557.661      -23122.427        -478.193           0.255  
G07  23415989.194      -56042.189       -1320.363           0.248  
G09  23113787.291      -56013.324       -1437.980           0.251  
> 2023 05 18 00 01 12.7688020  0  7                     
G02  24278909.439      193891.351        2909.471           0.239  
G03  22341428.232      -28752.424        -500.163           0.255  
G04  23633694.325     -119715.858       -2130.376           0.244  
G05  22508654.000      117093.564        2029.790           0.255  
G06  20631569.573      -23170.269        -478.681           0.255  
G07  23416023.105      -56174.177       -1319.904           0.248  
G09  23113824.131      -56157.266       -1471.431           0.252  
> 2023 05 18 00 01 12.8688020  0  7                     
G02  24278835.359      194182.427        2911.447           0.239  
G03  22341441.581      -28802.454        -499.680           0.255  
G04  23633748.833     -119928.945       -2130.747           0.244  
G05  22508602.461      117296.706        2068.467           0.255  
G06  20631581.838      -23218.097        -478.303           0.255  
G07  23416055.396      -56306.121       -1320.074           0.248  
G09  23113860.263      -56300.730       -1451.384           0.251  
> 2023 05 18 00 01 12.9688020  0  7                     
G02  24278761.824      194473.492        2911.665           0.239  
G03  22341455.223      -28852.477        -498.795           0.255  
G04  23633803.093     -120142.039       -2131.353           0.244  
G05  22508550.952      117499.662        2028.911           0.255  
G06  20631593.721      -23265.945        -479.039           0.255  
G07  23416089.342      -56438.159       -1319.833           0.248  
G09  23113896.736      -56444.365       -1437.192           0.251  
> 2023 05 18 00 01 13.0688020  0  7                     
G02  24278687.846      194764.532        2910.471           0.239  
G03  22341467.211      -28902.526        -500.104           0.255  
G04  23633857.256     -120355.127       -2130.426           0.244  
G05  22508498.892      117702.719        2029.580           0.255  
G06  20631605.925      -23313.785        -478.711           0.255  
G07  23416123.214      -56570.153       -1319.510           0.248  
G09  23113932.628      -56588.040       -1435.978           0.252  
> 2023 05 18 00 01 13.1688020  0  7                     
G02  24278614.603      195055.604        2910.665           0.239  
G03  22341479.447      -28952.573        -500.932           0.255  
G04  23633910.445     -120568.220       -2130.782           0.244  
G05  22508447.189      117905.766        2030.081           0.255  
G06  20631618.202      -23361.628        -478.306           0.255  
G07  23416157.197      -56702.154       -1319.139           0.248  
G09  23113968.632      -56731.728       -1436.728           0.252  
> 2023 05 18 00 01 13.2688020  0  7                     
G02  24278539.301      195346.657        2911.302           0.239  
G03  22341492.329      -29002.625        -500.662           0.255  
G04  23633965.381     -120781.319       -2131.194           0.244  
G05  22508395.524      118108.809        2030.277           0.255  
G06  20631630.647      -23409.476        -478.090           0.255  
G07  23416191.411      -56834.152       -1319.732           0.248  
G09  23114006.291      -56875.412       -1436.816           0.252  
> 2023 05 18 00 01 13.3688020  0  7                     
G02  24278464.623      195637.720        2911.057           0.239  
G03  22341505.019      -29052.679        -500.589           0.255  
G04  23634019.745     -120994.405       -2130.535           0.244  
G05  22508343.587      118311.859        2029.971           0.255  
G06  20631643.032      -23457.331        -478.633           0.255  
G07  23416224.519      -56966.164       -1320.231           0.248  
G09  23114042.002      -57019.092       -1436.746           0.252  
> 2023 05 18 00 01 13.4688020  0  7                     
G02  24278389.941      195929.403        2957.384           0.239  
G03  22341518.349      -29102.444        -475.252           0.255  
G04  23634074.261     -121207.575       -2132.006           0.244  
G05  22508291.823      118513.788        1864.300           0.255  
G06  20631655.057      -23505.188        -478.514           0.255  
G07  23416258.053      -57098.199       -1333.942           0.248  
G09  23114078.558      -57162.781       -1436.135           0.252  
> 2023 05 18 00 01 13.5688020  0  7                     
G02  24278316.248      196219.272        2870.251           0.239  
G03  22341532.164      -29152.804        -501.408           0.255  
G04  23634128.606     -121420.136       -2110.200           0.244  
G05  22508240.212      118716.991        1889.570           0.255  
G06  20631666.802      -23553.044        -478.123           0.255  
G07  23416291.708      -57230.182       -1319.755           0.248  
G09  23114115.066      -57306.472       -1436.050           0.252  
> 2023 05 18 00 01 13.6688020  0  7                     
G02  24278242.770      196510.912        2911.704           0.239  
G03  22341542.732      -29202.863        -500.099           0.255  
G04  23634183.908     -121633.698       -2131.866           0.244  
G05  22508188.295      118920.976        2030.603           0.255  
G06  20631679.229      -23600.911        -478.826           0.255  
G07  23416325.041      -57362.202       -1320.291           0.248  
G09  23114152.543      -57450.166       -1436.966           0.252  
> 2023 05 18 00 01 13.7688020  0  7                     
G02  24278167.597      196801.977        2910.651           0.239  
G03  22341556.706      -29252.940        -500.224           0.255  
G04  23634237.605     -121846.794       -2131.158           0.244  
G05  22508136.771      119124.013        2030.648           0.255  
G06  20631691.025      -23648.774        -478.569           0.255  
G07  23416359.110      -57494.222       -1322.921           0.248  
G09  23114189.777      -57593.847       -1438.457           0.251  
> 2023 05 18 00 01 13.8688020  0  7                     
G02  24278094.550      197093.049        2911.483           0.239  
G03  22341569.432      -29302.912        -484.303           0.255  
G04  23634290.841     -122059.893       -2130.773           0.244  
G05  22508084.887      119327.088        1998.074           0.255  
G06  20631703.137      -23696.645        -478.442           0.255  
G07  23416392.722      -57626.236       -1320.911           0.248  
G09  23114225.700      -57737.540       -1436.531           0.251  
> 2023 05 18 00 01 13.9688020  0  7                     
G02  24278019.030      197384.098        2910.200           0.239  
G03  22341581.398      -29353.103        -501.081           0.255  
G04  23634346.093     -122272.987       -2130.265           0.244  
G05  22508033.433      119530.089        2031.360           0.255  
G06  20631715.719      -23744.513        -478.486           0.255  
G07  23416425.947      -57758.261       -1320.970           0.248  
G09  23114263.990      -57881.225       -1436.660           0.251  
> 2023 05 18 00 01 14.0688020  0  7                     
G02  24277944.657      197675.162        2910.483           0.239  
G03  22341596.484      -29403.197        -501.156           0.255  
G04  23634400.793     -122486.096       -2130.831           0.244  
G05  22507981.568      119733.114        2031.168           0.255  
G06  20631727.889      -23792.384        -478.149           0.255  
G07  23416460.232      -57890.285       -1320.878           0.248  
G09  23114298.901      -58024.919       -1437.686           0.252  
> 2023 05 18 00 01 14.1688020  0  7                     
G02  24277872.601      197966.238        2910.421           0.239  
G03  22341608.228      -29453.287        -502.055           0.255  
G04  23634452.952     -122699.203       -2129.759           0.244  
G05  22507929.979      119936.135        2031.336           0.255  
G06  20631740.728      -23840.271        -478.626           0.255  
G07  23416493.300      -58022.314       -1320.860           0.248  
G09  23114335.207      -58168.602       -1436.576           0.252  
> 2023 05 18 00 01 14.2688020  0  7                     
G02  24277797.751      198257.290        2911.017           0.239  
G03  22341619.225      -29503.374        -501.425           0.255  
G04  23634508.023     -122912.300       -2130.562           0.244  
G05  22507877.867      120139.160        2031.292           0.255  
G06  20631753.544      -23888.158        -478.541           0.255  
G07  23416527.388      -58154.339       -1320.489           0.248  
G09  23114371.475      -58312.300       -1437.723           0.251  
> 2023 05 18 00 01 14.3688020  0  7                     
G02  24277722.960      198548.345        2910.018           0.239  
G03  22341632.700      -29553.476        -501.583           0.255  
G04  23634563.125     -123125.283       -2109.696           0.244  
G05  22507826.058      120341.579        1926.088           0.255  
G06  20631765.300      -23936.042        -478.460           0.255  
G07  23416560.599      -58286.375       -1320.547           0.248  
G09  23114408.723      -58456.774       -1580.786           0.251  
> 2023 05 18 00 01 14.4688020  0  7                     
G02  24277648.969      198839.409        2910.537           0.239  
G03  22341645.554      -29603.822        -525.802           0.255  
G04  23634617.291     -123338.510       -2130.999           0.244  
G05  22507774.412      120545.203        2031.444           0.255  
G06  20631776.741      -23983.930        -478.821           0.255  
G07  23416594.551      -58418.410       -1320.547           0.248  
G09  23114445.903      -58599.695       -1436.971           0.251  
> 2023 05 18 00 01 14.5688020  0  7                     
G02  24277574.753      199130.469        2911.403           0.239  
G03  22341657.791      -29653.695        -501.320           0.255  
G04  23634671.492     -123551.619       -2131.467           0.244  
G05  22507722.638      120748.220        2031.609           0.255  
G06  20631789.163      -24031.825        -478.750           0.255  
G07  23416628.043      -58550.445       -1319.889           0.248  
G09  23114482.032      -58743.387       -1437.639           0.252  
> 2023 05 18 00 01 14.6688020  0  7                     
G02  24277500.577      199421.528        2910.847           0.239  
G03  22341671.844      -29703.809        -502.244           0.255  
G04  23634726.277     -123764.732       -2131.841           0.244  
G05  22507671.057      120951.238        2031.776           0.255  
G06  20631801.151      -24079.718        -478.716           0.255  
G07  23416661.896      -58682.488       -1320.466           0.248  
G09  23114518.106      -58887.086       -1437.600           0.251  
> 2023 05 18 00 01 14.7688020  0  7                     
G02  24277426.128      199712.588        2910.613           0.239  
G03  22341680.894      -29753.915        -501.195           0.255  
G04  23634780.606     -123977.838       -2131.309           0.244  
G05  22507619.439      121154.251        2031.862           0.255  
G06  20631815.064      -24127.626        -479.731           0.255  
G07  23416695.552      -58814.529       -1320.453           0.248  
G09  23114554.525      -59030.764       -1435.941           0.251  
> 2023 05 18 00 01 14.8688020  0  7                     
G02  24277353.060      200003.638        2910.118           0.239  
G03  22341694.775      -29804.045        -502.517           0.255  
G04  23634834.716     -124190.946       -2129.778           0.244  
G05  22507568.046      121357.260        2031.503           0.255  
G06  20631827.320      -24175.525        -478.382           0.255  
G07  23416728.743      -58946.580       -1320.429           0.248  
G09  23114590.162      -59174.467       -1436.687           0.252  
> 2023 05 18 00 01 14.9688020  0  7                     
G02  24277278.838      200294.707        2910.317           0.239  
G03  22341708.972      -29854.180        -502.392           0.255  
G04  23634888.029     -124404.061       -2131.083           0.244  
G05  22507516.276      121560.265        2031.788           0.255  
G06  20631838.606      -24223.431        -478.874           0.255  
G07  23416762.584      -59078.635       -1320.771           0.248  
G09  23114627.920      -59318.154       -1436.345           0.252  
> 2023 05 18 00 01 15.0688020  0  7                     
G02  24277203.333      200585.771        2911.051           0.239  
G03  22341721.795      -29904.303        -501.321           0.255  
G04  23634942.953     -124617.171       -2131.478           0.244  
G05  22507464.406      121763.271        2031.487           0.255  
G06  20631850.813      -24271.348        -479.293           0.255  
G07  23416796.769      -59210.690       -1320.862           0.248  
G09  23114664.246      -59461.855       -1435.786           0.251  
> 2023 05 18 00 01 15.1688020  0  7                     
G02  24277129.826      200876.828        2911.300           0.239  
G03  22341735.076      -29954.485        -471.868           0.255  
G04  23634998.221     -124830.280       -2131.503           0.244  
G05  22507412.463      121966.277        2031.583           0.255  
G06  20631862.747      -24319.258        -478.853           0.255  
G07  23416830.620      -59342.745       -1320.390           0.248  
G09  23114700.208      -59605.761       -1492.307           0.251  
> 2023 05 18 00 01 15.2688020  0  7                     
G02  24277054.754      201167.885        2910.370           0.240  
G03  22341748.075      -30004.582        -502.504           0.255  
G04  23635052.497     -125043.394       -2130.888           0.244  
G05  22507361.136      122169.281        2031.818           0.255  
G06  20631874.525      -24367.176        -478.582           0.255  
G07  23416863.125      -59474.808       -1321.126           0.248  
G09  23114737.663      -59749.271       -1437.648           0.251  
> 2023 05 18 00 01 15.3688020  0  7                     
G02  24276979.973      201458.940        2910.226           0.239  
G03  22341759.779      -30054.722        -502.481           0.255  
G04  23635107.362     -125256.508       -2130.694           0.244  
G05  22507309.412      122372.279        2031.551           0.255  
G06  20631887.284      -24415.096        -479.431           0.255  
G07  23416897.052      -59606.870       -1320.577           0.248  
G09  23114774.858      -59892.963       -1435.950           0.252  
> 2023 05 18 00 01 15.4688020  0  7                     
G02  24276908.148      201749.994        2910.232           0.239  
G03  22341773.842      -30104.861        -502.166           0.255  
G04  23635160.017     -125469.624       -2131.018           0.244  
G05  22507257.667      122575.279        2031.686           0.255  
G06  20631898.535      -24463.029        -478.737           0.255  
G07  23416930.723      -59738.844       -1310.935           0.248  
G09  23114812.848      -60036.663       -1438.512           0.252  
> 2023 05 18 00 01 15.5688020  0  7                     
G02  24276834.027      202041.065        2910.543           0.239  
G03  22341785.999      -30155.014        -501.062           0.255  
G04  23635214.584     -125682.742       -2131.025           0.244  
G05  22507205.565      122778.274        2031.295           0.255  
G06  20631911.229      -24510.950        -479.248           0.255  
G07  23416964.681      -59871.005       -1320.877           0.248  
G09  23114847.847      -60180.364       -1437.194           0.252  
> 2023 05 18 00 01 15.6688020  0  7                     
G02  24276758.684      202332.115        2910.396           0.239  
G03  22341798.653      -30205.176        -501.425           0.255  
G04  23635268.099     -125895.858       -2130.754           0.244  
G05  22507154.118      122981.267        2031.505           0.255  
G06  20631924.713      -24558.881        -479.286           0.255  
G07  23416998.316      -60003.080       -1320.966           0.248  
G09  23114881.619      -60324.064       -1436.967           0.252  
> 2023 05 18 00 01 15.7688020  0  7                     
G02  24276684.376      202623.174        2911.073           0.239  
G03  22341812.064      -30255.338        -501.177           0.255  
G04  23635323.448     -126108.976       -2132.081           0.244  
G05  22507101.922      123184.256        2031.431           0.255  
G06  20631936.595      -24606.821        -479.352           0.255  
G07  23417032.762      -60135.152       -1320.800           0.248  
G09  23114918.861      -60467.767       -1437.573           0.252  
> 2023 05 18 00 01 15.8688020  0  7                     
G02  24276611.211      202914.229        2909.660           0.239  
G03  22341824.284      -30305.504        -501.273           0.255  
G04  23635377.600     -126322.106       -2131.596           0.244  
G05  22507050.308      123387.248        2031.626           0.255  
G06  20631948.661      -24654.757        -479.825           0.255  
G07  23417065.635      -60267.234       -1321.003           0.248  
G09  23114957.081      -60611.465       -1436.400           0.251  
> 2023 05 18 00 01 15.9688020  0  7                     
G02  24276536.686      203205.855        3008.573           0.239  
G03  22341837.293      -30355.688        -500.934           0.255  
G04  23635431.536     -126535.234       -2132.565           0.244  
G05  22506998.771      123589.410        1915.104           0.255  
G06  20631960.878      -24702.692        -479.635           0.255  
G07  23417099.426      -60399.314       -1320.810           0.248  
G09  23114993.387      -60755.177       -1436.926           0.251  
> 2023 05 18 00 01 16.0688020  0  7                     
G02  24276462.197      203496.357        2910.423           0.239  
G03  22341850.038      -30405.855        -500.953           0.255  
G04  23635485.976     -126748.345       -2131.706           0.244  
G05  22506946.934      123793.211        2031.686           0.255  
G06  20631972.865      -24750.643        -479.413           0.255  
G07  23417133.157      -60531.404       -1321.584           0.248  
G09  23115030.407      -60898.874       -1437.307           0.252  
> 2023 05 18 00 01 16.1688020  0  7                     
G02  24276388.115      203787.420        2910.582           0.239  
G03  22341862.672      -30456.143        -502.261           0.255  
G04  23635540.602     -126961.469       -2131.067           0.244  
G05  22506895.182      123996.200        2031.210           0.255  
G06  20631984.666      -24798.590        -479.682           0.255  
G07  23417166.741      -60663.484       -1320.309           0.248  
G09  23115067.924      -61042.588       -1436.785           0.251  
> 2023 05 18 00 01 16.2688020  0  7                     
G02  24276312.918      204078.462        2909.853           0.239  
G03  22341875.131      -30506.225        -501.599           0.255  
G04  23635595.688     -127174.595       -2131.807           0.244  
G05  22506843.444      124198.562        1911.188           0.255  
G06  20631997.353      -24846.538        -479.331           0.255  
G07  23417201.023      -60795.573       -1320.720           0.248  
G09  23115103.977      -61186.300       -1437.769           0.252  
> 2023 05 18 00 01 16.3688020  0  7                     
G02  24276238.991      204369.546        2912.116           0.239  
G03  22341888.867      -30556.414        -501.632           0.255  
G04  23635650.127     -127387.731       -2131.487           0.244  
G05  22506791.712      124402.150        2030.613           0.255  
G06  20632008.262      -24894.496        -479.754           0.255  
G07  23417234.614      -60927.662       -1320.545           0.248  
G09  23115143.104      -61329.999       -1436.970           0.252  
> 2023 05 18 00 01 16.4688020  0  7                     
G02  24276164.900      204660.584        2910.295           0.239  
G03  22341902.282      -30606.606        -501.407           0.255  
G04  23635704.754     -127600.856       -2131.014           0.244  
G05  22506739.818      124605.131        2030.305           0.255  
G06  20632020.522      -24942.452        -479.277           0.255  
G07  23417268.355      -61059.758       -1320.932           0.248  
G09  23115178.260      -61473.710       -1437.740           0.252  
> 2023 05 18 00 01 16.5688020  0  7                     
G02  24276091.129      204951.643        2910.505           0.239  
G03  22341912.320      -30656.810        -500.480           0.255  
G04  23635758.634     -127813.990       -2131.610           0.244  
G05  22506688.248      124808.106        2030.732           0.255  
G06  20632034.521      -24990.412        -479.776           0.255  
G07  23417301.254      -61191.857       -1321.381           0.248  
G09  23115213.625      -61617.413       -1438.185           0.251  
> 2023 05 18 00 01 16.6688020  0  7                     
G02  24276017.867      205242.701        2909.080           0.240  
G03  22341927.532      -30707.015        -502.385           0.255  
G04  23635812.312     -128027.113       -2129.738           0.244  
G05  22506636.311      125011.081        2030.716           0.255  
G06  20632045.344      -25038.380        -479.410           0.255  
G07  23417334.818      -61323.954       -1320.855           0.248  
G09  23115250.826      -61761.132       -1437.880           0.252  
> 2023 05 18 00 01 16.7688020  0  7                     
G02  24275942.955      205533.769        2926.624           0.239  
G03  22341939.265      -30757.221        -502.338           0.255  
G04  23635865.669     -128240.249       -2130.749           0.244  
G05  22506584.620      125214.044        2030.696           0.255  
G06  20632058.381      -25086.349        -480.009           0.255  
G07  23417368.979      -61456.057       -1320.812           0.248  
G09  23115286.779      -61904.833       -1435.783           0.251  
> 2023 05 18 00 01 16.8688020  0  7                     
G02  24275869.661      205824.828        2910.442           0.239  
G03  22341951.968      -30807.435        -502.109           0.255  
G04  23635920.168     -128453.385       -2131.352           0.244  
G05  22506532.703      125417.008        2030.314           0.255  
G06  20632070.713      -25134.323        -479.838           0.255  
G07  23417403.317      -61588.163       -1321.187           0.248  
G09  23115322.667      -62048.548       -1436.569           0.251  
> 2023 05 18 00 01 16.9688020  0  7                     
G02  24275794.340      206115.893        2910.541           0.239  
G03  22341964.789      -30857.366        -496.407           0.255  
G04  23635974.882     -128666.522       -2131.912           0.244  
G05  22506481.190      125619.972        2030.764           0.255  
G06  20632082.418      -25182.295        -479.076           0.255  
G07  23417436.295      -61720.276       -1321.043           0.248  
G09  23115360.929      -62192.097       -1398.586           0.251  
> 2023 05 18 00 01 17.0688020  0  7                     
G02  24275719.337      206406.939        2910.280           0.239  
G03  22341977.893      -30907.880        -503.672           0.255  
G04  23636029.479     -128879.651       -2131.089           0.244  
G05  22506430.044      125822.925        2029.840           0.255  
G06  20632094.554      -25230.272        -478.892           0.255  
G07  23417469.793      -61852.386       -1321.375           0.248  
G09  23115397.464      -62335.976       -1437.219           0.252  
> 2023 05 18 00 01 17.1688020  0  7                     
G02  24275644.859      206697.999        2910.904           0.239  
G03  22341992.249      -30958.104        -501.804           0.255  
G04  23636085.037     -129092.798       -2131.042           0.244  
G05  22506378.647      126025.887        2029.435           0.255  
G06  20632105.953      -25278.247        -480.275           0.255  
G07  23417503.245      -61984.499       -1321.224           0.248  
G09  23115435.077      -62479.706       -1437.493           0.250  
> 2023 05 18 00 01 17.2688020  0  7                     
G02  24275571.206      206989.053        2910.420           0.239  
G03  22342003.887      -31008.334        -502.646           0.255  
G04  23636138.431     -129305.922       -2130.979           0.244  
G05  22506326.531      126228.849        2028.744           0.255  
G06  20632118.996      -25326.242        -479.421           0.255  
G07  23417537.018      -62116.615       -1321.210           0.248  
G09  23115469.991      -62623.401       -1437.620           0.251  
> 2023 05 18 00 01 17.3688020  0  7                     
G02  24275498.527      207280.117        2912.737           0.239  
G03  22342015.958      -31058.566        -503.155           0.255  
G04  23636191.626     -129519.058       -2132.544           0.244  
G05  22506274.756      126431.799        2028.415           0.255  
G06  20632130.955      -25374.231        -479.665           0.255  
G07  23417570.431      -62248.739       -1321.081           0.248  
G09  23115507.951      -62767.122       -1435.604           0.251  
> 2023 05 18 00 01 17.4688020  0  7                     
G02  24275423.221      207571.178        2910.728           0.239  
G03  22342028.963      -31108.796        -502.375           0.255  
G04  23636246.718     -129732.210       -2131.341           0.244  
G05  22506222.834      126635.303        2114.679           0.255  
G06  20632142.593      -25422.230        -480.273           0.255  
G07  23417604.457      -62380.899       -1327.045           0.248  
G09  23115547.674      -62910.824       -1436.871           0.251  
> 2023 05 18 00 01 17.5688020  0  7                     
G02  24275348.604      207862.330        2946.292           0.239  
G03  22342042.007      -31159.061        -512.428           0.255  
G04  23636301.496     -129945.351       -2131.947           0.244  
G05  22506171.127      126837.710        2028.027           0.255  
G06  20632156.042      -25470.228        -479.961           0.255  
G07  23417638.504      -62513.024       -1322.411           0.248  
G09  23115581.111      -63054.536       -1436.528           0.251  
> 2023 05 18 00 01 17.6688020  0  7                     
G02  24275275.189      208153.290        2911.087           0.239  
G03  22342054.708      -31209.297        -502.589           0.255  
G04  23636355.153     -130158.494       -2131.248           0.244  
G05  22506119.137      127040.658        2027.716           0.255  
G06  20632168.831      -25518.223        -479.938           0.255  
G07  23417671.917      -62645.273       -1338.374           0.248  
G09  23115615.694      -63198.251       -1436.497           0.252  
> 2023 05 18 00 01 17.7688020  0  7                     
G02  24275201.590      208444.344        2910.882           0.239  
G03  22342070.308      -31259.532        -503.066           0.255  
G04  23636409.471     -130371.626       -2131.007           0.244  
G05  22506067.695      127243.825        2116.381           0.255  
G06  20632179.151      -25566.237        -479.861           0.255  
G07  23417705.111      -62777.258       -1321.595           0.248  
G09  23115655.511      -63341.975       -1437.447           0.251  
> 2023 05 18 00 01 17.8688020  0  7                     
G02  24275126.002      208735.405        2910.499           0.239  
G03  22342082.763      -31309.727        -477.942           0.255  
G04  23636464.659     -130584.772       -2130.329           0.244  
G05  22506015.600      127446.554        2028.315           0.255  
G06  20632190.977      -25614.233        -480.134           0.255  
G07  23417738.733      -62909.394       -1321.336           0.248  
G09  23115691.824      -63485.450       -1445.328           0.251  
> 2023 05 18 00 01 17.9688020  0  7                     
G02  24275052.179      209026.455        2909.478           0.239  
G03  22342093.755      -31360.058        -502.219           0.255  
G04  23636519.113     -130797.919       -2131.883           0.244  
G05  22505963.699      127649.501        2029.082           0.255  
G06  20632205.266      -25662.244        -480.318           0.255  
G07  23417773.090      -63041.535       -1321.960           0.248  
G09  23115725.571      -63629.410       -1437.244           0.251  
> 2023 05 18 00 01 18.0688020  0  7                     
G02  24274977.880      209317.523        2910.141           0.239  
G03  22342106.047      -31410.329        -501.970           0.255  
G04  23636573.504     -131011.058       -2131.380           0.244  
G05  22505912.666      127852.446        2029.692           0.255  
G06  20632217.160      -25710.258        -480.276           0.255  
G07  23417805.936      -63173.678       -1322.020           0.248  
G09  23115762.325      -63773.116       -1437.419           0.251  
> 2023 05 18 00 01 18.1688020  0  7                     
G02  24274904.331      209608.154        2851.081           0.239  
G03  22342118.168      -31460.857        -546.584           0.255  
G04  23636627.588     -131224.258       -2137.440           0.244  
G05  22505861.016      128054.900        1964.809           0.255  
G06  20632229.359      -25758.271        -479.485           0.255  
G07  23417839.904      -63305.812       -1313.280           0.248  
G09  23115799.902      -63917.169       -1506.113           0.250  
> 2023 05 18 00 01 18.2688020  0  7                     
G02  24274830.184      209899.621        2910.469           0.239  
G03  22342129.454      -31510.869        -503.168           0.255  
G04  23636681.717     -131437.346       -2131.031           0.244  
G05  22505809.560      128258.320        2030.058           0.255  
G06  20632243.136      -25806.295        -479.783           0.255  
G07  23417873.630      -63437.969       -1321.215           0.248  
G09  23115835.689      -64060.563       -1437.148           0.252  
> 2023 05 18 00 01 18.3688020  0  7                     
G02  24274756.330      210190.779        2911.954           0.239  
G03  22342144.103      -31561.608        -501.460           0.255  
G04  23636735.684     -131650.499       -2131.426           0.244  
G05  22505757.318      128461.256        2030.462           0.255  
G06  20632254.641      -25854.310        -480.402           0.255  
G07  23417907.204      -63570.122       -1321.386           0.248  
G09  23115872.746      -64204.292       -1437.131           0.251  
> 2023 05 18 00 01 18.4688020  0  7                     
G02  24274682.350      210481.743        2910.918           0.239  
G03  22342157.008      -31611.422        -476.654           0.255  
G04  23636789.665     -131863.648       -2131.756           0.244  
G05  22505705.091      128664.183        2030.636           0.255  
G06  20632266.347      -25902.351        -481.659           0.255  
G07  23417940.786      -63702.277       -1321.570           0.248  
G09  23115910.039      -64348.005       -1436.125           0.251  
> 2023 05 18 00 01 18.5688020  0  7                     
G02  24274607.729      210772.809        2910.568           0.239  
G03  22342169.818      -31661.561        -485.751           0.255  
G04  23636844.080     -132076.795       -2131.582           0.244  
G05  22505653.730      128867.110        2030.171           0.255  
G06  20632278.410      -25950.374        -480.194           0.255  
G07  23417974.672      -63834.429       -1321.465           0.248  
G09  23115946.584      -64491.737       -1437.759           0.252  
> 2023 05 18 00 01 18.6688020  0  7                     
G02  24274533.270      211063.859        2910.126           0.239  
G03  22342182.271      -31712.026        -503.608           0.255  
G04  23636898.031     -132289.943       -2131.212           0.244  
G05  22505602.643      129070.039        2030.170           0.255  
G06  20632290.341      -25998.413        -480.729           0.255  
G07  23418008.332      -63966.587       -1321.730           0.248  
G09  23115984.628      -64634.765       -1336.433           0.252  
> 2023 05 18 00 01 18.7688020  0  7                     
G02  24274459.552      211354.916        2909.724           0.239  
G03  22342195.292      -31762.320        -503.306           0.255  
G04  23636951.863     -132503.093       -2131.102           0.244  
G05  22505550.727      129272.953        2029.433           0.255  
G06  20632302.873      -26046.444        -480.063           0.255  
G07  23418041.784      -64098.747       -1321.856           0.248  
G09  23116020.929      -64779.199       -1437.920           0.251  
> 2023 05 18 00 01 18.8688020  0  7                     
G02  24274385.303      211645.984        2911.336           0.239  
G03  22342207.430      -31812.645        -504.521           0.255  
G04  23637006.563     -132716.251       -2131.925           0.244  
G05  22505499.061      129475.874        2028.493           0.255  
G06  20632316.313      -26094.477        -479.582           0.255  
G07  23418075.666      -64230.916       -1322.116           0.248  
G09  23116054.118      -64922.916       -1437.198           0.252  
> 2023 05 18 00 01 18.9688020  0  7                     
G02  24274310.843      211937.033        2910.040           0.239  
G03  22342223.055      -31862.940        -502.501           0.255  
G04  23637061.112     -132929.313       -2114.671           0.244  
G05  22505447.403      129679.260        2099.695           0.255  
G06  20632326.857      -26142.526        -480.316           0.255  
G07  23418108.815      -64363.078       -1321.595           0.248  
G09  23116092.384      -65066.641       -1437.758           0.251  
> 2023 05 18 00 01 19.0688020  0  7                     
G02  24274237.223      212228.093        2910.049           0.239  
G03  22342234.633      -31913.243        -502.183           0.255  
G04  23637115.603     -133142.560       -2131.267           0.244  
G05  22505395.525      129881.711        2027.660           0.255  
G06  20632339.710      -26190.577        -480.482           0.255  
G07  23418142.543      -64495.250       -1322.011           0.248  
G09  23116128.976      -65210.374       -1438.352           0.252  
> 2023 05 18 00 01 19.1688020  0  7                     
G02  24274162.834      212519.153        2910.381           0.239  
G03  22342246.853      -31963.562        -503.079           0.255  
G04  23637170.172     -133355.707       -2131.148           0.244  
G05  22505343.028      130084.630        2027.116           0.255  
G06  20632352.107      -26238.630        -479.956           0.255  
G07  23418176.903      -64627.423       -1321.694           0.248  
G09  23116164.864      -65354.100       -1439.147           0.251  
> 2023 05 18 00 01 19.2688020  0  7                     
G02  24274089.030      212810.212        2909.853           0.239  
G03  22342260.037      -32013.880        -502.965           0.255  
G04  23637224.122     -133568.868       -2131.371           0.244  
G05  22505291.136      130287.476        2085.123           0.255  
G06  20632363.618      -26286.687        -480.285           0.255  
G07  23418209.888      -64759.603       -1321.686           0.248  
G09  23116203.397      -65497.812       -1438.625           0.252  
> 2023 05 18 00 01 19.3688020  0  7                     
G02  24274014.465      213101.271        2910.036           0.239  
G03  22342271.532      -32064.206        -504.322           0.255  
G04  23637278.015     -133782.027       -2131.334           0.244  
G05  22505239.769      130489.957        2019.807           0.255  
G06  20632376.924      -26334.741        -479.663           0.255  
G07  23418243.738      -64891.778       -1321.570           0.248  
G09  23116239.948      -65641.558       -1438.205           0.251  
> 2023 05 18 00 01 19.4688020  0  7                     
G02  24273939.748      213392.331        2910.689           0.239  
G03  22342284.781      -32114.550        -504.385           0.255  
G04  23637332.701     -133995.187       -2131.799           0.244  
G05  22505188.617      130693.380        2030.195           0.255  
G06  20632388.998      -26382.791        -479.028           0.255  
G07  23418277.707      -65023.966       -1322.261           0.248  
G09  23116276.221      -65785.291       -1439.860           0.252  
> 2023 05 18 00 01 19.5688020  0  7                     
G02  24273866.093      213683.398        2911.143           0.239  
G03  22342296.772      -32164.874        -501.608           0.255  
G04  23637387.525     -134208.348       -2131.920           0.244  
G05  22505136.907      130896.284        2030.265           0.255  
G06  20632401.341      -26430.869        -481.395           0.255  
G07  23418311.546      -65156.147       -1322.210           0.248  
G09  23116314.901      -65929.006       -1437.848           0.252  
> 2023 05 18 00 01 19.6688020  0  7                     
G02  24273791.894      213974.450        2910.511           0.239  
G03  22342310.181      -32215.203        -503.074           0.255  
G04  23637441.756     -134421.508       -2131.589           0.244  
G05  22505085.608      131099.192        2030.451           0.255  
G06  20632413.299      -26478.932        -480.776           0.255  
G07  23418345.523      -65288.339       -1322.363           0.248  
G09  23116349.870      -66072.754       -1436.816           0.251  
> 2023 05 18 00 01 19.7688020  0  7                     
G02  24273717.861      214265.506        2910.580           0.239  
G03  22342323.604      -32265.550        -503.624           0.255  
G04  23637495.919     -134634.663       -2131.388           0.244  
G05  22505033.685      131302.091        2030.034           0.255  
G06  20632424.543      -26527.004        -480.252           0.255  
G07  23418379.261      -65420.523       -1321.931           0.248  
G09  23116386.973      -66216.475       -1437.825           0.251  
> 2023 05 18 00 01 19.8688020  0  7                     
G02  24273643.974      214556.566        2910.025           0.239  
G03  22342336.788      -32315.896        -503.541           0.255  
G04  23637549.731     -134847.828       -2131.487           0.244  
G05  22504981.742      131504.985        2029.411           0.255  
G06  20632437.611      -26575.085        -481.029           0.255  
G07  23418412.632      -65552.721       -1321.644           0.248  
G09  23116423.115      -66360.211       -1436.946           0.251  
> 2023 05 18 00 01 19.9688020  0  7                     
G02  24273569.915      214847.626        2909.755           0.239  
G03  22342348.899      -32366.256        -503.984           0.255  
G04  23637604.149     -135060.991       -2131.055           0.244  
G05  22504930.265      131707.879        2028.849           0.255  
G06  20632449.824      -26623.161        -480.612           0.255  
G07  23418446.089      -65684.918       -1321.543           0.248  
G09  23116459.824      -66503.937       -1436.777           0.251  
> 2023 05 18 00 01 20.0688020  0  7                     
G02  24273495.263      215138.688        2910.760           0.239  
G03  22342362.586      -32416.614        -502.474           0.255  
G04  23637658.548     -135274.159       -2131.766           0.244  
G05  22504878.628      131910.774        2028.029           0.255  
G06  20632461.811      -26671.238        -480.604           0.255  
G07  23418479.707      -65817.125       -1321.958           0.248  
G09  23116497.474      -66647.674       -1438.154           0.251  
> 2023 05 18 00 01 20.1688020  0  7                     
G02  24273421.629      215429.757        2911.720           0.239  
G03  22342375.801      -32466.957        -502.074           0.255  
G04  23637713.112     -135487.325       -2131.836           0.244  
G05  22504826.547      132113.665        2027.250           0.255  
G06  20632474.009      -26719.338        -482.224           0.255  
G07  23418513.590      -65949.431       -1349.589           0.248  
G09  23116533.470      -66791.409       -1437.473           0.251  
> 2023 05 18 00 01 20.2688020  0  7                     
G02  24273347.097      215720.809        2911.413           0.239  
G03  22342387.521      -32517.331        -504.241           0.255  
G04  23637767.157     -135700.492       -2131.930           0.244  
G05  22504774.916      132316.527        2091.716           0.255  
G06  20632486.523      -26767.424        -481.090           0.255  
G07  23418547.551      -66081.529       -1321.812           0.248  
G09  23116568.834      -66935.221       -1429.714           0.251  
> 2023 05 18 00 01 20.3688020  0  7                     
G02  24273273.128      216011.868        2911.680           0.239  
G03  22342400.403      -32567.704        -503.966           0.255  
G04  23637821.998     -135913.648       -2131.342           0.244  
G05  22504722.950      132519.455        2028.786           0.255  
G06  20632498.234      -26815.510        -480.690           0.255  
G07  23418581.289      -66213.745       -1322.958           0.248  
G09  23116608.012      -67078.882       -1437.630           0.251  
> 2023 05 18 00 01 20.4688020  0  7                     
G02  24273198.068      216302.907        2909.499           0.239  
G03  22342413.543      -32618.081        -504.719           0.255  
G04  23637876.786     -136126.821       -2131.250           0.244  
G05  22504671.724      132722.350        2029.684           0.255  
G06  20632511.313      -26863.605        -480.685           0.255  
G07  23418615.125      -66345.952       -1322.129           0.248  
G09  23116641.579      -67222.620       -1437.322           0.251  
> 2023 05 18 00 01 20.5688020  0  7                     
G02  24273123.535      216594.113        2902.556           0.239  
G03  22342426.704      -32668.469        -503.788           0.255  
G04  23637930.778     -136340.119       -2149.989           0.244  
G05  22504620.304      132924.781        2041.197           0.255  
G06  20632523.616      -26911.699        -480.573           0.255  
G07  23418649.105      -66478.204       -1332.861           0.248  
G09  23116677.579      -67366.352       -1436.608           0.251  
> 2023 05 18 00 01 20.6688020  0  7                     
G02  24273050.414      216884.566        2838.611           0.239  
G03  22342440.740      -32718.732        -428.745           0.255  
G04  23637985.323     -136553.028       -2106.920           0.244  
G05  22504568.380      133128.101        2030.047           0.255  
G06  20632534.972      -26959.812        -481.910           0.255  
G07  23418681.890      -66610.593       -1335.385           0.248  
G09  23116715.332      -67510.092       -1437.338           0.251  
> 2023 05 18 00 01 20.7688020  0  7                     
G02  24272976.372      217175.759        2887.473           0.239  
G03  22342452.520      -32769.313        -537.414           0.255  
G04  23638039.343     -136766.340       -2132.062           0.244  
G05  22504516.666      133331.369        2046.842           0.255  
G06  20632547.522      -27007.923        -481.135           0.255  
G07  23418715.766      -66742.735       -1337.963           0.248  
G09  23116752.496      -67653.420       -1388.750           0.252  
> 2023 05 18 00 01 20.8688020  0  7                     
G02  24272901.959      217467.125        2911.003           0.239  
G03  22342464.953      -32819.626        -504.425           0.255  
G04  23638093.248     -136979.504       -2132.166           0.244  
G05  22504464.644      133533.851        2028.352           0.255  
G06  20632559.885      -27056.028        -481.207           0.255  
G07  23418749.652      -66874.823       -1322.335           0.248  
G09  23116789.746      -67797.569       -1436.863           0.251  
> 2023 05 18 00 01 20.9688020  0  7                     
G02  24272827.695      217758.173        2910.198           0.239  
G03  22342477.902      -32870.028        -504.552           0.255  
G04  23638147.970     -137192.680       -2131.252           0.244  
G05  22504413.031      133736.727        2027.260           0.255  
G06  20632571.903      -27104.140        -481.105           0.255  
G07  23418783.175      -67007.049       -1322.541           0.248  
G09  23116825.258      -67941.305       -1437.053           0.251  
> 2023 05 18 00 01 21.0688020  0  7                     
G02  24272753.064      218049.226        2910.390           0.239  
G03  22342489.876      -32920.424        -504.033           0.255  
G04  23638202.736     -137405.866       -2131.802           0.244  
G05  22504361.417      133939.603        2026.988           0.255  
G06  20632584.626      -27152.258        -481.398           0.255  
G07  23418817.113      -67139.278       -1322.349           0.248  
G09  23116862.802      -68085.039       -1436.642           0.251  
> 2023 05 18 00 01 21.1688020  0  7                     
G02  24272679.184      218340.285        2910.808           0.239  
G03  22342504.252      -32970.831        -503.088           0.255  
G04  23638256.839     -137619.041       -2131.369           0.244  
G05  22504309.682      134142.485        2028.350           0.255  
G06  20632596.709      -27200.376        -481.807           0.255  
G07  23418850.681      -67271.510       -1322.136           0.248  
G09  23116899.087      -68228.786       -1436.200           0.251  
> 2023 05 18 00 01 21.2688020  0  7                     
G02  24272605.528      218631.334        2910.607           0.239  
G03  22342516.650      -33021.228        -503.186           0.255  
G04  23638310.735     -137832.216       -2131.425           0.244  
G05  22504257.619      134345.360        2029.672           0.255  
G06  20632608.957      -27248.504        -481.967           0.255  
G07  23418884.483      -67403.744       -1322.306           0.248  
G09  23116935.233      -68372.537       -1437.546           0.251  
> 2023 05 18 00 01 21.3688020  0  7                     
G02  24272531.371      218922.373        2911.005           0.239  
G03  22342528.694      -33071.665        -505.706           0.255  
G04  23638365.142     -138045.394       -2131.634           0.244  
G05  22504206.049      134548.228        2030.371           0.255  
G06  20632621.826      -27296.621        -480.418           0.255  
G07  23418917.730      -67535.986       -1322.663           0.248  
G09  23116972.406      -68516.284       -1437.602           0.251  
> 2023 05 18 00 01 21.4688020  0  7                     
G02  24272457.541      219213.427        2910.618           0.239  
G03  22342542.161      -33122.088        -503.975           0.255  
G04  23638419.107     -138258.571       -2131.573           0.244  
G05  22504154.403      134751.382        2019.923           0.255  
G06  20632633.656      -27344.751        -481.132           0.255  
G07  23418951.698      -67668.222       -1322.710           0.248  
G09  23117008.832      -68660.173       -1454.529           0.251  
> 2023 05 18 00 01 21.5688020  0  7                     
G02  24272382.452      219504.548        2908.266           0.239  
G03  22342555.607      -33172.507        -504.723           0.255  
G04  23638473.359     -138471.753       -2131.549           0.244  
G05  22504102.904      134953.937        2029.029           0.255  
G06  20632645.556      -27392.885        -481.232           0.255  
G07  23418985.562      -67800.470       -1322.854           0.248  
G09  23117045.826      -68803.419       -1423.435           0.251  
> 2023 05 18 00 01 21.6688020  0  7                     
G02  24272308.277      219795.534        2910.554           0.239  
G03  22342567.603      -33222.935        -503.947           0.255  
G04  23638527.595     -138684.936       -2131.478           0.244  
G05  22504051.284      135156.799        2027.769           0.255  
G06  20632658.465      -27441.025        -481.674           0.255  
G07  23419019.143      -67932.709       -1322.033           0.248  
G09  23117081.535      -68947.515       -1438.275           0.251  
> 2023 05 18 00 01 21.7688020  0  7                     
G02  24272234.178      220086.583        2910.115           0.239  
G03  22342581.087      -33273.353        -503.402           0.255  
G04  23638582.097     -138898.118       -2131.558           0.244  
G05  22503999.511      135359.653        2026.194           0.255  
G06  20632670.516      -27489.171        -481.654           0.255  
G07  23419052.317      -68064.967       -1322.617           0.248  
G09  23117118.127      -69091.256       -1437.510           0.251  
> 2023 05 18 00 01 21.8688020  0  7                     
G02  24272160.498      220377.635        2909.769           0.239  
G03  22342593.331      -33323.805        -505.784           0.255  
G04  23638636.301     -139111.301       -2131.308           0.244  
G05  22503948.094      135562.525        2028.058           0.255  
G06  20632683.148      -27537.310        -480.694           0.255  
G07  23419086.122      -68197.215       -1322.490           0.248  
G09  23117155.223      -69234.999       -1437.288           0.252  
> 2023 05 18 00 01 21.9688020  0  7                     
G02  24272085.653      220668.689        2909.912           0.239  
G03  22342606.163      -33374.251        -505.086           0.255  
G04  23638691.414     -139324.487       -2131.548           0.244  
G05  22503896.012      135765.388        2029.445           0.255  
G06  20632695.262      -27585.450        -481.114           0.255  
G07  23419120.031      -68329.472       -1322.630           0.248  
G09  23117191.578      -69378.752       -1437.783           0.252  
> 2023 05 18 00 01 22.0688020  0  7                     
G02  24272011.753      220959.749        2910.933           0.239  
G03  22342619.265      -33424.689        -504.010           0.255  
G04  23638745.540     -139537.672       -2131.935           0.244  
G05  22503844.569      135968.238        2030.351           0.255  
G06  20632707.342      -27633.607        -481.890           0.255  
G07  23419153.990      -68461.727       -1322.608           0.248  
G09  23117228.833      -69522.499       -1437.200           0.251  
> 2023 05 18 00 01 22.1688020  0  7                     
G02  24271938.617      221250.800        2911.958           0.239  
G03  22342632.188      -33475.141        -504.178           0.255  
G04  23638799.671     -139750.864       -2132.226           0.244  
G05  22503792.696      136171.079        2029.814           0.255  
G06  20632719.561      -27681.755        -481.542           0.255  
G07  23419187.582      -68593.990       -1322.425           0.248  
G09  23117265.080      -69666.251       -1437.800           0.252  
> 2023 05 18 00 01 22.2688020  0  7                     
G02  24271864.091      221541.843        2910.130           0.239  
G03  22342644.850      -33525.599        -504.268           0.255  
G04  23638852.866     -139963.976       -2122.878           0.244  
G05  22503741.143      136373.914        2028.149           0.255  
G06  20632731.002      -27729.912        -481.580           0.255  
G07  23419221.272      -68726.104       -1289.201           0.248  
G09  23117304.327      -69809.969       -1442.298           0.252  
> 2023 05 18 00 01 22.3688020  0  7                     
G02  24271790.246      221832.944        2895.204           0.239  
G03  22342657.194      -33576.803        -564.640           0.255  
G04  23638907.618     -140177.076       -2112.514           0.244  
G05  22503689.204      136576.762        2027.375           0.255  
G06  20632744.190      -27778.075        -481.278           0.255  
G07  23419254.943      -68858.585       -1321.699           0.248  
G09  23117339.629      -69953.754       -1438.458           0.251  
> 2023 05 18 00 01 22.4688020  0  7                     
G02  24271715.158      222123.953        2909.584           0.239  
G03  22342670.808      -33626.535        -504.801           0.255  
G04  23638962.656     -140390.430       -2131.916           0.244  
G05  22503637.706      136779.505        2086.300           0.255  
G06  20632756.272      -27826.232        -481.114           0.255  
G07  23419289.454      -68990.907       -1336.733           0.248  
G09  23117374.866      -70097.500       -1437.615           0.252  
> 2023 05 18 00 01 22.5688020  0  7                     
G02  24271641.283      222415.019        2910.913           0.239  
G03  22342683.803      -33676.989        -503.808           0.255  
G04  23639016.777     -140603.630       -2132.145           0.244  
G05  22503586.072      136982.452        2028.723           0.255  
G06  20632769.219      -27874.409        -482.022           0.255  
G07  23419322.748      -69123.073       -1323.351           0.248  
G09  23117410.068      -70241.220       -1425.290           0.252  
> 2023 05 18 00 01 22.6688020  0  7                     
G02  24271565.872      222706.056        2909.948           0.239  
G03  22342696.137      -33727.582        -508.016           0.255  
G04  23639070.408     -140816.815       -2131.577           0.244  
G05  22503534.106      137185.289        2029.031           0.255  
G06  20632782.074      -27922.582        -481.893           0.255  
G07  23419357.081      -69255.345       -1322.766           0.248  
G09  23117444.908      -70384.991       -1437.368           0.251  
> 2023 05 18 00 01 22.7688020  0  7                     
G02  24271492.314      222997.104        2909.772           0.239  
G03  22342708.394      -33777.948        -504.667           0.255  
G04  23639125.218     -141030.010       -2131.760           0.244  
G05  22503482.090      137388.124        2028.595           0.255  
G06  20632793.721      -27970.754        -481.635           0.255  
G07  23419390.250      -69387.624       -1322.660           0.248  
G09  23117484.482      -70528.752       -1437.281           0.251  
> 2023 05 18 00 01 22.8688020  0  7                     
G02  24271418.479      223288.171        2910.728           0.239  
G03  22342720.928      -33828.430        -505.636           0.255  
G04  23639179.804     -141243.211       -2132.226           0.244  
G05  22503430.586      137590.950        2028.376           0.255  
G06  20632806.355      -28018.925        -481.072           0.255  
G07  23419423.286      -69519.908       -1322.624           0.248  
G09  23117521.400      -70672.513       -1437.363           0.252  
> 2023 05 18 00 01 22.9688020  0  7                     
G02  24271343.817      223578.985        2912.943           0.239  
G03  22342735.120      -33878.927        -505.152           0.255  
G04  23639235.115     -141456.406       -2132.188           0.244  
G05  22503378.616      137792.651        1858.358           0.255  
G06  20632818.110      -28067.104        -481.653           0.255  
G07  23419457.072      -69652.271       -1361.323           0.248  
G09  23117557.626      -70816.271       -1436.991           0.252  
> 2023 05 18 00 01 23.0688020  0  7                     
G02  24271270.766      223870.272        2911.614           0.239  
G03  22342747.626      -33929.409        -504.389           0.255  
G04  23639288.833     -141669.595       -2131.388           0.244  
G05  22503327.364      137996.605        2026.205           0.255  
G06  20632830.476      -28115.302        -482.541           0.255  
G07  23419490.748      -69784.491       -1328.792           0.248  
G09  23117593.855      -70960.013       -1436.655           0.251  
> 2023 05 18 00 01 23.1688020  0  7                     
G02  24271196.388      224161.313        2909.426           0.239  
G03  22342760.417      -33979.906        -505.280           0.255  
G04  23639342.381     -141882.796       -2131.960           0.244  
G05  22503276.116      138199.452        2027.359           0.255  
G06  20632842.174      -28163.485        -481.519           0.255  
G07  23419524.430      -69916.763       -1322.646           0.248  
G09  23117631.787      -71103.782       -1438.625           0.251  
> 2023 05 18 00 01 23.2688020  0  7                     
G02  24271121.980      224452.369        2909.064           0.239  
G03  22342773.157      -34030.411        -505.652           0.255  
G04  23639397.007     -142095.990       -2132.033           0.244  
G05  22503223.962      138402.287        2030.063           0.255  
G06  20632854.836      -28211.673        -481.013           0.255  
G07  23419558.072      -70049.058       -1307.988           0.248  
G09  23117668.242      -71247.540       -1438.239           0.251  
> 2023 05 18 00 01 23.3688020  0  7                     
G02  24271048.060      224743.436        2910.884           0.239  
G03  22342785.993      -34080.914        -505.287           0.255  
G04  23639451.197     -142309.184       -2131.358           0.244  
G05  22503172.836      138605.096        2029.566           0.255  
G06  20632866.929      -28259.877        -482.046           0.255  
G07  23419592.092      -70181.348       -1322.220           0.248  
G09  23117705.768      -71391.284       -1437.844           0.251  
> 2023 05 18 00 01 23.4688020  0  7                     
G02  24270974.116      225034.499        2911.633           0.239  
G03  22342800.118      -34131.430        -504.955           0.255  
G04  23639505.788     -142522.395       -2132.532           0.244  
G05  22503120.683      138807.900        2028.120           0.255  
G06  20632878.865      -28308.066        -481.921           0.255  
G07  23419625.936      -70313.676       -1324.449           0.248  
G09  23117741.575      -71535.749       -1552.025           0.251  
> 2023 05 18 00 01 23.5688020  0  7                     
G02  24270899.915      225325.530        2910.137           0.239  
G03  22342812.070      -34181.930        -503.982           0.255  
G04  23639559.987     -142735.597       -2132.100           0.244  
G05  22503069.012      139010.723        2026.500           0.255  
G06  20632890.559      -28356.274        -482.296           0.255  
G07  23419659.509      -70445.951       -1323.234           0.248  
G09  23117781.372      -71678.826       -1439.273           0.251  
> 2023 05 18 00 01 23.6688020  0  7                     
G02  24270826.187      225616.577        2909.238           0.239  
G03  22342824.528      -34232.453        -505.702           0.255  
G04  23639614.353     -142948.795       -2132.066           0.244  
G05  22503017.270      139213.546        2027.103           0.255  
G06  20632903.962      -28404.477        -481.687           0.255  
G07  23419693.302      -70578.254       -1323.263           0.248  
G09  23117814.088      -71822.591       -1438.896           0.251  
> 2023 05 18 00 01 23.7688020  0  7                     
G02  24270751.157      225907.644        2910.239           0.239  
G03  22342837.856      -34282.995        -505.640           0.255  
G04  23639668.629     -143161.999       -2132.151           0.244  
G05  22502965.581      139416.376        2029.182           0.255  
G06  20632916.321      -28452.676        -481.374           0.255  
G07  23419727.121      -70710.561       -1322.832           0.248  
G09  23117850.785      -71966.343       -1438.356           0.252  
> 2023 05 18 00 01 23.8688020  0  7                     
G02  24270677.270      226198.695        2910.128           0.239  
G03  22342850.438      -34333.516        -505.036           0.255  
G04  23639723.157     -143375.203       -2131.392           0.244  
G05  22502913.996      139619.184        2029.979           0.255  
G06  20632928.645      -28500.895        -482.354           0.255  
G07  23419760.696      -70842.879       -1323.034           0.248  
G09  23117887.790      -72110.101       -1437.588           0.252  
> 2023 05 18 00 01 23.9688020  0  7                     
G02  24270602.493      226489.748        2911.135           0.239  
G03  22342863.828      -34384.048        -504.209           0.255  
G04  23639777.633     -143588.414       -2132.094           0.244  
G05  22502862.380      139821.976        2028.468           0.255  
G06  20632940.482      -28549.112        -482.657           0.255  
G07  23419794.502      -70975.191       -1323.425           0.248  
G09  23117924.971      -72253.863       -1437.528           0.251  
> 2023 05 18 00 01 24.0688020  0  7                     
G02  24270528.355      226780.799        2910.240           0.239  
G03  22342876.125      -34434.579        -504.669           0.255  
G04  23639832.300     -143801.617       -2131.789           0.244  
G05  22502810.405      140024.781        2026.684           0.255  
G06  20632953.095      -28597.339        -482.812           0.255  
G07  23419827.983      -71107.510       -1323.773           0.248  
G09  23117961.182      -72397.616       -1437.321           0.251  
> 2023 05 18 00 01 24.1688020  0  7                     
G02  24270453.399      227071.858        2909.702           0.239  
G03  22342889.209      -34485.124        -506.044           0.255  
G04  23639885.824     -144014.828       -2132.030           0.244  
G05  22502759.499      140227.358        2048.851           0.255  
G06  20632965.196      -28645.556        -481.956           0.255  
G07  23419862.079      -71239.821       -1322.909           0.248  
G09  23117997.166      -72541.394       -1438.007           0.252  
> 2023 05 18 00 01 24.2688020  0  7                     
G02  24270380.095      227362.914        2909.685           0.239  
G03  22342903.248      -34535.675        -505.245           0.255  
G04  23639940.719     -144228.039       -2132.488           0.244  
G05  22502707.361      140430.404        2028.642           0.255  
G06  20632977.636      -28693.778        -482.231           0.255  
G07  23419895.481      -71372.244       -1332.937           0.248  
G09  23118033.708      -72685.157       -1438.231           0.251  
> 2023 05 18 00 01 24.3688020  0  7                     
G02  24270306.196      227653.966        2910.504           0.239  
G03  22342915.264      -34586.215        -504.824           0.255  
G04  23639995.048     -144441.247       -2132.054           0.244  
G05  22502655.521      140633.207        2029.966           0.255  
G06  20632989.779      -28742.015        -482.679           0.255  
G07  23419929.318      -71504.476       -1323.134           0.248  
G09  23118070.202      -72828.914       -1437.363           0.251  
> 2023 05 18 00 01 24.4688020  0  7                     
G02  24270232.023      227945.013        2910.244           0.239  
G03  22342928.326      -34636.776        -505.556           0.255  
G04  23640049.336     -144654.458       -2131.873           0.244  
G05  22502603.828      140835.989        2027.934           0.255  
G06  20633002.125      -28790.240        -482.204           0.255  
G07  23419962.871      -71636.805       -1323.673           0.248  
G09  23118107.804      -72972.689       -1438.052           0.251  
> 2023 05 18 00 01 24.5688020  0  7                     
G02  24270157.835      228236.066        2909.773           0.239  
G03  22342940.622      -34687.302        -516.476           0.255  
G04  23640103.854     -144867.672       -2131.976           0.244  
G05  22502552.106      141038.783        2026.517           0.255  
G06  20633014.308      -28838.479        -482.408           0.255  
G07  23419996.789      -71769.073       -1313.813           0.248  
G09  23118144.542      -73116.455       -1437.436           0.252  
> 2023 05 18 00 01 24.6688020  0  7                     
G02  24270084.199      228527.129        2910.850           0.239  
G03  22342954.037      -34737.900        -505.914           0.255  
G04  23640157.585     -145080.888       -2131.916           0.244  
G05  22502500.864      141241.585        2026.506           0.255  
G06  20633026.443      -28886.720        -482.546           0.255  
G07  23420030.501      -71901.468       -1323.314           0.248  
G09  23118181.836      -73260.221       -1437.554           0.252  
> 2023 05 18 00 01 24.7688020  0  7                     
G02  24270010.322      228818.184        2911.684           0.239  
G03  22342967.176      -34788.472        -505.192           0.255  
G04  23640211.994     -145294.104       -2132.849           0.244  
G05  22502448.783      141444.390        2028.781           0.255  
G06  20633038.674      -28934.960        -482.447           0.255  
G07  23420063.945      -72033.806       -1323.189           0.248  
G09  23118217.869      -73403.992       -1437.930           0.251  
> 2023 05 18 00 01 24.8688020  0  7                     
G02  24269936.003      229109.231        2911.093           0.239  
G03  22342979.285      -34839.037        -506.209           0.255  
G04  23640266.895     -145507.315       -2132.504           0.244  
G05  22502396.670      141647.175        2029.492           0.255  
G06  20633051.436      -28983.215        -482.570           0.255  
G07  23420097.371      -72166.153       -1323.680           0.248  
G09  23118254.049      -73547.761       -1437.471           0.251  
> 2023 05 18 00 01 24.9688020  0  7                     
G02  24269860.646      229400.274        2910.184           0.239  
G03  22342992.263      -34889.634        -515.592           0.255  
G04  23640321.086     -145720.524       -2131.584           0.244  
G05  22502345.410      141849.949        2027.694           0.255  
G06  20633063.854      -29031.454        -481.984           0.255  
G07  23420131.786      -72298.566       -1316.285           0.248  
G09  23118290.940      -73691.530       -1437.742           0.252  
> 2023 05 18 00 01 25.0688020  0  7                     
G02  24269786.301      229691.332        2910.529           0.239  
G03  22343005.470      -34940.205        -506.086           0.255  
G04  23640375.619     -145933.746       -2131.730           0.244  
G05  22502294.052      142052.733        2026.081           0.255  
G06  20633075.751      -29079.711        -482.195           0.255  
G07  23420165.618      -72430.841       -1319.867           0.248  
G09  23118326.561      -73835.305       -1438.065           0.251  
> 2023 05 18 00 01 25.1688020  0  7                     
G02  24269713.733      229982.385        2911.146           0.239  
G03  22343018.331      -34990.796        -505.881           0.255  
G04  23640429.856     -146146.967       -2131.780           0.243  
G05  22502241.731      142255.529        2027.208           0.255  
G06  20633088.152      -29127.965        -482.685           0.255  
G07  23420198.816      -72563.185       -1323.284           0.248  
G09  23118364.205      -73979.068       -1437.258           0.251  
> 2023 05 18 00 01 25.2688020  0  7                     
G02  24269639.446      230273.444        2910.231           0.239  
G03  22343031.410      -35041.380        -505.593           0.255  
G04  23640483.619     -146360.185       -2132.227           0.244  
G05  22502190.463      142458.317        2029.206           0.255  
G06  20633100.211      -29176.232        -482.953           0.255  
G07  23420232.533      -72695.538       -1323.270           0.248  
G09  23118400.666      -74122.846       -1437.475           0.252  
> 2023 05 18 00 01 25.3688020  0  7                     
G02  24269564.503      230564.491        2910.959           0.239  
G03  22343044.477      -35091.976        -505.945           0.255  
G04  23640538.221     -146573.406       -2132.001           0.244  
G05  22502138.966      142661.085        2028.489           0.255  
G06  20633112.592      -29224.489        -482.291           0.255  
G07  23420266.118      -72827.897       -1323.483           0.248  
G09  23118437.868      -74266.629       -1438.124           0.251  
> 2023 05 18 00 01 25.4688020  0  7                     
G02  24269489.803      230855.543        2909.961           0.239  
G03  22343057.781      -35142.580        -505.883           0.255  
G04  23640593.259     -146786.630       -2131.861           0.244  
G05  22502087.146      142863.854        2026.870           0.255  
G06  20633124.834      -29272.755        -482.735           0.255  
G07  23420300.691      -72960.307       -1330.157           0.248  
G09  23118473.572      -74410.403       -1438.219           0.251  
> 2023 05 18 00 01 25.5688020  0  7                     
G02  24269416.090      231146.595        2909.050           0.239  
G03  22343070.108      -35193.184        -505.490           0.255  
G04  23640647.877     -146999.847       -2132.134           0.244  
G05  22502035.808      143066.627        2026.014           0.255  
G06  20633136.943      -29321.030        -482.859           0.255  
G07  23420333.237      -73092.610       -1323.775           0.248  
G09  23118511.703      -74554.180       -1438.437           0.252  
> 2023 05 18 00 01 25.6688020  0  7                     
G02  24269342.167      231437.656        2910.526           0.239  
G03  22343083.032      -35243.795        -505.856           0.255  
G04  23640701.519     -147213.074       -2131.860           0.244  
G05  22501984.322      143268.568        1902.358           0.255  
G06  20633149.716      -29369.303        -482.849           0.255  
G07  23420367.078      -73224.971       -1323.835           0.248  
G09  23118546.455      -74697.947       -1438.072           0.251  
> 2023 05 18 00 01 25.7688020  0  7                     
G02  24269268.646      231728.703        2911.330           0.239  
G03  22343094.954      -35294.412        -506.380           0.255  
G04  23640755.716     -147426.303       -2132.198           0.244  
G05  22501932.058      143472.178        2029.046           0.255  
G06  20633161.745      -29417.583        -482.816           0.255  
G07  23420401.070      -73357.339       -1323.865           0.248  
G09  23118584.367      -74841.720       -1437.346           0.252  
> 2023 05 18 00 01 25.8688020  0  7                     
G02  24269194.130      232019.755        2910.401           0.239  
G03  22343108.036      -35345.032        -506.552           0.255  
G04  23640809.908     -147639.526       -2132.593           0.244  
G05  22501880.485      143674.932        2027.584           0.255  
G06  20633174.279      -29465.860        -482.881           0.255  
G07  23420435.066      -73489.707       -1323.412           0.248  
G09  23118620.769      -74985.493       -1436.927           0.252  
> 2023 05 18 00 01 25.9688020  0  7                     
G02  24269119.622      232310.818        2910.273           0.239  
G03  22343121.404      -35395.648        -505.521           0.255  
G04  23640864.195     -147852.755       -2132.185           0.244  
G05  22501828.764      143877.698        2025.754           0.255  
G06  20633186.634      -29514.146        -483.383           0.255  
G07  23420469.277      -73622.073       -1323.496           0.248  
G09  23118657.439      -75129.271       -1437.097           0.252  
> 2023 05 18 00 01 26.0688020  0  7                     
G02  24269045.290      232601.870        2911.340           0.239  
G03  22343134.236      -35446.273        -506.235           0.255  
G04  23640918.706     -148065.978       -2132.193           0.244  
G05  22501777.265      144080.479        2027.716           0.255  
G06  20633198.832      -29562.435        -483.045           0.255  
G07  23420502.923      -73754.444       -1323.277           0.248  
G09  23118693.929      -75273.049       -1437.829           0.252  
> 2023 05 18 00 01 26.1688020  0  7                     
G02  24268971.433      232892.912        2910.106           0.239  
G03  22343147.308      -35496.916        -506.782           0.255  
G04  23640972.896     -148279.202       -2131.844           0.244  
G05  22501725.617      144283.240        2029.471           0.255  
G06  20633211.428      -29610.722        -482.622           0.255  
G07  23420536.216      -73886.829       -1323.839           0.248  
G09  23118730.175      -75416.827       -1437.332           0.252  
> 2023 05 18 00 01 26.2688020  0  7                     
G02  24268897.058      233183.970        2910.530           0.239  
G03  22343159.420      -35547.553        -507.076           0.255  
G04  23641027.266     -148492.438       -2132.389           0.244  
G05  22501674.028      144485.984        2028.195           0.255  
G06  20633223.805      -29659.010        -482.258           0.255  
G07  23420570.166      -74019.137       -1335.939           0.248  
G09  23118766.940      -75560.609       -1438.190           0.252  
> 2023 05 18 00 01 26.3688020  0  7                     
G02  24268823.287      233475.016        2910.668           0.239  
G03  22343173.180      -35598.493        -515.309           0.255  
G04  23641081.372     -148705.669       -2132.451           0.244  
G05  22501622.227      144688.741        2026.049           0.255  
G06  20633235.815      -29707.307        -483.075           0.255  
G07  23420604.012      -74151.595       -1324.236           0.248  
G09  23118803.725      -75704.538       -1449.295           0.252  
> 2023 05 18 00 01 26.4688020  0  7                     
G02  24268748.236      233766.051        2910.063           0.239  
G03  22343186.110      -35648.834        -505.854           0.255  
G04  23641135.903     -148918.899       -2131.997           0.244  
G05  22501570.417      144891.506        2027.229           0.255  
G06  20633247.918      -29755.616        -483.166           0.255  
G07  23420638.147      -74283.963       -1303.517           0.248  
G09  23118840.513      -75847.808       -1390.916           0.251  
> 2023 05 18 00 01 26.5688020  0  7                     
G02  24268674.882      234057.097        2909.219           0.239  
G03  22343198.472      -35699.489        -506.836           0.255  
G04  23641190.131     -149132.132       -2131.962           0.244  
G05  22501518.666      145094.262        2029.022           0.255  
G06  20633260.570      -29803.917        -483.039           0.255  
G07  23420671.473      -74416.372       -1323.502           0.248  
G09  23118877.464      -75991.950       -1437.672           0.252  
> 2023 05 18 00 01 26.6688020  0  7                     
G02  24268600.532      234348.151        2910.326           0.239  
G03  22343212.035      -35750.145        -506.650           0.255  
G04  23641244.384     -149345.363       -2132.362           0.244  
G05  22501467.196      145296.993        2027.649           0.255  
G06  20633272.707      -29852.226        -483.064           0.255  
G07  23420705.469      -74548.766       -1324.426           0.248  
G09  23118913.776      -76135.734       -1438.161           0.252  
> 2023 05 18 00 01 26.7688020  0  7                     
G02  24268526.290      234639.197        2910.796           0.239  
G03  22343224.588      -35800.797        -506.485           0.255  
G04  23641299.027     -149558.603       -2132.719           0.244  
G05  22501415.512      145499.737        2025.838           0.255  
G06  20633284.948      -29900.539        -483.328           0.255  
G07  23420739.097      -74681.157       -1323.749           0.248  
G09  23118950.358      -76279.510       -1437.255           0.251  
> 2023 05 18 00 01 26.8688020  0  7                     
G02  24268452.079      234930.238        2909.972           0.239  
G03  22343237.849      -35851.461        -506.215           0.255  
G04  23641352.707     -149771.850       -2132.050           0.244  
G05  22501364.070      145702.500        2027.277           0.255  
G06  20633297.206      -29948.854        -483.275           0.255  
G07  23420772.281      -74813.555       -1323.432           0.248  
G09  23118987.350      -76423.292       -1437.923           0.252  
> 2023 05 18 00 01 26.9688020  0  7                     
G02  24268377.599      235221.290        2910.563           0.239  
G03  22343250.305      -35902.129        -506.483           0.255  
G04  23641407.596     -149985.089       -2132.489           0.244  
G05  22501312.455      145905.243        2029.068           0.255  
G06  20633309.861      -29997.171        -483.228           0.255  
G07  23420805.459      -74946.004       -1339.566           0.248  
G09  23119023.452      -76567.229       -1435.460           0.251  
> 2023 05 18 00 01 27.0688020  0  7                     
G02  24268303.852      235512.341        2910.843           0.239  
G03  22343263.552      -35952.805        -506.506           0.255  
G04  23641461.485     -150198.328       -2132.269           0.244  
G05  22501260.528      146108.538        2071.800           0.255  
G06  20633322.179      -30045.488        -483.001           0.255  
G07  23420839.946      -75078.367       -1324.717           0.248  
G09  23119060.410      -76710.861       -1437.822           0.251  
> 2023 05 18 00 01 27.1688020  0  7                     
G02  24268229.013      235803.384        2910.592           0.239  
G03  22343276.505      -36003.472        -505.891           0.255  
G04  23641516.287     -150411.621       -2135.105           0.244  
G05  22501209.086      146310.898        2131.632           0.255  
G06  20633334.148      -30093.822        -483.807           0.255  
G07  23420873.928      -75210.765       -1323.908           0.248  
G09  23119096.603      -76854.651       -1438.106           0.252  
> 2023 05 18 00 01 27.2688020  0  7                     
G02  24268155.359      236094.428        2909.644           0.239  
G03  22343289.481      -36054.161        -507.223           0.255  
G04  23641570.504     -150624.814       -2131.774           0.244  
G05  22501157.564      146512.519        1895.856           0.255  
G06  20633346.565      -30142.147        -483.110           0.255  
G07  23420907.422      -75343.177       -1323.723           0.248  
G09  23119134.049      -76998.421       -1425.928           0.252  
> 2023 05 18 00 01 27.3688020  0  7                     
G02  24268081.256      236385.481        2910.978           0.239  
G03  22343302.147      -36104.850        -507.120           0.255  
G04  23641625.117     -150838.061       -2132.539           0.244  
G05  22501105.722      146716.193        2029.449           0.255  
G06  20633358.871      -30190.479        -483.027           0.255  
G07  23420940.927      -75475.591       -1324.299           0.248  
G09  23119170.401      -77142.226       -1438.328           0.252  
> 2023 05 18 00 01 27.4688020  0  7                     
G02  24268006.992      236676.525        2911.134           0.239  
G03  22343315.000      -36155.548        -507.821           0.255  
G04  23641679.445     -151051.307       -2133.046           0.244  
G05  22501053.887      146918.904        2027.160           0.255  
G06  20633371.351      -30238.809        -482.945           0.255  
G07  23420975.308      -75608.002       -1324.193           0.248  
G09  23119206.701      -77285.843       -1426.206           0.252  
> 2023 05 18 00 01 27.5688020  0  7                     
G02  24267933.056      236967.568        2909.524           0.239  
G03  22343327.874      -36206.232        -506.343           0.255  
G04  23641733.802     -151264.549       -2132.743           0.244  
G05  22501002.131      147121.635        2024.507           0.255  
G06  20633383.606      -30287.154        -483.733           0.255  
G07  23421008.750      -75740.419       -1323.947           0.248  
G09  23119243.816      -77429.799       -1438.142           0.251  
> 2023 05 18 00 01 27.6688020  0  7                     
G02  24267858.850      237258.618        2910.110           0.239  
G03  22343341.051      -36256.937        -506.893           0.255  
G04  23641787.975     -151477.790       -2131.937           0.244  
G05  22500950.432      147324.391        2028.301           0.255  
G06  20633395.618      -30335.494        -483.411           0.255  
G07  23421041.979      -75872.844       -1324.188           0.248  
G09  23119280.393      -77573.584       -1437.899           0.252  
> 2023 05 18 00 01 27.7688020  0  7                     
G02  24267784.481      237549.661        2910.397           0.239  
G03  22343353.691      -36307.644        -507.321           0.255  
G04  23641842.232     -151691.038       -2132.576           0.244  
G05  22500898.727      147527.103        2028.893           0.255  
G06  20633408.398      -30383.839        -483.436           0.255  
G07  23421076.398      -76005.261       -1324.177           0.248  
G09  23119316.932      -77717.378       -1437.593           0.251  
> 2023 05 18 00 01 27.8688020  0  7                     
G02  24267710.766      237840.711        2910.001           0.239  
G03  22343366.876      -36358.344        -506.674           0.255  
G04  23641896.204     -151904.279       -2132.309           0.244  
G05  22500846.983      147729.809        2026.279           0.255  
G06  20633420.468      -30432.189        -483.754           0.255  
G07  23421110.051      -76137.691       -1324.100           0.248  
G09  23119352.798      -77861.250       -1456.040           0.252  
> 2023 05 18 00 01 27.9688020  0  7                     
G02  24267636.307      238131.760        2910.315           0.239  
G03  22343379.918      -36409.083        -519.542           0.255  
G04  23641950.720     -152117.528       -2131.869           0.244  
G05  22500795.618      147931.762        1970.989           0.255  
G06  20633432.874      -30480.539        -483.519           0.255  
G07  23421143.191      -76270.184       -1339.493           0.248  
G09  23119390.054      -78004.960       -1437.551           0.252  
> 2023 05 18 00 01 28.0688020  0  7                     
G02  24267561.908      238422.809        2911.412           0.239  
G03  22343392.369      -36459.781        -507.186           0.255  
G04  23642005.165     -152330.778       -2132.018           0.244  
G05  22500743.835      148135.269        2029.106           0.255  
G06  20633445.003      -30528.899        -483.580           0.255  
G07  23421177.472      -76402.554       -1324.483           0.248  
G09  23119426.866      -78148.751       -1437.654           0.251  
> 2023 05 18 00 01 28.1688020  0  7                     
G02  24267487.958      238713.853        2911.044           0.239  
G03  22343405.549      -36510.501        -507.227           0.255  
G04  23642059.499     -152544.033       -2132.725           0.244  
G05  22500692.180      148337.964        2027.114           0.255  
G06  20633457.666      -30577.256        -483.388           0.255  
G07  23421211.518      -76534.986       -1324.126           0.248  
G09  23119463.499      -78292.543       -1437.816           0.252  
> 2023 05 18 00 01 28.2688020  0  7                     
G02  24267414.084      239004.913        2911.564           0.239  
G03  22343418.578      -36561.222        -506.559           0.255  
G04  23642113.762     -152757.286       -2133.030           0.244  
G05  22500640.627      148540.682        2024.828           0.255  
G06  20633469.826      -30625.622        -483.872           0.255  
G07  23421244.865      -76667.430       -1324.255           0.248  
G09  23119499.694      -78436.338       -1437.902           0.251  
> 2023 05 18 00 01 28.3688020  0  7                     
G02  24267339.776      239295.950        2910.443           0.239  
G03  22343431.323      -36611.962        -507.532           0.255  
G04  23642168.165     -152970.534       -2132.437           0.244  
G05  22500589.050      148743.415        2027.903           0.255  
G06  20633482.304      -30673.985        -483.428           0.255  
G07  23421278.635      -76799.868       -1324.740           0.248  
G09  23119536.495      -78580.132       -1438.387           0.251  
> 2023 05 18 00 01 28.4688020  0  7                     
G02  24267265.754      239586.993        2910.363           0.239  
G03  22343444.110      -36662.702        -507.423           0.255  
G04  23642222.551     -153183.782       -2132.350           0.244  
G05  22500537.521      148946.114        2028.343           0.255  
G06  20633494.559      -30722.355        -483.626           0.255  
G07  23421312.529      -76932.311       -1323.999           0.248  
G09  23119572.824      -78723.923       -1437.958           0.252  
> 2023 05 18 00 01 28.5688020  0  7                     
G02  24267191.525      239878.044        2910.106           0.239  
G03  22343457.413      -36713.444        -507.545           0.255  
G04  23642277.186     -153397.041       -2132.734           0.244  
G05  22500485.631      149148.812        2026.107           0.255  
G06  20633506.784      -30770.723        -483.558           0.255  
G07  23421346.151      -77064.765       -1324.454           0.248  
G09  23119609.796      -78867.604       -1410.234           0.252  
> 2023 05 18 00 01 28.6688020  0  7                     
G02  24267116.491      240169.084        2910.321           0.239  
G03  22343470.379      -36764.183        -507.053           0.255  
G04  23642331.431     -153610.294       -2131.827           0.244  
G05  22500434.236      149351.527        2026.446           0.255  
G06  20633519.177      -30819.105        -484.161           0.255  
G07  23421379.829      -77197.216       -1324.910           0.248  
G09  23119646.393      -79011.258       -1401.550           0.251  
> 2023 05 18 00 01 28.7688020  0  7                     
G02  24267042.687      240460.128        2910.013           0.239  
G03  22343482.989      -36814.937        -507.700           0.255  
G04  23642385.864     -153823.551       -2132.139           0.244  
G05  22500382.449      149554.237        2028.854           0.255  
G06  20633531.525      -30867.487        -483.823           0.255  
G07  23421413.562      -77329.666       -1324.737           0.248  
G09  23119683.377      -79155.317       -1438.731           0.251  
> 2023 05 18 00 01 28.8688020  0  7                     
G02  24266969.298      240751.170        2910.852           0.239  
G03  22343496.151      -36865.689        -507.689           0.255  
G04  23642440.061     -154036.811       -2132.918           0.244  
G05  22500330.538      149756.917        2026.912           0.255  
G06  20633543.652      -30915.868        -483.798           0.255  
G07  23421447.096      -77462.128       -1324.537           0.248  
G09  23119720.133      -79299.116       -1438.536           0.251  
> 2023 05 18 00 01 28.9688020  0  7                     
G02  24266894.770      241042.212        2910.472           0.239  
G03  22343509.210      -36916.447        -507.487           0.255  
G04  23642494.171     -154250.069       -2132.851           0.244  
G05  22500279.045      149959.620        2025.033           0.255  
G06  20633556.005      -30964.258        -484.049           0.255  
G07  23421481.039      -77594.588       -1324.875           0.248  
G09  23119756.036      -79442.917       -1438.395           0.251  
> 2023 05 18 00 01 29.0688020  0  7                     
G02  24266820.464      241333.254        2909.754           0.239  
G03  22343521.956      -36967.213        -507.981           0.255  
G04  23642548.510     -154463.325       -2132.707           0.244  
G05  22500227.397      150162.335        2028.105           0.255  
G06  20633568.463      -31012.644        -483.527           0.255  
G07  23421515.129      -77727.050       -1325.002           0.248  
G09  23119793.279      -79586.715       -1438.748           0.251  
> 2023 05 18 00 01 29.1688020  0  7                     
G02  24266746.356      241624.306        2909.955           0.239  
G03  22343534.632      -37017.983        -508.103           0.255  
G04  23642602.740     -154676.586       -2132.390           0.244  
G05  22500175.861      150365.011        2027.313           0.255  
G06  20633580.834      -31061.044        -484.104           0.255  
G07  23421548.667      -77859.511       -1324.389           0.248  
G09  23119829.603      -79730.511       -1437.818           0.252  
> 2023 05 18 00 01 29.2688020  0  7                     
G02  24266671.946      241915.353        2910.910           0.239  
G03  22343547.678      -37068.751        -507.935           0.255  
G04  23642657.644     -154889.849       -2132.803           0.244  
G05  22500124.050      150567.696        2024.396           0.255  
G06  20633593.277      -31109.437        -483.742           0.255  
G07  23421582.542      -77991.981       -1324.781           0.248  
G09  23119865.993      -79874.311       -1438.551           0.252  
> 2023 05 18 00 01 29.3688020  0  7                     
G02  24266597.923      242206.824        2969.283           0.239  
G03  22343560.976      -37119.528        -508.129           0.255  
G04  23642712.029     -155103.111       -2132.729           0.244  
G05  22500072.382      150770.411        2027.404           0.255  
G06  20633605.550      -31157.838        -483.941           0.255  
G07  23421615.956      -78124.448       -1324.706           0.248  
G09  23119902.533      -80018.255       -1451.952           0.252  
> 2023 05 18 00 01 29.4688020  0  7                     
G02  24266523.690      242497.454        2911.095           0.239  
G03  22343573.634      -37170.307        -508.068           0.255  
G04  23642766.060     -155316.370       -2132.244           0.244  
G05  22500020.786      150973.087        2028.241           0.255  
G06  20633617.739      -31206.241        -483.869           0.255  
G07  23421649.940      -78256.826       -1311.425           0.248  
G09  23119939.566      -80161.915       -1438.279           0.252  
> 2023 05 18 00 01 29.5688020  0  7                     
G02  24266449.743      242788.496        2911.219           0.239  
G03  22343586.825      -37221.029        -493.682           0.255  
G04  23642820.646     -155529.635       -2132.610           0.244  
G05  22499969.028      151176.017        2154.863           0.255  
G06  20633630.055      -31254.648        -484.064           0.255  
G07  23421683.637      -78389.396       -1324.432           0.248  
G09  23119976.559      -80305.719       -1438.043           0.252  
> 2023 05 18 00 01 29.6688020  0  7                     
G02  24266375.205      243079.542        2910.133           0.239  
G03  22343599.455      -37271.882        -507.977           0.255  
G04  23642875.015     -155742.897       -2132.242           0.244  
G05  22499917.379      151378.469        2027.488           0.255  
G06  20633642.607      -31303.063        -484.309           0.255  
G07  23421717.515      -78521.872       -1324.698           0.248  
G09  23120013.323      -80449.524       -1438.204           0.251  
> 2023 05 18 00 01 29.7688020  0  7                     
G02  24266301.305      243370.591        2910.437           0.239  
G03  22343612.551      -37322.675        -507.845           0.255  
G04  23642929.453     -155956.167       -2132.663           0.244  
G05  22499865.847      151581.145        2029.084           0.255  
G06  20633654.737      -31351.477        -484.247           0.255  
G07  23421751.091      -78654.357       -1324.772           0.248  
G09  23120049.484      -80593.329       -1438.451           0.252  
> 2023 05 18 00 01 29.8688020  0  7                     
G02  24266227.490      243661.638        2910.915           0.239  
G03  22343625.486      -37373.476        -508.394           0.255  
G04  23642983.332     -156169.435       -2132.705           0.244  
G05  22499813.957      151783.804        2025.912           0.255  
G06  20633667.165      -31399.895        -484.295           0.255  
G07  23421784.897      -78786.822       -1321.489           0.248  
G09  23120086.167      -80737.119       -1436.672           0.252  
> 2023 05 18 00 01 29.9688020  0  7                     
G02  24266153.108      243952.682        2910.345           0.239  
G03  22343638.455      -37424.282        -508.126           0.255  
G04  23643037.341     -156382.707       -2132.903           0.244  
G05  22499762.615      151986.499        2026.716           0.255  
G06  20633679.602      -31448.313        -484.199           0.255  
G07  23421818.957      -78919.328       -1324.709           0.248  
G09  23120122.364      -80880.938       -1438.287           0.252  
> 2023 05 18 00 01 30.0688020  0  7                     
G02  24266080.117      244243.733        2910.707           0.239  
G03  22343650.764      -37475.087        -508.046           0.255  
G04  23643091.336     -156595.978       -2132.698           0.244  
G05  22499710.991      152189.165        2028.612           0.255  
G06  20633692.067      -31496.740        -484.140           0.255  
G07  23421852.670      -79051.820       -1325.034           0.248  
G09  23120159.498      -81024.738       -1438.492           0.251  
> 2023 05 18 00 01 30.1688020  0  7                     
G02  24266004.775      244534.654        2881.579           0.239  
G03  22343664.063      -37525.900        -508.050           0.255  
G04  23643146.014     -156809.260       -2120.078           0.244  
G05  22499659.080      152391.826        2025.681           0.255  
G06  20633704.543      -31545.163        -484.484           0.255  
G07  23421886.502      -79184.314       -1325.411           0.248  
G09  23120194.998      -81168.552       -1438.373           0.252  
> 2023 05 18 00 01 30.2688020  0  7                     
G02  24265930.403      244825.823        2910.571           0.239  
G03  22343677.023      -37576.713        -507.063           0.255  
G04  23643201.431     -157022.522       -2132.813           0.244  
G05  22499607.587      152594.510        2026.790           0.255  
G06  20633716.362      -31593.599        -484.330           0.255  
G07  23421920.157      -79316.803       -1324.770           0.248  
G09  23120233.708      -81312.355       -1439.789           0.252  
> 2023 05 18 00 01 30.3688020  0  7                     
G02  24265856.061      245116.870        2910.824           0.239  
G03  22343690.120      -37627.541        -507.989           0.255  
G04  23643255.575     -157235.791       -2132.579           0.244  
G05  22499555.808      152797.176        2028.704           0.255  
G06  20633728.697      -31642.029        -484.463           0.255  
G07  23421953.927      -79449.312       -1325.074           0.248  
G09  23120269.629      -81456.158       -1438.228           0.251  
> 2023 05 18 00 01 30.4688020  0  7                     
G02  24265781.806      245407.927        2911.736           0.239  
G03  22343703.148      -37678.520        -529.607           0.255  
G04  23643309.557     -157449.071       -2133.167           0.244  
G05  22499504.219      152999.826        2025.723           0.255  
G06  20633741.150      -31690.466        -484.440           0.255  
G07  23421987.477      -79581.812       -1325.125           0.248  
G09  23120306.415      -81599.974       -1438.603           0.252  
> 2023 05 18 00 01 30.5688020  0  7                     
G02  24265708.176      245698.970        2910.657           0.239  
G03  22343715.826      -37729.194        -508.068           0.255  
G04  23643363.955     -157662.338       -2132.329           0.244  
G05  22499452.724      153202.505        2026.797           0.255  
G06  20633753.642      -31738.910        -484.321           0.255  
G07  23422021.525      -79714.317       -1324.791           0.248  
G09  23120342.812      -81743.783       -1438.489           0.251  
> 2023 05 18 00 01 30.6688020  0  7                     
G02  24265634.014      245990.013        2910.675           0.239  
G03  22343728.941      -37780.032        -508.016           0.255  
G04  23643418.433     -157875.616       -2132.715           0.244  
G05  22499400.762      153405.164        2028.503           0.255  
G06  20633766.689      -31787.353        -484.511           0.255  
G07  23422055.273      -79846.821       -1324.294           0.248  
G09  23120376.891      -81887.603       -1438.880           0.252  
> 2023 05 18 00 01 30.7688020  0  7                     
G02  24265559.444      246281.061        2910.697           0.239  
G03  22343741.390      -37830.872        -507.725           0.255  
G04  23643472.935     -158088.887       -2132.430           0.244  
G05  22499349.358      153607.810        2025.567           0.255  
G06  20633778.367      -31835.805        -484.639           0.255  
G07  23422088.944      -79979.341       -1325.205           0.248  
G09  23120416.600      -82031.413       -1439.026           0.252  
> 2023 05 18 00 01 30.8688020  0  7                     
G02  24265484.821      246572.104        2910.730           0.239  
G03  22343755.052      -37881.717        -508.106           0.255  
G04  23643527.279     -158302.177       -2133.054           0.244  
G05  22499297.676      153810.486        2026.908           0.255  
G06  20633790.456      -31884.252        -484.498           0.255  
G07  23422122.251      -80111.853       -1325.385           0.248  
G09  23120453.202      -82175.214       -1437.562           0.251  
> 2023 05 18 00 01 30.9688020  0  7                     
G02  24265411.295      246863.155        2910.046           0.239  
G03  22343767.839      -37932.566        -508.182           0.255  
G04  23643581.302     -158515.462       -2132.844           0.244  
G05  22499246.228      154013.134        2028.242           0.255  
G06  20633804.032      -31932.711        -484.497           0.255  
G07  23422156.431      -80244.376       -1325.583           0.248  
G09  23120485.709      -82319.022       -1437.199           0.251  
> 2023 05 18 00 01 31.0688020  0  7                     
G02  24265337.162      247154.102        2909.883           0.239  
G03  22343780.751      -37983.420        -508.003           0.255  
G04  23643635.666     -158728.786       -2129.899           0.244  
G05  22499194.569      154216.624        2093.568           0.255  
G06  20633815.786      -31981.168        -484.875           0.255  
G07  23422190.329      -80376.892       -1331.259           0.248  
G09  23120525.708      -82463.209       -1473.630           0.251  
> 2023 05 18 00 01 31.1688020  0  7                     
G02  24265263.690      247445.244        2910.152           0.239  
G03  22343793.691      -38034.275        -508.374           0.255  
G04  23643690.914     -158942.037       -2132.705           0.244  
G05  22499142.829      154418.053        1944.537           0.255  
G06  20633826.510      -32029.631        -484.856           0.255  
G07  23422224.032      -80509.396       -1342.715           0.248  
G09  23120565.215      -82606.645       -1437.472           0.251  
> 2023 05 18 00 01 31.2688020  0  7                     
G02  24265188.839      247736.291        2910.806           0.239  
G03  22343806.801      -38085.137        -508.554           0.255  
G04  23643745.383     -159155.318       -2133.360           0.244  
G05  22499091.206      154621.081        2027.892           0.255  
G06  20633840.178      -32078.096        -484.600           0.255  
G07  23422257.889      -80641.946       -1325.625           0.248  
G09  23120597.950      -82750.471       -1437.676           0.251  
> 2023 05 18 00 01 31.3688020  0  7                     
G02  24265115.344      248027.338        2910.169           0.239  
G03  22343819.604      -38136.006        -508.915           0.255  
G04  23643799.045     -159368.601       -2132.984           0.244  
G05  22499039.301      154823.715        2024.575           0.255  
G06  20633852.098      -32126.567        -484.961           0.255  
G07  23422291.750      -80774.471       -1325.528           0.248  
G09  23120636.660      -82894.282       -1437.086           0.251  
> 2023 05 18 00 01 31.4688020  0  7                     
G02  24265040.971      248318.382        2910.371           0.239  
G03  22343832.784      -38186.875        -508.199           0.255  
G04  23643852.508     -159581.889       -2133.015           0.244  
G05  22498988.059      155026.382        2027.715           0.255  
G06  20633864.837      -32175.043        -484.886           0.255  
G07  23422325.108      -80907.075       -1337.007           0.248  
G09  23120671.686      -83038.093       -1438.617           0.251  
> 2023 05 18 00 01 31.5688020  0  7                     
G02  24264966.338      248609.427        2909.607           0.239  
G03  22343845.870      -38237.750        -508.323           0.255  
G04  23643906.979     -159795.171       -2133.050           0.244  
G05  22498936.419      155229.004        2026.752           0.255  
G06  20633877.347      -32223.512        -485.128           0.255  
G07  23422358.985      -81039.530       -1324.938           0.248  
G09  23120708.107      -83181.927       -1436.718           0.251  
> 2023 05 18 00 01 31.6688020  0  7                     
G02  24264891.903      248900.483        2910.963           0.239  
G03  22343858.547      -38288.631        -508.663           0.255  
G04  23643961.699     -160008.460       -2132.946           0.244  
G05  22498884.624      155431.639        2023.994           0.255  
G06  20633889.845      -32271.997        -485.408           0.255  
G07  23422392.865      -81172.069       -1325.550           0.248  
G09  23120745.434      -83325.735       -1437.533           0.251  
> 2023 05 18 00 01 31.7688020  0  7                     
G02  24264817.964      249191.512        2910.191           0.239  
G03  22343871.513      -38339.514        -508.713           0.255  
G04  23644016.311     -160221.756       -2132.770           0.244  
G05  22498833.134      155634.291        2027.798           0.255  
G06  20633902.032      -32320.474        -484.690           0.255  
G07  23422426.701      -81304.605       -1325.206           0.248  
G09  23120781.777      -83469.562       -1439.253           0.250  
> 2023 05 18 00 01 31.8688020  0  7                     
G02  24264742.788      249482.776        2919.016           0.240  
G03  22343884.586      -38390.407        -508.846           0.255  
G04  23644071.293     -160435.044       -2132.976           0.244  
G05  22498781.459      155836.903        2025.498           0.255  
G06  20633914.289      -32368.961        -484.810           0.255  
G07  23422459.794      -81437.136       -1303.870           0.248  
G09  23120818.082      -83613.371       -1436.893           0.251  
> 2023 05 18 00 01 31.9688020  0  7                     
G02  24264669.577      249773.599        2910.910           0.239  
G03  22343897.856      -38441.297        -509.304           0.255  
G04  23644125.076     -160648.331       -2133.221           0.244  
G05  22498729.830      156038.582        1895.690           0.255  
G06  20633926.369      -32417.450        -484.907           0.255  
G07  23422493.838      -81569.541       -1297.652           0.248  
G09  23120855.527      -83757.198       -1438.171           0.251  
> 2023 05 18 00 01 32.0688020  0  7                     
G02  24264595.496      250064.634        2911.049           0.239  
G03  22343910.684      -38492.193        -508.876           0.255  
G04  23644179.286     -160861.625       -2133.563           0.244  
G05  22498678.178      156242.187        2028.470           0.255  
G06  20633938.938      -32465.941        -484.683           0.255  
G07  23422527.687      -81702.253       -1325.440           0.248  
G09  23120892.858      -83901.026       -1439.147           0.251  
> 2023 05 18 00 01 32.1688020  0  7                     
G02  24264521.048      250355.676        2910.759           0.239  
G03  22343923.507      -38543.109        -509.530           0.255  
G04  23644233.857     -161074.919       -2133.001           0.244  
G05  22498626.396      156444.795        2025.116           0.255  
G06  20633951.116      -32514.435        -484.410           0.255  
G07  23422561.561      -81834.807       -1325.677           0.248  
G09  23120929.278      -84044.842       -1437.960           0.251  
> 2023 05 18 00 01 32.2688020  0  7                     
G02  24264447.168      250646.715        2910.372           0.239  
G03  22343936.267      -38594.018        -509.318           0.255  
G04  23644288.027     -161288.210       -2132.672           0.244  
G05  22498574.782      156647.445        2027.216           0.255  
G06  20633963.548      -32562.938        -485.133           0.255  
G07  23422595.548      -81967.361       -1325.823           0.248  
G09  23120965.802      -84188.671       -1437.698           0.252  
> 2023 05 18 00 01 32.3688020  0  7                     
G02  24264373.129      250937.758        2910.693           0.239  
G03  22343949.036      -38644.921        -509.195           0.255  
G04  23644342.037     -161501.503       -2132.409           0.244  
G05  22498523.359      156850.054        2027.433           0.255  
G06  20633975.607      -32611.442        -484.819           0.255  
G07  23422629.929      -82099.916       -1325.410           0.248  
G09  23121003.273      -84332.499       -1438.576           0.252  
> 2023 05 18 00 01 32.4688020  0  7                     
G02  24264297.514      251228.796        2912.012           0.239  
G03  22343962.454      -38695.840        -509.225           0.255  
G04  23644396.759     -161714.802       -2134.130           0.244  
G05  22498471.575      157052.665        2023.656           0.255  
G06  20633986.719      -32659.948        -485.094           0.255  
G07  23422663.055      -82232.472       -1324.898           0.248  
G09  23121042.599      -84476.319       -1437.659           0.251  
> 2023 05 18 00 01 32.5688020  0  7                     
G02  24264223.847      251519.764        2904.641           0.239  
G03  22343975.606      -38746.639        -498.087           0.255  
G04  23644451.318     -161928.089       -2133.223           0.244  
G05  22498420.013      157255.636        2002.047           0.255  
G06  20633999.955      -32708.463        -485.124           0.255  
G07  23422696.956      -82365.041       -1325.801           0.248  
G09  23121077.062      -84620.123       -1426.182           0.251  
> 2023 05 18 00 01 32.6688020  0  7                     
G02  24264150.119      251810.878        2910.761           0.239  
G03  22343988.365      -38797.686        -509.368           0.255  
G04  23644505.507     -162141.393       -2133.849           0.244  
G05  22498368.263      157457.895        2025.492           0.255  
G06  20634012.975      -32756.970        -484.885           0.255  
G07  23422730.630      -82497.609       -1325.513           0.248  
G09  23121113.150      -84763.967       -1438.806           0.251  
> 2023 05 18 00 01 32.7688020  0  7                     
G02  24264076.765      252101.757        2892.617           0.239  
G03  22344001.352      -38848.622        -510.283           0.255  
G04  23644559.360     -162354.692       -2133.594           0.244  
G05  22498316.513      157660.528        2025.422           0.255  
G06  20634025.415      -32805.484        -484.442           0.255  
G07  23422764.315      -82630.179       -1325.754           0.248  
G09  23121149.654      -84907.789       -1438.745           0.251  
> 2023 05 18 00 01 32.8688020  0  7                     
G02  24264001.714      252392.961        2910.643           0.239  
G03  22344014.156      -38899.552        -509.281           0.255  
G04  23644614.087     -162567.988       -2133.387           0.244  
G05  22498265.166      157863.142        2028.354           0.255  
G06  20634037.729      -32854.003        -485.263           0.255  
G07  23422798.279      -82762.763       -1334.915           0.248  
G09  23121185.341      -85051.617       -1438.089           0.252  
> 2023 05 18 00 01 32.9688020  0  7                     
G02  24263928.608      252683.997        2910.016           0.239  
G03  22344027.205      -38950.583        -515.652           0.255  
G04  23644667.639     -162781.289       -2133.161           0.244  
G05  22498213.335      158065.736        2024.214           0.255  
G06  20634050.204      -32902.528        -485.487           0.255  
G07  23422832.332      -82895.324       -1325.375           0.248  
G09  23121222.005      -85195.461       -1440.125           0.252  
> 2023 05 18 00 01 33.0688020  0  7                     
G02  24263853.690      252975.048        2912.018           0.239  
G03  22344040.718      -39001.435        -508.947           0.255  
G04  23644722.630     -162994.589       -2134.078           0.244  
G05  22498161.834      158268.365        2027.581           0.255  
G06  20634061.621      -32951.056        -485.429           0.255  
G07  23422865.833      -83027.911       -1325.689           0.248  
G09  23121261.608      -85339.277       -1438.596           0.251  
> 2023 05 18 00 01 33.1688020  0  7                     
G02  24263779.516      253266.085        2911.236           0.239  
G03  22344052.919      -39052.381        -509.198           0.255  
G04  23644777.096     -163207.884       -2132.766           0.244  
G05  22498110.185      158470.947        2025.461           0.255  
G06  20634074.464      -32999.587        -485.672           0.255  
G07  23422899.407      -83160.487       -1325.193           0.248  
G09  23121296.365      -85483.107       -1437.757           0.251  
> 2023 05 18 00 01 33.2688020  0  7                     
G02  24263705.364      253557.120        2910.244           0.239  
G03  22344066.204      -39103.332        -509.237           0.255  
G04  23644831.684     -163421.190       -2132.907           0.244  
G05  22498058.528      158673.559        2024.802           0.255  
G06  20634087.181      -33048.126        -485.785           0.255  
G07  23422933.021      -83293.073       -1325.507           0.248  
G09  23121332.457      -85626.935       -1438.078           0.251  
> 2023 05 18 00 01 33.3688020  0  7                     
G02  24263630.978      253847.703        2850.731           0.239  
G03  22344079.311      -39154.300        -510.665           0.255  
G04  23644886.094     -163634.504       -2138.700           0.244  
G05  22498006.855      158876.154        2028.008           0.255  
G06  20634099.565      -33096.655        -484.944           0.255  
G07  23422967.169      -83425.658       -1325.627           0.248  
G09  23121369.397      -85770.767       -1438.457           0.252  
> 2023 05 18 00 01 33.4688020  0  7                     
G02  24263557.016      254139.131        2883.732           0.239  
G03  22344092.156      -39205.255        -509.779           0.255  
G04  23644939.690     -163847.880       -2145.354           0.244  
G05  22497955.141      159078.742        2024.240           0.255  
G06  20634112.091      -33145.198        -485.323           0.255  
G07  23423001.130      -83558.246       -1325.756           0.248  
G09  23121405.822      -85914.594       -1438.307           0.251  
> 2023 05 18 00 01 33.5688020  0  7                     
G02  24263482.890      254430.401        2935.355           0.239  
G03  22344104.845      -39256.220        -510.012           0.255  
G04  23644994.731     -164061.423       -2162.275           0.244  
G05  22497903.674      159281.359        2027.319           0.255  
G06  20634124.507      -33193.739        -485.244           0.255  
G07  23423035.135      -83690.843       -1326.261           0.248  
G09  23121441.462      -86058.503       -1443.112           0.251  
> 2023 05 18 00 01 33.6688020  0  7                     
G02  24263407.793      254721.278        2908.551           0.239  
G03  22344117.903      -39307.190        -509.406           0.255  
G04  23645049.263     -164274.412       -2131.985           0.244  
G05  22497851.614      159483.930        2025.627           0.255  
G06  20634136.954      -33242.287        -485.632           0.255  
G07  23423069.066      -83823.443       -1326.773           0.248  
G09  23121478.440      -86202.259       -1437.837           0.251  
> 2023 05 18 00 01 33.7688020  0  7                     
G02  24263334.473      255012.323        2909.539           0.239  
G03  22344130.911      -39358.161        -509.372           0.255  
G04  23645103.408     -164487.725       -2132.705           0.244  
G05  22497800.249      159686.535        2024.723           0.255  
G06  20634149.321      -33290.846        -485.648           0.255  
G07  23423102.436      -83956.040       -1326.694           0.248  
G09  23121515.130      -86346.095       -1438.901           0.251  
> 2023 05 18 00 01 33.8688020  0  7                     
G02  24263260.102      255303.369        2910.651           0.239  
G03  22344144.236      -39409.133        -509.263           0.255  
G04  23645157.704     -164701.036       -2133.168           0.244  
G05  22497748.707      159889.129        2028.069           0.255  
G06  20634161.494      -33339.399        -485.754           0.255  
G07  23423136.302      -84088.607       -1316.570           0.248  
G09  23121552.281      -86489.950       -1434.430           0.251  
> 2023 05 18 00 01 33.9688020  0  7                     
G02  24263186.475      255594.409        2910.700           0.239  
G03  22344157.377      -39460.131        -510.783           0.255  
G04  23645211.890     -164914.347       -2133.172           0.244  
G05  22497697.140      160091.700        2023.881           0.255  
G06  20634173.618      -33387.951        -484.764           0.255  
G07  23423169.885      -84221.245       -1326.427           0.248  
G09  23121588.855      -86633.771       -1438.646           0.251  
> 2023 05 18 00 01 34.0688020  0  7                     
G02  24263111.736      255885.447        2909.951           0.239  
G03  22344169.641      -39511.112        -509.251           0.255  
G04  23645266.292     -165127.656       -2132.803           0.244  
G05  22497645.487      160294.313        2027.434           0.255  
G06  20634186.245      -33436.514        -485.652           0.255  
G07  23423203.648      -84353.849       -1326.319           0.248  
G09  23121626.015      -86777.607       -1438.340           0.252  
> 2023 05 18 00 01 34.1688020  0  7                     
G02  24263036.423      256176.491        2910.511           0.239  
G03  22344182.622      -39562.109        -509.473           0.255  
G04  23645320.995     -165340.965       -2132.375           0.244  
G05  22497593.834      160496.863        2024.669           0.255  
G06  20634199.314      -33485.082        -485.837           0.255  
G07  23423237.380      -84486.458       -1325.908           0.248  
G09  23121661.465      -86921.438       -1438.374           0.252  
> 2023 05 18 00 01 34.2688020  0  7                     
G02  24262964.189      256467.519        2911.259           0.239  
G03  22344196.044      -39613.103        -509.756           0.255  
G04  23645376.187     -165554.274       -2133.557           0.244  
G05  22497542.214      160699.475        2026.424           0.255  
G06  20634211.676      -33533.644        -485.866           0.255  
G07  23423270.303      -84619.067       -1325.484           0.248  
G09  23121697.233      -87065.292       -1438.685           0.252  
> 2023 05 18 00 01 34.3688020  0  7                     
G02  24262891.294      256758.569        2910.774           0.239  
G03  22344208.846      -39664.108        -509.751           0.255  
G04  23645429.366     -165767.595       -2133.316           0.244  
G05  22497490.798      160902.035        2027.010           0.255  
G06  20634223.849      -33582.216        -485.470           0.255  
G07  23423303.538      -84751.689       -1326.205           0.248  
G09  23121734.560      -87209.111       -1439.048           0.251  
> 2023 05 18 00 01 34.4688020  0  7                     
G02  24262815.425      257049.605        2910.439           0.239  
G03  22344223.312      -39714.958        -493.047           0.255  
G04  23645483.126     -165980.912       -2134.378           0.244  
G05  22497439.219      161104.605        2023.258           0.255  
G06  20634234.714      -33630.795        -485.751           0.255  
G07  23423339.103      -84884.308       -1326.534           0.248  
G09  23121771.106      -87352.945       -1437.917           0.252  
> 2023 05 18 00 01 34.5688020  0  7                     
G02  24262741.695      257340.653        2910.756           0.239  
G03  22344235.691      -39766.131        -510.818           0.255  
G04  23645537.287     -166194.227       -2133.229           0.243  
G05  22497387.350      161307.193        2027.966           0.255  
G06  20634248.167      -33679.370        -485.633           0.255  
G07  23423373.696      -85016.928       -1326.261           0.248  
G09  23121807.073      -87496.787       -1437.145           0.252  
> 2023 05 18 00 01 34.6688020  0  7                     
G02  24262667.509      257631.684        2910.316           0.239  
G03  22344248.528      -39817.143        -510.695           0.255  
G04  23645592.649     -166407.550       -2133.286           0.244  
G05  22497335.835      161509.744        2023.767           0.255  
G06  20634259.181      -33727.954        -485.747           0.255  
G07  23423407.475      -85149.556       -1326.591           0.248  
G09  23121847.675      -87640.632       -1438.582           0.252  
> 2023 05 18 00 01 34.7688020  0  7                     
G02  24262593.343      257922.737        2910.068           0.239  
G03  22344261.094      -39868.158        -509.812           0.255  
G04  23645647.028     -166620.872       -2133.340           0.244  
G05  22497284.257      161712.344        2027.475           0.255  
G06  20634272.271      -33776.540        -486.224           0.255  
G07  23423441.304      -85282.181       -1326.226           0.248  
G09  23121882.459      -87784.475       -1438.797           0.252  
> 2023 05 18 00 01 34.8688020  0  7                     
G02  24262518.524      258213.769        2910.381           0.239  
G03  22344274.308      -39919.186        -510.004           0.255  
G04  23645701.465     -166834.180       -2132.623           0.244  
G05  22497232.574      161914.881        2025.055           0.255  
G06  20634285.242      -33825.129        -486.365           0.255  
G07  23423475.667      -85414.811       -1325.919           0.248  
G09  23121916.024      -87928.319       -1438.674           0.251  
> 2023 05 18 00 01 34.9688020  0  7                     
G02  24262444.803      258504.819        2910.939           0.239  
G03  22344287.649      -39970.394        -552.441           0.255  
G04  23645755.703     -167047.518       -2132.747           0.244  
G05  22497180.981      162116.899        1914.704           0.255  
G06  20634297.647      -33873.719        -485.961           0.255  
G07  23423508.567      -85547.412       -1316.635           0.248  
G09  23121954.618      -88072.154       -1438.579           0.251  
> 2023 05 18 00 01 35.0688020  0  7                     
G02  24262369.775      258795.848        2910.304           0.239  
G03  22344300.173      -40021.253        -509.421           0.255  
G04  23645809.932     -167260.842       -2132.524           0.244  
G05  22497129.690      162320.020        2026.377           0.255  
G06  20634309.671      -33922.312        -486.149           0.255  
G07  23423541.676      -85680.083       -1326.225           0.248  
G09  23121992.116      -88215.992       -1438.041           0.252  
> 2023 05 18 00 01 35.1688020  0  7                     
G02  24262296.564      259086.902        2910.692           0.239  
G03  22344312.766      -40072.295        -510.126           0.255  
G04  23645864.228     -167474.164       -2132.683           0.244  
G05  22497077.939      162522.592        2024.041           0.255  
G06  20634322.545      -33970.909        -486.216           0.255  
G07  23423575.258      -85812.710       -1328.575           0.248  
G09  23122029.068      -88359.836       -1438.066           0.252  
> 2023 05 18 00 01 35.2688020  0  7                     
G02  24262224.389      259377.935        2910.695           0.239  
G03  22344327.081      -40123.334        -510.673           0.255  
G04  23645918.168     -167687.503       -2133.423           0.244  
G05  22497025.408      162725.150        2027.654           0.255  
G06  20634334.429      -34019.514        -486.182           0.255  
G07  23423608.875      -85945.365       -1326.422           0.248  
G09  23122064.697      -88503.683       -1439.034           0.252  
> 2023 05 18 00 01 35.3688020  0  7                     
G02  24262148.644      259668.978        2909.925           0.239  
G03  22344339.978      -40174.382        -510.529           0.255  
G04  23645972.573     -167900.823       -2132.779           0.244  
G05  22496974.335      162927.696        2023.159           0.255  
G06  20634347.035      -34068.118        -485.760           0.255  
G07  23423642.872      -86078.012       -1327.117           0.248  
G09  23122101.249      -88647.525       -1439.061           0.251  
> 2023 05 18 00 01 35.4688020  0  7                     
G02  24262075.449      259960.016        2910.120           0.239  
G03  22344351.306      -40225.428        -509.889           0.255  
G04  23646027.474     -168114.166       -2133.789           0.244  
G05  22496922.614      163130.267        2027.376           0.255  
G06  20634360.124      -34116.732        -486.601           0.255  
G07  23423676.273      -86210.644       -1311.020           0.248  
G09  23122138.096      -88791.357       -1436.411           0.251  
