     3.03           OBSERVATION DATA    M: Mixed            RINEX VERSION / TYPE
GNSS-SDRLIB v1.1                        20230710 104239 UTC PGM / RUN BY / DATE 
                                                            MARKER NAME         
                                                            MARKER NUMBER       
                                                            MARKER TYPE         
                                                            OBSERVER / AGENCY   
GNSS-SDRLIB         GNSS-SDRLIB         1.1                 REC # / TYPE / VERS 
                                                            ANT # / TYPE        
        0.0000        0.0000        0.0000                  APPROX POSITION XYZ 
        0.0000        0.0000        0.0000                  ANTENNA: DELTA H/E/N
G    4 C1C L1C D1C S1C                                      SYS / # / OBS TYPES 
R    4 C1C L1C D1C S1C                                      SYS / # / OBS TYPES 
E    4 C1C L1C D1C S1C                                      SYS / # / OBS TYPES 
J    4 C1C L1C D1C S1C                                      SYS / # / OBS TYPES 
S    4 C1C L1C D1C S1C                                      SYS / # / OBS TYPES 
C    4 C1C L1C D1C S1C                                      SYS / # / OBS TYPES 
I    4 C1C L1C D1C S1C                                      SYS / # / OBS TYPES 
  1970    01    01    00    00   00.0000000     GPS         TIME OF FIRST OBS   
  1970    01    01    00    00   00.0000000     GPS         TIME OF LAST OBS    
G L1C                                                       SYS / PHASE SHIFT   
R L1C                                                       SYS / PHASE SHIFT   
E L1C  0.00000                                              SYS / PHASE SHIFT   
J L1C                                                       SYS / PHASE SHIFT   
S L1C                                                       SYS / PHASE SHIFT   
C L1C  0.00000                                              SYS / PHASE SHIFT   
I L1C  0.00000                                              SYS / PHASE SHIFT   
  0                                                         GLONASS SLOT / FRQ #
 C1C    0.000 C1P    0.000 C2C    0.000 C2P    0.000        GLONASS COD/PHS/BIS 
                                                            END OF HEADER       
> 2023 05 18 00 00 36.0688020  0  1                     
G07  20626255.849      -13510.001       -1309.150           0.248  
> 2023 05 18 00 00 36.0688020  0  2                     
G06  20627155.504       -5938.718        -465.593           0.255  
G07  23403727.577      -13497.873       -1309.179           0.248  
> 2023 05 18 00 00 36.0688020  0  3                     
G03  22336826.881      -10714.723        -484.101           0.255  
G06  20627155.504       -5938.718        -465.593           0.255  
G07  23403727.577      -13497.873       -1309.179           0.248  
> 2023 05 18 00 00 36.0688020  0  4                     
G03  22336826.881      -10714.734        -466.343           0.255  
G04  23613783.363      -41924.419       -2101.896           0.244  
G06  20627155.504       -5938.718        -465.593           0.255  
G07  23403727.577      -13497.873       -1309.179           0.248  
> 2023 05 18 00 00 36.0688020  0  5                     
G02  24306132.812       87325.788        2910.546           0.239  
G03  22336826.881      -10714.723        -484.101           0.255  
G04  23613783.363      -41924.419       -2101.896           0.244  
G06  20627155.504       -5938.718        -465.593           0.255  
G07  23403727.577      -13497.873       -1309.179           0.248  
> 2023 05 18 00 00 36.0688020  0  6                     
G02  24306132.812       87325.788        2910.546           0.239  
G03  22336826.881      -10714.723        -484.101           0.255  
G04  23613783.363      -41924.562       -2126.173           0.244  
G05  22527682.080       42816.969        2116.191           0.255  
G06  20627155.504       -5938.718        -465.593           0.255  
G07  23403727.577      -13497.873       -1309.179           0.248  
> 2023 05 18 00 00 36.1688020  0  6                     
G02  24306057.846       87616.884        2911.061           0.239  
G03  22336838.774      -10763.095        -483.376           0.255  
G04  23613838.546      -42137.056       -2088.781           0.244  
G05  22527629.651       43020.466        2038.604           0.255  
G06  20627167.448       -5985.298        -465.841           0.255  
G07  23403761.433      -13628.289       -1309.064           0.248  
> 2023 05 18 00 00 36.2688020  0  6                     
G02  24305983.273       87907.979        2912.068           0.239  
G03  22336851.193      -10811.475        -483.975           0.255  
G04  23613893.169      -42349.953       -2126.217           0.244  
G05  22527577.948       43224.326        2038.122           0.255  
G06  20627178.563       -6031.874        -465.826           0.255  
G07  23403795.096      -13759.202       -1309.172           0.248  
> 2023 05 18 00 00 36.3688020  0  6                     
G02  24305909.117       88199.065        2911.624           0.239  
G03  22336864.103      -10859.858        -484.268           0.255  
G04  23613946.737      -42562.655       -2127.049           0.244  
G05  22527526.066       43428.177        2037.093           0.255  
G06  20627190.491       -6078.454        -465.469           0.255  
G07  23403828.830      -13890.119       -1308.892           0.248  
> 2023 05 18 00 00 36.4688020  0  6                     
G02  24305835.293       88490.152        2911.468           0.239  
G03  22336876.247      -10908.247        -484.349           0.255  
G04  23614000.598      -42775.347       -2127.173           0.244  
G05  22527474.109       43632.040        2038.153           0.255  
G06  20627202.661       -6125.036        -465.713           0.255  
G07  23403862.461      -14021.040       -1308.865           0.248  
> 2023 05 18 00 00 36.5688020  0  6                     
G02  24305761.006       88781.418        2935.430           0.239  
G03  22336888.531      -10956.681        -444.750           0.255  
G04  23614054.946      -42988.045       -2127.634           0.244  
G05  22527422.285       43835.899        2039.243           0.255  
G06  20627214.575       -6171.626        -466.131           0.255  
G07  23403895.653      -14151.814       -1289.946           0.248  
> 2023 05 18 00 00 36.6688020  0  6                     
G02  24305687.298       89072.332        2910.636           0.239  
G03  22336900.494      -11005.032        -485.000           0.255  
G04  23614109.875      -43200.571       -2136.887           0.244  
G05  22527370.143       44039.752        2039.411           0.255  
G06  20627226.753       -6218.210        -465.335           0.255  
G07  23403928.939      -14282.907       -1309.147           0.248  
> 2023 05 18 00 00 36.7688020  0  6                     
G02  24305612.661       89363.420        2910.882           0.239  
G03  22336913.344      -11053.431        -484.153           0.255  
G04  23614164.268      -43413.444       -2127.480           0.244  
G05  22527318.257       44243.593        2039.391           0.255  
G06  20627239.213       -6264.812        -465.733           0.255  
G07  23403962.468      -14413.833       -1308.995           0.248  
> 2023 05 18 00 00 36.8688020  0  6                     
G02  24305538.909       89654.510        2911.310           0.239  
G03  22336925.587      -11101.839        -484.425           0.255  
G04  23614217.558      -43626.148       -2127.315           0.244  
G05  22527266.122       44447.443        2038.735           0.255  
G06  20627250.667       -6311.400        -465.317           0.255  
G07  23403996.049      -14544.765       -1309.525           0.248  
> 2023 05 18 00 00 36.9688020  0  6                     
G02  24305463.978       89945.603        2911.373           0.239  
G03  22336937.537      -11150.245        -484.348           0.255  
G04  23614271.741      -43838.844       -2127.379           0.244  
G05  22527214.551       44651.283        2037.549           0.255  
G06  20627262.530       -6358.001        -465.910           0.255  
G07  23404029.034      -14675.704       -1309.078           0.248  
> 2023 05 18 00 00 37.0688020  0  6                     
G02  24305389.996       90236.691        2911.191           0.239  
G03  22336949.881      -11198.657        -484.467           0.255  
G04  23614325.569      -44051.338       -2091.740           0.244  
G05  22527162.527       44855.126        2037.486           0.255  
G06  20627274.529       -6404.608        -466.350           0.255  
G07  23404062.334      -14806.737       -1317.752           0.248  
> 2023 05 18 00 00 37.1688020  0  6                     
G02  24305316.367       90527.780        2912.271           0.239  
G03  22336962.449      -11247.075        -483.552           0.255  
G04  23614379.738      -44264.245       -2126.254           0.244  
G05  22527110.556       45058.971        2039.021           0.255  
G06  20627286.174       -6451.211        -466.039           0.255  
G07  23404095.467      -14937.594       -1309.452           0.248  
> 2023 05 18 00 00 37.2688020  0  6                     
G02  24305242.000       90818.865        2911.695           0.239  
G03  22336974.690      -11295.504        -483.950           0.255  
G04  23614434.044      -44476.962       -2127.758           0.244  
G05  22527058.789       45262.816        2038.622           0.255  
G06  20627298.593       -6497.828        -465.938           0.255  
G07  23404129.459      -15068.538       -1309.340           0.248  
> 2023 05 18 00 00 37.3688020  0  6                     
G02  24305166.221       91109.954        2910.450           0.239  
G03  22336987.092      -11343.934        -484.702           0.255  
G04  23614488.801      -44689.666       -2127.407           0.244  
G05  22527006.790       45466.644        2038.492           0.255  
G06  20627309.665       -6544.442        -465.485           0.255  
G07  23404163.576      -15199.494       -1309.601           0.248  
> 2023 05 18 00 00 37.4688020  0  6                     
G02  24305092.547       91400.785        2909.643           0.239  
G03  22336998.704      -11392.113        -458.943           0.255  
G04  23614542.682      -44902.375       -2127.166           0.244  
G05  22526954.773       45670.480        2038.950           0.255  
G06  20627321.983       -6591.055        -466.364           0.255  
G07  23404196.240      -15330.443       -1309.468           0.248  
> 2023 05 18 00 00 37.5688020  0  6                     
G02  24305018.138       91692.213        2940.970           0.239  
G03  22337011.582      -11440.793        -484.214           0.255  
G04  23614597.324      -45115.077       -2127.182           0.244  
G05  22526903.011       45874.310        2038.287           0.255  
G06  20627333.578       -6637.684        -466.651           0.255  
G07  23404229.268      -15461.400       -1309.106           0.248  
> 2023 05 18 00 00 37.6688020  0  6                     
G02  24304944.606       91983.224        2911.283           0.239  
G03  22337025.149      -11489.246        -484.728           0.255  
G04  23614650.925      -45327.787       -2127.026           0.244  
G05  22526851.191       46078.129        2037.080           0.255  
G06  20627344.169       -6684.304        -466.694           0.255  
G07  23404262.891      -15592.360       -1309.421           0.248  
> 2023 05 18 00 00 37.7688020  0  6                     
G02  24304869.683       92274.320        2910.800           0.239  
G03  22337036.843      -11537.689        -485.603           0.255  
G04  23614705.790      -45540.502       -2127.332           0.244  
G05  22526798.863       46281.964        2038.854           0.255  
G06  20627356.810       -6730.928        -465.269           0.255  
G07  23404296.432      -15723.325       -1309.053           0.248  
> 2023 05 18 00 00 37.8688020  0  6                     
G02  24304797.612       92565.408        2911.726           0.239  
G03  22337048.780      -11586.141        -484.871           0.255  
G04  23614759.761      -45753.212       -2127.310           0.244  
G05  22526746.718       46486.087        2064.575           0.255  
G06  20627368.584       -6777.561        -465.711           0.255  
G07  23404329.984      -15854.283       -1309.438           0.248  
> 2023 05 18 00 00 37.9688020  0  6                     
G02  24304721.642       92856.495        2911.274           0.239  
G03  22337061.483      -11634.592        -484.872           0.255  
G04  23614814.670      -45965.923       -2127.031           0.244  
G05  22526694.852       46689.611        2038.797           0.255  
G06  20627381.068       -6824.208        -466.969           0.255  
G07  23404363.133      -15985.251       -1309.189           0.248  
> 2023 05 18 00 00 38.0688020  0  6                     
G02  24304648.398       93147.587        2911.318           0.239  
G03  22337073.938      -11683.056        -484.775           0.255  
G04  23614867.720      -46178.651       -2127.450           0.244  
G05  22526643.462       46893.439        2038.780           0.255  
G06  20627392.773       -6870.845        -466.552           0.255  
G07  23404395.740      -16116.221       -1309.403           0.248  
> 2023 05 18 00 00 38.1688020  0  6                     
G02  24304574.296       93438.678        2910.421           0.239  
G03  22337085.979      -11731.522        -484.570           0.255  
G04  23614922.103      -46391.362       -2127.414           0.244  
G05  22526591.340       47097.251        2037.126           0.255  
G06  20627404.566       -6917.477        -466.439           0.255  
G07  23404428.592      -16247.201       -1309.741           0.248  
> 2023 05 18 00 00 38.2688020  0  6                     
G02  24304500.502       93729.764        2910.115           0.239  
G03  22337098.105      -11779.980        -484.093           0.255  
G04  23614975.570      -46604.113       -2126.669           0.244  
G05  22526539.308       47301.066        2037.539           0.255  
G06  20627415.710       -6964.126        -466.087           0.255  
G07  23404462.849      -16378.174       -1309.286           0.248  
> 2023 05 18 00 00 38.3688020  0  6                     
G02  24304425.681       94020.859        2910.519           0.239  
G03  22337110.279      -11828.460        -484.529           0.255  
G04  23615030.719      -46816.792       -2127.043           0.244  
G05  22526487.356       47504.887        2038.744           0.255  
G06  20627428.666       -7010.774        -466.347           0.255  
G07  23404496.189      -16509.159       -1309.542           0.248  
> 2023 05 18 00 00 38.4688020  0  6                     
G02  24304351.116       94311.943        2910.168           0.239  
G03  22337122.702      -11877.332        -527.001           0.255  
G04  23615085.354      -47029.514       -2126.707           0.244  
G05  22526435.177       47708.695        2038.267           0.255  
G06  20627441.001       -7057.435        -466.785           0.255  
G07  23404530.186      -16640.139       -1310.441           0.248  
> 2023 05 18 00 00 38.5688020  0  6                     
G02  24304276.648       94603.034        2910.901           0.239  
G03  22337134.993      -11925.427        -485.063           0.255  
G04  23615139.225      -47242.239       -2127.672           0.244  
G05  22526383.043       47912.500        2038.358           0.255  
G06  20627451.400       -7104.089        -466.411           0.255  
G07  23404563.905      -16771.124       -1309.932           0.248  
> 2023 05 18 00 00 38.6688020  0  6                     
G02  24304202.087       94894.133        2911.135           0.239  
G03  22337147.151      -11973.906        -485.612           0.255  
G04  23615195.227      -47454.902       -2107.741           0.244  
G05  22526330.775       48116.308        2037.895           0.255  
G06  20627464.253       -7150.752        -465.898           0.255  
G07  23404596.390      -16902.114       -1309.749           0.248  
> 2023 05 18 00 00 38.7688020  0  6                     
G02  24304128.365       95185.217        2910.757           0.239  
G03  22337159.291      -12022.399        -484.972           0.255  
G04  23615248.207      -47667.676       -2127.235           0.244  
G05  22526279.540       48320.105        2037.119           0.255  
G06  20627476.113       -7197.413        -466.396           0.255  
G07  23404630.044      -17033.106       -1309.972           0.248  
> 2023 05 18 00 00 38.8688020  0  6                     
G02  24304055.558       95476.300        2910.783           0.239  
G03  22337171.681      -12070.901        -484.591           0.255  
G04  23615302.251      -47880.398       -2127.726           0.244  
G05  22526227.834       48523.906        2038.247           0.255  
G06  20627487.946       -7244.081        -467.067           0.255  
G07  23404662.921      -17164.098       -1309.805           0.248  
> 2023 05 18 00 00 38.9688020  0  6                     
G02  24303981.976       95767.465        2960.881           0.239  
G03  22337184.246      -12119.395        -484.754           0.255  
G04  23615355.193      -48093.130       -2127.848           0.244  
G05  22526176.156       48727.714        2038.501           0.255  
G06  20627499.946       -7290.751        -466.992           0.255  
G07  23404696.067      -17295.091       -1309.796           0.248  
> 2023 05 18 00 00 39.0688020  0  6                     
G02  24303905.285       96058.487        2912.868           0.240  
G03  22337197.046      -12167.900        -484.557           0.255  
G04  23615410.275      -48305.855       -2128.523           0.244  
G05  22526124.149       48931.502        2037.922           0.255  
G06  20627511.541       -7337.420        -466.905           0.255  
G07  23404729.714      -17426.092       -1309.551           0.248  
> 2023 05 18 00 00 39.1688020  0  6                     
G02  24303831.663       96349.583        2911.752           0.239  
G03  22337209.351      -12216.413        -484.826           0.255  
G04  23615464.613      -48518.577       -2126.848           0.244  
G05  22526071.677       49135.299        2037.831           0.255  
G06  20627523.609       -7384.091        -466.589           0.255  
G07  23404763.666      -17557.090       -1310.149           0.248  
> 2023 05 18 00 00 39.2688020  0  6                     
G02  24303757.340       96640.673        2911.813           0.239  
G03  22337222.178      -12264.931        -485.465           0.255  
G04  23615517.918      -48731.300       -2126.755           0.244  
G05  22526020.049       49339.091        2036.920           0.255  
G06  20627535.524       -7430.776        -466.850           0.255  
G07  23404796.677      -17688.098       -1310.068           0.248  
> 2023 05 18 00 00 39.3688020  0  6                     
G02  24303684.964       96931.760        2911.718           0.239  
G03  22337234.925      -12313.436        -483.659           0.255  
G04  23615572.309      -48944.031       -2127.595           0.244  
G05  22525967.672       49542.892        2038.538           0.255  
G06  20627547.008       -7477.463        -467.038           0.255  
G07  23404829.634      -17819.102       -1309.715           0.248  
> 2023 05 18 00 00 39.4688020  0  6                     
G02  24303611.236       97222.843        2911.020           0.239  
G03  22337246.189      -12361.966        -485.234           0.255  
G04  23615626.369      -49156.759       -2128.637           0.244  
G05  22525915.887       49746.681        2037.880           0.255  
G06  20627558.732       -7524.146        -466.752           0.255  
G07  23404863.745      -17950.197       -1316.731           0.248  
> 2023 05 18 00 00 39.5688020  0  6                     
G02  24303536.989       97513.934        2910.778           0.239  
G03  22337258.387      -12410.491        -485.035           0.255  
G04  23615680.534      -49369.494       -2128.115           0.244  
G05  22525863.969       49950.470        2038.067           0.255  
G06  20627570.650       -7570.840        -466.919           0.255  
G07  23404897.542      -18081.130       -1310.046           0.248  
> 2023 05 18 00 00 39.6688020  0  6                     
G02  24303461.666       97805.009        2910.756           0.239  
G03  22337271.213      -12459.023        -485.288           0.255  
G04  23615735.496      -49582.225       -2127.685           0.244  
G05  22525811.972       50154.251        2037.204           0.255  
G06  20627583.655       -7617.531        -467.002           0.255  
G07  23404930.231      -18212.154       -1310.249           0.248  
> 2023 05 18 00 00 39.7688020  0  6                     
G02  24303387.481       98096.103        2911.128           0.239  
G03  22337282.264      -12507.562        -485.310           0.255  
G04  23615789.160      -49794.955       -2127.878           0.244  
G05  22525759.974       50358.032        2037.599           0.255  
G06  20627594.937       -7664.230        -467.287           0.255  
G07  23404964.171      -18343.171       -1310.293           0.248  
> 2023 05 18 00 00 39.8688020  0  6                     
G02  24303313.842       98387.186        2910.352           0.239  
G03  22337295.514      -12556.101        -484.741           0.255  
G04  23615843.493      -50007.679       -2127.357           0.244  
G05  22525708.281       50561.824        2039.145           0.255  
G06  20627607.097       -7710.933        -467.252           0.255  
G07  23404996.955      -18474.200       -1310.395           0.248  
> 2023 05 18 00 00 39.9688020  0  6                     
G02  24303238.383       98678.279        2911.193           0.239  
G03  22337307.163      -12604.651        -485.677           0.255  
G04  23615898.046      -50220.409       -2126.499           0.244  
G05  22525656.547       50765.595        2038.316           0.255  
G06  20627618.729       -7757.632        -466.913           0.255  
G07  23405030.440      -18605.219       -1310.362           0.248  
> 2023 05 18 00 00 40.0688020  0  6                     
G02  24303163.479       98969.365        2911.939           0.239  
G03  22337321.208      -12653.200        -486.122           0.255  
G04  23615952.937      -50433.547       -2198.730           0.244  
G05  22525604.585       50969.372        2037.648           0.255  
G06  20627630.825       -7804.346        -466.902           0.255  
G07  23405063.757      -18736.251       -1309.713           0.248  
> 2023 05 18 00 00 40.1688020  0  6                     
G02  24303088.897       99260.458        2910.940           0.239  
G03  22337333.222      -12701.755        -485.607           0.255  
G04  23616007.403      -50645.895       -2127.077           0.244  
G05  22525552.429       51173.138        2036.662           0.255  
G06  20627642.660       -7851.058        -467.093           0.255  
G07  23405097.256      -18867.145       -1269.839           0.248  
> 2023 05 18 00 00 40.2688020  0  6                     
G02  24303016.298       99551.544        2911.844           0.239  
G03  22337345.792      -12750.316        -485.951           0.255  
G04  23616061.413      -50858.631       -2127.413           0.244  
G05  22525500.666       51377.129        2014.614           0.255  
G06  20627654.695       -7897.770        -467.599           0.255  
G07  23405129.976      -18998.037       -1262.691           0.248  
> 2023 05 18 00 00 40.3688020  0  6                     
G02  24302941.951       99842.635        2910.889           0.239  
G03  22337357.833      -12798.878        -485.097           0.255  
G04  23616114.982      -51071.365       -2126.751           0.244  
G05  22525448.720       51580.681        2037.826           0.255  
G06  20627666.434       -7944.486        -467.505           0.255  
G07  23405163.402      -19129.350       -1309.995           0.248  
> 2023 05 18 00 00 40.4688020  0  6                     
G02  24302867.449      100133.721        2910.638           0.240  
G03  22337370.347      -12847.447        -485.060           0.255  
G04  23616168.379      -51284.103       -2127.100           0.244  
G05  22525396.772       51784.445        2037.841           0.255  
G06  20627678.239       -7991.208        -466.555           0.255  
G07  23405196.804      -19260.392       -1310.243           0.248  
> 2023 05 18 00 00 40.5688020  0  6                     
G02  24302794.546      100424.872        2943.500           0.239  
G03  22337382.756      -12896.069        -501.254           0.255  
G04  23616222.606      -51496.853       -2127.235           0.244  
G05  22525344.463       51988.208        2037.046           0.255  
G06  20627689.984       -8037.934        -467.730           0.255  
G07  23405230.459      -19391.443       -1309.964           0.248  
> 2023 05 18 00 00 40.6688020  0  6                     
G02  24302720.439      100715.614        2915.419           0.239  
G03  22337395.155      -12944.602        -486.115           0.255  
G04  23616277.325      -51709.594       -2128.087           0.244  
G05  22525292.879       52191.973        2037.557           0.255  
G06  20627701.552       -8084.664        -467.755           0.255  
G07  23405264.092      -19522.477       -1323.665           0.248  
> 2023 05 18 00 00 40.7688020  0  6                     
G02  24302645.622      101006.862        2884.796           0.239  
G03  22337407.481      -12993.184        -485.777           0.255  
G04  23616330.698      -51922.335       -2126.995           0.244  
G05  22525241.013       52395.740        2038.119           0.255  
G06  20627713.477       -8131.397        -468.242           0.255  
G07  23405297.651      -19653.539       -1309.935           0.248  
> 2023 05 18 00 00 40.8688020  0  6                     
G02  24302570.997      101298.083        2913.133           0.239  
G03  22337419.962      -13041.763        -485.687           0.255  
G04  23616385.401      -52134.959       -2158.677           0.244  
G05  22525188.943       52599.493        2037.480           0.255  
G06  20627726.106       -8178.131        -467.335           0.255  
G07  23405331.041      -19784.602       -1310.634           0.248  
> 2023 05 18 00 00 40.9688020  0  6                     
G02  24302496.154      101589.164        2911.356           0.239  
G03  22337432.859      -13090.355        -477.517           0.255  
G04  23616440.505      -52347.820       -2127.818           0.244  
G05  22525137.216       52803.254        2036.672           0.255  
G06  20627737.712       -8224.864        -466.260           0.255  
G07  23405364.164      -19915.656       -1311.338           0.248  
> 2023 05 18 00 00 41.0688020  0  6                     
G02  24302423.365      101880.240        2910.728           0.239  
G03  22337444.737      -13138.954        -486.845           0.255  
G04  23616494.019      -52560.565       -2127.400           0.244  
G05  22525085.230       53007.007        2037.227           0.255  
G06  20627750.651       -8271.608        -466.757           0.255  
G07  23405398.359      -20046.723       -1311.169           0.248  
> 2023 05 18 00 00 41.1688020  0  6                     
G02  24302348.036      102171.330        2910.761           0.239  
G03  22337457.682      -13187.554        -486.459           0.255  
G04  23616548.872      -52773.317       -2127.666           0.244  
G05  22525033.285       53210.771        2038.110           0.255  
G06  20627760.675       -8318.361        -467.009           0.255  
G07  23405431.585      -20177.774       -1311.145           0.248  
> 2023 05 18 00 00 41.2688020  0  6                     
G02  24302273.068      102462.428        2911.551           0.239  
G03  22337469.463      -13236.158        -486.397           0.255  
G04  23616604.250      -52986.075       -2128.356           0.244  
G05  22524980.856       53414.510        2037.800           0.255  
G06  20627772.902       -8365.109        -467.570           0.255  
G07  23405465.024      -20308.839       -1310.416           0.248  
> 2023 05 18 00 00 41.3688020  0  6                     
G02  24302199.094      102753.514        2911.579           0.239  
G03  22337481.806      -13284.764        -486.044           0.255  
G04  23616657.695      -53198.832       -2128.354           0.244  
G05  22524929.277       53618.258        2036.692           0.255  
G06  20627785.388       -8411.864        -468.406           0.255  
G07  23405497.634      -20439.911       -1310.735           0.248  
> 2023 05 18 00 00 41.4688020  0  6                     
G02  24302126.264      103044.595        2909.945           0.239  
G03  22337494.150      -13333.374        -485.809           0.255  
G04  23616711.144      -53411.564       -2127.153           0.244  
G05  22524877.640       53822.007        2037.140           0.255  
G06  20627797.819       -8458.615        -467.300           0.255  
G07  23405532.107      -20570.984       -1311.392           0.248  
> 2023 05 18 00 00 41.5688020  0  6                     
G02  24302052.157      103335.696        2911.281           0.239  
G03  22337506.530      -13381.993        -485.695           0.255  
G04  23616765.218      -53624.311       -2126.787           0.244  
G05  22524825.231       54025.754        2037.753           0.255  
G06  20627809.622       -8505.382        -467.653           0.255  
G07  23405564.562      -20702.056       -1310.955           0.248  
> 2023 05 18 00 00 41.6688020  0  6                     
G02  24301977.945      103626.790        2910.983           0.239  
G03  22337518.421      -13430.623        -486.022           0.255  
G04  23616819.059      -53837.154       -2134.746           0.244  
G05  22524773.715       54229.490        2037.539           0.255  
G06  20627821.592       -8552.140        -468.294           0.255  
G07  23405597.807      -20833.135       -1310.944           0.248  
> 2023 05 18 00 00 41.7688020  0  6                     
G02  24301904.306      103917.871        2910.554           0.239  
G03  22337530.927      -13479.249        -485.717           0.255  
G04  23616874.032      -54049.743       -2107.131           0.244  
G05  22524721.738       54433.232        2036.993           0.255  
G06  20627833.073       -8598.902        -467.974           0.255  
G07  23405631.143      -20964.423       -1327.833           0.248  
> 2023 05 18 00 00 41.8688020  0  6                     
G02  24301829.825      104208.944        2910.341           0.239  
G03  22337543.281      -13527.884        -486.190           0.255  
G04  23616927.902      -54262.717       -2140.736           0.244  
G05  22524669.850       54637.114        2018.342           0.255  
G06  20627845.078       -8645.673        -467.545           0.255  
G07  23405664.691      -21095.235       -1300.556           0.248  
> 2023 05 18 00 00 41.9688020  0  6                     
G02  24301755.318      104500.035        2910.597           0.239  
G03  22337555.520      -13576.509        -486.038           0.255  
G04  23616981.994      -54475.344       -2127.356           0.244  
G05  22524618.035       54840.708        2037.871           0.255  
G06  20627856.863       -8692.449        -467.861           0.255  
G07  23405697.809      -21226.379       -1311.131           0.248  
> 2023 05 18 00 00 42.0688020  0  6                     
G02  24301681.396      104791.130        2909.700           0.239  
G03  22337568.037      -13625.149        -485.711           0.255  
G04  23617036.859      -54688.106       -2127.407           0.244  
G05  22524565.834       55044.441        2038.074           0.255  
G06  20627868.995       -8739.228        -468.051           0.255  
G07  23405731.853      -21357.462       -1310.637           0.248  
> 2023 05 18 00 00 42.1688020  0  6                     
G02  24301606.252      105082.214        2910.752           0.239  
G03  22337580.743      -13674.285        -537.357           0.255  
G04  23617091.497      -54900.860       -2128.489           0.244  
G05  22524514.419       55247.748        1963.494           0.255  
G06  20627881.000       -8786.005        -468.029           0.255  
G07  23405765.184      -21488.344       -1300.366           0.248  
> 2023 05 18 00 00 42.2688020  0  6                     
G02  24301532.887      105373.301        2909.889           0.239  
G03  22337593.862      -13722.458        -485.738           0.255  
G04  23617144.907      -55113.611       -2127.988           0.244  
G05  22524462.467       55451.902        2037.758           0.255  
G06  20627892.595       -8832.787        -468.120           0.255  
G07  23405799.023      -21619.642       -1311.181           0.248  
> 2023 05 18 00 00 42.3688020  0  6                     
G02  24301459.218      105664.399        2911.446           0.239  
G03  22337606.013      -13771.196        -520.442           0.255  
G04  23617198.840      -55326.443       -2127.653           0.244  
G05  22524410.366       55655.945        2121.021           0.255  
G06  20627904.514       -8879.569        -467.149           0.255  
G07  23405832.392      -21750.745       -1311.036           0.248  
> 2023 05 18 00 00 42.4688020  0  6                     
G02  24301384.841      105955.489        2911.067           0.239  
G03  22337618.592      -13819.766        -486.988           0.255  
G04  23617253.204      -55539.088       -2116.679           0.244  
G05  22524358.329       55859.350        2037.304           0.255  
G06  20627916.160       -8926.366        -468.038           0.255  
G07  23405865.599      -21881.840       -1311.221           0.248  
> 2023 05 18 00 00 42.5688020  0  6                     
G02  24301310.534      106246.578        2911.247           0.239  
G03  22337630.822      -13868.429        -485.785           0.255  
G04  23617307.689      -55752.064       -2152.810           0.244  
G05  22524306.377       56063.073        2036.679           0.255  
G06  20627928.481       -8973.161        -468.218           0.255  
G07  23405898.592      -22012.946       -1311.245           0.248  
> 2023 05 18 00 00 42.6688020  0  6                     
G02  24301236.038      106537.662        2911.250           0.239  
G03  22337643.182      -13917.100        -486.305           0.255  
G04  23617361.800      -55964.656       -2126.600           0.244  
G05  22524254.481       56266.796        2038.002           0.255  
G06  20627940.739       -9019.957        -468.501           0.255  
G07  23405932.892      -22144.047       -1310.798           0.248  
> 2023 05 18 00 00 42.7688020  0  6                     
G02  24301162.473      106828.753        2911.318           0.239  
G03  22337655.042      -13965.774        -487.574           0.255  
G04  23617415.706      -56177.429       -2128.065           0.244  
G05  22524202.384       56470.504        2037.294           0.255  
G06  20627952.521       -9066.755        -467.731           0.255  
G07  23405966.258      -22275.162       -1311.423           0.248  
> 2023 05 18 00 00 42.8688020  0  6                     
G02  24301088.430      107119.844        2910.760           0.239  
G03  22337667.393      -14014.445        -487.496           0.255  
G04  23617470.749      -56390.192       -2127.361           0.244  
G05  22524150.443       56674.221        2036.153           0.255  
G06  20627964.254       -9113.560        -467.453           0.255  
G07  23405998.335      -22406.266       -1310.619           0.248  
> 2023 05 18 00 00 42.9688020  0  6                     
G02  24301014.409      107410.763        2905.028           0.239  
G03  22337679.863      -14062.967        -470.117           0.255  
G04  23617524.867      -56602.960       -2127.534           0.244  
G05  22524098.733       56878.308        2042.396           0.255  
G06  20627976.065       -9160.372        -467.905           0.255  
G07  23406032.354      -22537.228       -1299.936           0.248  
> 2023 05 18 00 00 43.0688020  0  6                     
G02  24300939.473      107701.870        2924.197           0.239  
G03  22337692.396      -14111.810        -487.062           0.255  
G04  23617578.897      -56815.734       -2127.311           0.244  
G05  22524046.824       57081.627        2003.629           0.255  
G06  20627988.091       -9207.182        -468.180           0.255  
G07  23406065.723      -22668.496       -1311.235           0.248  
> 2023 05 18 00 00 43.1688020  0  6                     
G02  24300865.609      107993.332        2945.536           0.239  
G03  22337704.601      -14160.504        -487.185           0.255  
G04  23617632.588      -57028.502       -2128.001           0.244  
G05  22523994.866       57285.349        2037.143           0.255  
G06  20628000.518       -9253.991        -467.955           0.255  
G07  23406099.122      -22799.632       -1301.084           0.248  
> 2023 05 18 00 00 43.2688020  0  6                     
G02  24300791.479      108284.203        2911.258           0.239  
G03  22337716.386      -14208.804        -474.915           0.255  
G04  23617686.296      -57241.263       -2127.485           0.244  
G05  22523943.016       57488.881        1990.796           0.255  
G06  20628012.563       -9300.812        -467.610           0.255  
G07  23406132.502      -22930.742       -1310.880           0.248  
> 2023 05 18 00 00 43.3688020  0  6                     
G02  24300716.962      108575.294        2911.156           0.239  
G03  22337728.966      -14257.330        -438.134           0.255  
G04  23617741.115      -57454.209       -2143.111           0.244  
G05  22523891.344       57692.767        2037.854           0.255  
G06  20628024.621       -9347.636        -467.594           0.255  
G07  23406166.088      -23061.904       -1312.295           0.248  
> 2023 05 18 00 00 43.4688020  0  6                     
G02  24300642.056      108866.385        2910.945           0.239  
G03  22337742.411      -14306.587        -487.506           0.255  
G04  23617796.034      -57666.814       -2127.519           0.244  
G05  22523839.374       57896.463        2037.287           0.255  
G06  20628036.044       -9394.468        -468.072           0.255  
G07  23406199.436      -23192.998       -1311.190           0.248  
> 2023 05 18 00 00 43.5688020  0  6                     
G02  24300566.834      109157.462        2909.490           0.239  
G03  22337755.103      -14355.297        -486.902           0.255  
G04  23617850.985      -57879.586       -2126.134           0.244  
G05  22523787.415       58100.156        2035.595           0.255  
G06  20628047.565       -9441.293        -468.638           0.255  
G07  23406232.989      -23324.131       -1311.743           0.248  
> 2023 05 18 00 00 43.6688020  0  6                     
G02  24300493.385      109448.551        2910.650           0.239  
G03  22337766.197      -14404.019        -487.285           0.255  
G04  23617904.098      -58092.357       -2127.319           0.244  
G05  22523735.621       58303.869        2037.787           0.255  
G06  20628060.185       -9488.125        -468.616           0.255  
G07  23406265.690      -23455.265       -1311.549           0.248  
> 2023 05 18 00 00 43.7688020  0  6                     
G02  24300419.240      109739.701        2927.374           0.239  
G03  22337778.356      -14453.010        -559.691           0.255  
G04  23617958.255      -58305.303       -2154.431           0.244  
G05  22523683.555       58507.553        2037.575           0.255  
G06  20628072.255       -9534.953        -468.745           0.255  
G07  23406300.098      -23586.503       -1313.744           0.248  
> 2023 05 18 00 00 43.8688020  0  6                     
G02  24300345.722      110030.740        2911.476           0.239  
G03  22337791.849      -14501.462        -487.590           0.255  
G04  23618011.641      -58517.924       -2128.195           0.244  
G05  22523631.287       58711.708        2162.624           0.255  
G06  20628083.032       -9581.793        -467.893           0.255  
G07  23406333.924      -23717.713       -1324.239           0.248  
> 2023 05 18 00 00 43.9688020  0  6                     
G02  24300272.555      110321.827        2911.265           0.239  
G03  22337804.349      -14550.190        -487.303           0.255  
G04  23618066.436      -58730.705       -2127.457           0.244  
G05  22523579.484       58914.940        2036.984           0.255  
G06  20628095.694       -9628.635        -468.360           0.255  
G07  23406365.249      -23848.696       -1311.412           0.248  
> 2023 05 18 00 00 44.0688020  0  6                     
G02  24300196.984      110612.899        2910.435           0.239  
G03  22337816.815      -14598.921        -487.547           0.255  
G04  23618121.825      -58943.489       -2127.873           0.244  
G05  22523527.707       59118.628        2037.422           0.255  
G06  20628106.874       -9675.480        -467.976           0.255  
G07  23406401.210      -23979.760       -1313.450           0.248  
> 2023 05 18 00 00 44.1688020  0  6                     
G02  24300123.190      110903.979        2910.021           0.239  
G03  22337829.145      -14647.655        -487.203           0.255  
G04  23618175.634      -59156.256       -2127.370           0.244  
G05  22523475.666       59322.313        2036.722           0.255  
G06  20628119.400       -9722.332        -468.757           0.255  
G07  23406433.151      -24110.989       -1311.489           0.248  
> 2023 05 18 00 00 44.2688020  0  6                     
G02  24300048.769      111195.084        2911.035           0.239  
G03  22337841.181      -14696.401        -487.344           0.255  
G04  23618228.982      -59369.047       -2128.221           0.244  
G05  22523423.870       59526.000        2036.701           0.255  
G06  20628131.983       -9769.181        -468.456           0.255  
G07  23406466.586      -24242.143       -1311.161           0.248  
> 2023 05 18 00 00 44.3688020  0  6                     
G02  24299974.677      111486.167        2910.062           0.239  
G03  22337853.504      -14745.139        -487.078           0.255  
G04  23618283.749      -59581.828       -2128.055           0.244  
G05  22523372.250       59729.678        2036.689           0.255  
G06  20628144.689       -9816.039        -468.571           0.255  
G07  23406499.167      -24373.299       -1311.065           0.248  
> 2023 05 18 00 00 44.4688020  0  6                     
G02  24299900.974      111777.254        2910.059           0.239  
G03  22337865.478      -14793.897        -488.251           0.255  
G04  23618338.592      -59794.616       -2127.798           0.244  
G05  22523320.343       59933.351        2036.998           0.255  
G06  20628154.961       -9862.892        -467.854           0.255  
G07  23406533.306      -24504.466       -1312.416           0.248  
> 2023 05 18 00 00 44.5688020  0  6                     
G02  24299827.020      112068.087        2857.263           0.240  
G03  22337877.620      -14842.646        -488.233           0.255  
G04  23618392.179      -60007.373       -2155.155           0.244  
G05  22523268.409       60137.028        2036.263           0.255  
G06  20628167.531       -9909.765        -468.672           0.255  
G07  23406566.872      -24635.684       -1315.699           0.248  
> 2023 05 18 00 00 44.6688020  0  6                     
G02  24299752.761      112359.437        2910.320           0.239  
G03  22337891.108      -14891.397        -489.052           0.255  
G04  23618446.158      -60220.187       -2128.069           0.244  
G05  22523216.610       60340.712        2037.502           0.255  
G06  20628178.755       -9956.634        -468.146           0.255  
G07  23406600.553      -24766.785       -1310.969           0.248  
> 2023 05 18 00 00 44.7688020  0  6                     
G02  24299678.796      112650.530        2910.876           0.239  
G03  22337903.897      -14940.156        -487.369           0.255  
G04  23618500.501      -60432.971       -2127.689           0.244  
G05  22523164.597       60544.379        2036.841           0.255  
G06  20628190.799      -10003.502        -468.499           0.255  
G07  23406634.125      -24897.953       -1311.597           0.248  
> 2023 05 18 00 00 44.8688020  0  6                     
G02  24299604.330      112941.601        2911.501           0.239  
G03  22337916.099      -14988.927        -487.764           0.255  
G04  23618554.702      -60645.752       -2127.615           0.244  
G05  22523112.336       60748.053        2036.099           0.255  
G06  20628202.493      -10050.372        -468.492           0.255  
G07  23406667.989      -25029.124       -1311.212           0.248  
> 2023 05 18 00 00 44.9688020  0  6                     
G02  24299529.812      113232.700        2910.554           0.239  
G03  22337928.250      -15037.697        -486.857           0.255  
G04  23618608.899      -60858.556       -2128.381           0.244  
G05  22523060.802       60951.729        2037.493           0.255  
G06  20628214.974      -10097.250        -469.606           0.255  
G07  23406700.825      -25160.290       -1311.455           0.248  
> 2023 05 18 00 00 45.0688020  0  6                     
G02  24299457.109      113523.785        2911.188           0.239  
G03  22337941.195      -15086.476        -486.657           0.255  
G04  23618662.805      -61071.342       -2128.043           0.244  
G05  22523008.845       61155.392        2036.990           0.255  
G06  20628227.014      -10144.134        -469.514           0.255  
G07  23406734.303      -25291.326       -1295.117           0.248  
> 2023 05 18 00 00 45.1688020  0  6                     
G02  24299382.663      113814.859        2910.260           0.239  
G03  22337953.705      -15135.261        -487.226           0.255  
G04  23618716.550      -61284.130       -2127.781           0.244  
G05  22522956.569       61359.051        2035.998           0.255  
G06  20628238.963      -10191.006        -468.752           0.255  
G07  23406767.843      -25422.644       -1311.860           0.248  
> 2023 05 18 00 00 45.2688020  0  6                     
G02  24299306.741      114105.946        2910.045           0.239  
G03  22337965.980      -15184.045        -488.183           0.255  
G04  23618771.471      -61496.920       -2127.260           0.244  
G05  22522904.959       61562.721        2037.328           0.255  
G06  20628251.180      -10237.900        -468.339           0.255  
G07  23406801.294      -25553.823       -1311.560           0.248  
> 2023 05 18 00 00 45.3688020  0  6                     
G02  24299233.359      114397.029        2910.999           0.239  
G03  22337977.995      -15232.832        -487.436           0.255  
G04  23618827.002      -61709.715       -2127.484           0.244  
G05  22522853.065       61766.378        2036.585           0.255  
G06  20628263.052      -10284.781        -468.313           0.255  
G07  23406833.247      -25685.017       -1312.017           0.248  
> 2023 05 18 00 00 45.4688020  0  6                     
G02  24299159.622      114688.115        2911.575           0.239  
G03  22337990.676      -15281.624        -487.405           0.255  
G04  23618880.067      -61922.511       -2128.121           0.244  
G05  22522801.183       61970.034        2036.085           0.255  
G06  20628274.540      -10331.680        -468.641           0.255  
G07  23406868.381      -25816.199       -1312.182           0.248  
> 2023 05 18 00 00 45.5688020  0  6                     
G02  24299085.242      114978.883        2888.001           0.240  
G03  22338003.838      -15330.580        -497.561           0.255  
G04  23618934.023      -62135.302       -2127.092           0.244  
G05  22522749.131       62173.695        2037.133           0.255  
G06  20628286.563      -10378.585        -468.747           0.255  
G07  23406900.371      -25947.356       -1295.538           0.248  
> 2023 05 18 00 00 45.6688020  0  6                     
G02  24299011.182      115270.269        2911.699           0.239  
G03  22338016.296      -15379.230        -487.596           0.255  
G04  23618988.133      -62348.100       -2127.964           0.244  
G05  22522697.087       62377.344        2036.547           0.255  
G06  20628298.505      -10425.483        -468.957           0.255  
G07  23406933.781      -26078.591       -1312.586           0.248  
> 2023 05 18 00 00 45.7688020  0  6                     
G02  24298936.911      115561.345        2909.910           0.239  
G03  22338026.969      -15428.027        -488.193           0.255  
G04  23619043.315      -62560.898       -2127.468           0.244  
G05  22522645.761       62580.998        2036.314           0.255  
G06  20628310.392      -10472.391        -468.821           0.255  
G07  23406967.609      -26209.870       -1314.264           0.248  
> 2023 05 18 00 00 45.8688020  0  6                     
G02  24298861.805      115852.433        2910.521           0.239  
G03  22338039.716      -15476.848        -488.785           0.255  
G04  23619097.368      -62773.944       -2158.988           0.244  
G05  22522593.672       62784.639        2036.648           0.255  
G06  20628322.667      -10519.296        -469.369           0.255  
G07  23407001.684      -26340.976       -1311.225           0.248  
> 2023 05 18 00 00 45.9688020  0  6                     
G02  24298787.929      116143.523        2911.277           0.239  
G03  22338052.704      -15525.663        -488.831           0.255  
G04  23619151.594      -62986.502       -2128.291           0.244  
G05  22522541.740       62988.288        2035.894           0.255  
G06  20628334.509      -10566.204        -468.891           0.255  
G07  23407036.037      -26472.182       -1311.739           0.248  
> 2023 05 18 00 00 46.0688020  0  6                     
G02  24298713.859      116434.600        2910.862           0.239  
G03  22338064.008      -15574.491        -488.564           0.255  
G04  23619205.891      -63199.294       -2127.431           0.244  
G05  22522489.818       63191.931        2036.223           0.255  
G06  20628347.368      -10613.120        -469.324           0.255  
G07  23407069.049      -26603.392       -1312.095           0.248  
> 2023 05 18 00 00 46.1688020  0  6                     
G02  24298640.203      116725.689        2910.763           0.239  
G03  22338077.385      -15623.318        -488.830           0.255  
G04  23619260.480      -63412.103       -2127.813           0.244  
G05  22522438.080       63395.575        2036.491           0.255  
G06  20628357.678      -10660.033        -468.634           0.255  
G07  23407102.254      -26734.600       -1312.738           0.248  
> 2023 05 18 00 00 46.2688020  0  6                     
G02  24298565.884      117016.780        2911.221           0.239  
G03  22338089.326      -15672.142        -488.231           0.255  
G04  23619313.955      -63624.912       -2127.886           0.244  
G05  22522385.899       63599.216        2035.762           0.255  
G06  20628370.484      -10706.963        -469.202           0.255  
G07  23407136.100      -26865.811       -1311.842           0.248  
> 2023 05 18 00 00 46.3688020  0  6                     
G02  24298491.007      117307.767        2909.982           0.239  
G03  22338102.711      -15720.972        -488.631           0.255  
G04  23619367.728      -63837.735       -2140.064           0.244  
G05  22522334.211       63802.858        2036.850           0.255  
G06  20628382.256      -10753.890        -469.034           0.255  
G07  23407169.572      -26997.021       -1311.379           0.248  
> 2023 05 18 00 00 46.4688020  0  6                     
G02  24298416.651      117598.937        2911.229           0.239  
G03  22338115.384      -15769.813        -487.836           0.255  
G04  23619422.209      -64050.516       -2128.412           0.244  
G05  22522282.049       64006.484        2055.208           0.255  
G06  20628394.547      -10800.818        -469.493           0.255  
G07  23407202.546      -27128.243       -1312.295           0.248  
> 2023 05 18 00 00 46.5688020  0  6                     
G02  24298342.907      117890.017        2911.226           0.239  
G03  22338126.957      -15818.670        -488.934           0.255  
G04  23619477.153      -64263.321       -2128.668           0.244  
G05  22522230.348       64210.121        2035.073           0.255  
G06  20628406.509      -10847.745        -468.952           0.255  
G07  23407236.029      -27259.469       -1312.652           0.248  
> 2023 05 18 00 00 46.6688020  0  6                     
G02  24298270.043      118181.095        2910.572           0.239  
G03  22338140.030      -15867.517        -488.585           0.255  
G04  23619531.457      -64476.132       -2127.833           0.244  
G05  22522178.509       64413.765        2037.104           0.255  
G06  20628418.178      -10894.683        -469.428           0.255  
G07  23407268.667      -27390.694       -1312.156           0.248  
> 2023 05 18 00 00 46.7688020  0  6                     
G02  24298196.148      118472.183        2910.706           0.239  
G03  22338152.020      -15916.372        -488.744           0.255  
G04  23619585.235      -64688.944       -2127.492           0.244  
G05  22522126.397       64617.392        2036.372           0.255  
G06  20628430.103      -10941.618        -469.536           0.255  
G07  23407301.658      -27521.917       -1312.393           0.248  
> 2023 05 18 00 00 46.8688020  0  6                     
G02  24298119.542      118763.263        2910.748           0.239  
G03  22338164.039      -15965.238        -488.340           0.255  
G04  23619639.208      -64901.757       -2128.576           0.244  
G05  22522074.856       64821.016        2035.680           0.255  
G06  20628442.621      -10988.556        -469.592           0.255  
G07  23407335.281      -27653.151       -1313.081           0.248  
> 2023 05 18 00 00 46.9688020  0  6                     
G02  24298046.059      119054.349        2910.298           0.239  
G03  22338177.391      -16014.100        -489.012           0.255  
G04  23619693.321      -65114.569       -2128.638           0.244  
G05  22522022.998       65024.641        2036.528           0.255  
G06  20628454.338      -11035.494        -469.407           0.255  
G07  23407369.245      -27784.374       -1311.771           0.248  
> 2023 05 18 00 00 47.0688020  0  6                     
G02  24297971.921      119345.432        2910.193           0.239  
G03  22338189.902      -16062.974        -490.788           0.255  
G04  23619747.642      -65327.381       -2128.290           0.244  
G05  22521970.923       65228.263        2035.710           0.255  
G06  20628465.887      -11082.438        -468.287           0.255  
G07  23407402.978      -27915.616       -1312.057           0.248  
> 2023 05 18 00 00 47.1688020  0  6                     
G02  24297898.556      119636.515        2910.314           0.239  
G03  22338202.269      -16111.828        -489.747           0.255  
G04  23619801.912      -65540.193       -2128.159           0.244  
G05  22521919.067       65431.890        2037.131           0.255  
G06  20628478.144      -11129.400        -468.903           0.255  
G07  23407436.008      -28046.860       -1313.462           0.248  
> 2023 05 18 00 00 47.2688020  0  6                     
G02  24297824.201      119927.603        2910.727           0.239  
G03  22338214.456      -16160.558        -473.745           0.255  
G04  23619855.722      -65753.006       -2129.024           0.244  
G05  22521866.980       65635.412        2043.777           0.255  
G06  20628490.053      -11176.361        -469.543           0.255  
G07  23407470.053      -28178.109       -1321.556           0.248  
> 2023 05 18 00 00 47.3688020  0  6                     
G02  24297749.573      120218.690        2910.920           0.239  
G03  22338227.887      -16209.795        -533.773           0.255  
G04  23619911.535      -65965.812       -2126.931           0.244  
G05  22521814.764       65839.111        2034.834           0.255  
G06  20628501.366      -11223.322        -469.665           0.255  
G07  23407503.234      -28309.174       -1312.975           0.248  
> 2023 05 18 00 00 47.4688020  0  6                     
G02  24297675.937      120509.774        2911.454           0.239  
G03  22338240.089      -16258.457        -497.305           0.255  
G04  23619965.151      -66178.642       -2128.479           0.244  
G05  22521763.498       66042.734        2037.257           0.255  
G06  20628513.947      -11270.275        -469.691           0.255  
G07  23407537.233      -28440.445       -1307.744           0.248  
> 2023 05 18 00 00 47.5688020  0  6                     
G02  24297602.395      120800.847        2910.062           0.239  
G03  22338252.233      -16307.362        -489.303           0.255  
G04  23620018.615      -66391.463       -2127.704           0.244  
G05  22521711.533       66246.341        2035.759           0.255  
G06  20628526.919      -11317.239        -469.235           0.255  
G07  23407570.399      -28571.836       -1312.701           0.248  
> 2023 05 18 00 00 47.6688020  0  6                     
G02  24297527.622      121091.935        2911.394           0.239  
G03  22338264.530      -16356.249        -489.386           0.255  
G04  23620073.261      -66604.275       -2128.586           0.244  
G05  22521659.555       66449.947        2035.927           0.255  
G06  20628538.015      -11364.212        -469.871           0.255  
G07  23407603.596      -28703.075       -1311.610           0.248  
> 2023 05 18 00 00 47.7688020  0  6                     
G02  24297452.853      121382.999        2910.757           0.239  
G03  22338277.021      -16405.138        -488.632           0.255  
G04  23620127.380      -66817.097       -2128.267           0.244  
G05  22521607.507       66653.554        2036.180           0.255  
G06  20628550.087      -11411.190        -470.264           0.255  
G07  23407637.608      -28834.347       -1313.131           0.248  
> 2023 05 18 00 00 47.8688020  0  6                     
G02  24297380.435      121674.084        2910.750           0.239  
G03  22338289.673      -16453.929        -467.199           0.255  
G04  23620180.330      -67029.692       -2081.782           0.244  
G05  22521555.866       66857.157        2034.452           0.255  
G06  20628562.339      -11458.170        -470.100           0.255  
G07  23407669.805      -28965.627       -1317.243           0.248  
> 2023 05 18 00 00 47.9688020  0  6                     
G02  24297305.865      121965.601        2939.222           0.239  
G03  22338301.337      -16502.768        -448.774           0.255  
G04  23620234.693      -67242.857       -2104.582           0.244  
G05  22521503.485       67061.056        2083.822           0.255  
G06  20628574.875      -11505.145        -469.903           0.255  
G07  23407703.802      -29097.063       -1344.658           0.248  
> 2023 05 18 00 00 48.0688020  0  6                     
G02  24297230.323      122256.259        2910.183           0.239  
G03  22338314.522      -16552.006        -535.632           0.255  
G04  23620289.104      -67455.566       -2127.705           0.244  
G05  22521451.756       67264.368        2036.137           0.255  
G06  20628586.227      -11552.132        -469.299           0.255  
G07  23407737.085      -29228.262       -1328.490           0.248  
> 2023 05 18 00 00 48.1688020  0  6                     
G02  24297155.190      122547.339        2910.574           0.239  
G03  22338326.624      -16600.780        -488.884           0.255  
G04  23620344.659      -67668.395       -2128.363           0.244  
G05  22521400.004       67467.969        2035.661           0.255  
G06  20628597.720      -11599.114        -470.259           0.255  
G07  23407770.363      -29359.401       -1313.209           0.248  
> 2023 05 18 00 00 48.2688020  0  6                     
G02  24297082.131      122838.420        2910.201           0.239  
G03  22338339.202      -16649.939        -551.893           0.255  
G04  23620398.293      -67881.215       -2128.092           0.244  
G05  22521348.366       67671.562        2036.556           0.255  
G06  20628609.915      -11646.097        -470.259           0.255  
G07  23407804.239      -29490.814       -1314.349           0.248  
> 2023 05 18 00 00 48.3688020  0  6                     
G02  24297007.733      123129.493        2911.162           0.239  
G03  22338351.785      -16698.638        -490.132           0.255  
G04  23620453.349      -68094.037       -2128.616           0.244  
G05  22521296.433       67875.151        2034.233           0.255  
G06  20628621.629      -11693.089        -468.952           0.255  
G07  23407837.796      -29621.943       -1313.108           0.248  
> 2023 05 18 00 00 48.4688020  0  6                     
G02  24296933.853      123420.580        2911.838           0.239  
G03  22338364.142      -16747.558        -489.413           0.255  
G04  23620507.047      -68306.870       -2128.680           0.244  
G05  22521244.571       68078.763        2036.915           0.255  
G06  20628633.645      -11740.093        -470.063           0.255  
G07  23407871.517      -29753.208       -1312.137           0.248  
> 2023 05 18 00 00 48.5688020  0  6                     
G02  24296860.210      123711.782        2944.228           0.239  
G03  22338376.786      -16796.487        -488.725           0.255  
G04  23620561.291      -68519.690       -2117.450           0.244  
G05  22521192.671       68281.788        1948.601           0.255  
G06  20628645.313      -11787.099        -469.848           0.255  
G07  23407904.501      -29884.432       -1271.549           0.248  
> 2023 05 18 00 00 48.6688020  0  6                     
G02  24296785.402      124002.745        2911.236           0.239  
G03  22338389.320      -16845.426        -487.701           0.255  
G04  23620616.465      -68732.515       -2127.391           0.244  
G05  22521140.421       68485.928        2035.970           0.255  
G06  20628657.637      -11834.098        -470.720           0.255  
G07  23407938.325      -30015.771       -1313.155           0.248  
> 2023 05 18 00 00 48.7688020  0  6                     
G02  24296712.038      124293.866        2902.563           0.239  
G03  22338401.053      -16894.835        -535.154           0.255  
G04  23620670.000      -68945.014       -2080.845           0.244  
G05  22521088.697       68689.441        2060.693           0.255  
G06  20628669.373      -11881.113        -470.345           0.255  
G07  23407971.466      -30146.826       -1288.622           0.248  
> 2023 05 18 00 00 48.8688020  0  6                     
G02  24296637.286      124584.906        2910.680           0.239  
G03  22338413.971      -16943.731        -549.530           0.255  
G04  23620723.967      -69158.194       -2128.216           0.244  
G05  22521037.231       68893.088        2034.774           0.255  
G06  20628681.289      -11928.116        -470.944           0.255  
G07  23408005.081      -30278.536       -1334.878           0.248  
> 2023 05 18 00 00 48.9688020  0  6                     
G02  24296562.946      124875.988        2911.108           0.239  
G03  22338425.883      -16992.278        -489.382           0.255  
G04  23620778.229      -69371.032       -2128.427           0.244  
G05  22520985.254       69096.681        2036.464           0.255  
G06  20628693.619      -11975.134        -469.436           0.255  
G07  23408038.797      -30409.636       -1312.525           0.248  
> 2023 05 18 00 00 49.0688020  0  6                     
G02  24296488.565      125167.072        2910.174           0.239  
G03  22338439.640      -17041.229        -488.314           0.255  
G04  23620831.706      -69583.852       -2126.760           0.244  
G05  22520933.776       69300.251        2035.111           0.255  
G06  20628705.782      -12022.148        -470.456           0.255  
G07  23408071.272      -30540.953       -1312.382           0.248  
> 2023 05 18 00 00 49.1688020  0  6                     
G02  24296415.047      125458.157        2910.793           0.239  
G03  22338450.917      -17090.188        -489.222           0.255  
G04  23620886.624      -69796.700       -2128.375           0.244  
G05  22520881.368       69503.836        2036.150           0.255  
G06  20628717.534      -12069.172        -469.460           0.255  
G07  23408105.593      -30672.228       -1312.609           0.248  
> 2023 05 18 00 00 49.2688020  0  6                     
G02  24296341.413      125749.242        2911.312           0.239  
G03  22338463.754      -17139.157        -488.652           0.255  
G04  23620940.420      -70009.533       -2128.348           0.244  
G05  22520829.783       69707.408        2036.091           0.255  
G06  20628729.572      -12116.193        -470.521           0.255  
G07  23408138.676      -30803.536       -1313.432           0.248  
> 2023 05 18 00 00 49.3688020  0  6                     
G02  24296266.149      126040.715        2947.445           0.239  
G03  22338475.998      -17186.770        -358.407           0.255  
G04  23620994.682      -70222.477       -2187.665           0.244  
G05  22520777.879       69910.977        2035.383           0.255  
G06  20628741.359      -12163.235        -471.543           0.255  
G07  23408172.332      -30934.737       -1300.393           0.248  
> 2023 05 18 00 00 49.4688020  0  6                     
G02  24296191.704      126331.401        2911.277           0.239  
G03  22338488.564      -17237.104        -487.335           0.255  
G04  23621049.088      -70435.203       -2128.063           0.244  
G05  22520726.094       70114.548        2036.131           0.255  
G06  20628753.055      -12210.261        -471.718           0.255  
G07  23408206.036      -31066.141       -1313.021           0.248  
> 2023 05 18 00 00 49.5688020  0  6                     
G02  24296118.443      126622.478        2910.480           0.239  
G03  22338501.186      -17286.125        -476.585           0.255  
G04  23621103.479      -70648.048       -2128.066           0.244  
G05  22520673.743       70318.097        2010.348           0.255  
G06  20628764.709      -12257.292        -471.063           0.255  
G07  23408239.493      -31197.651       -1335.801           0.248  
> 2023 05 18 00 00 49.6688020  0  6                     
G02  24296044.245      126913.564        2912.051           0.239  
G03  22338513.619      -17335.103        -486.316           0.255  
G04  23621157.684      -70860.893       -2128.293           0.244  
G05  22520621.962       70521.689        2036.184           0.255  
G06  20628777.416      -12304.328        -470.680           0.255  
G07  23408272.775      -31328.906       -1332.295           0.248  
> 2023 05 18 00 00 49.7688020  0  6                     
G02  24295969.646      127204.647        2910.877           0.239  
G03  22338526.229      -17384.049        -489.470           0.255  
G04  23621212.574      -71073.734       -2128.760           0.244  
G05  22520569.983       70725.245        2034.904           0.255  
G06  20628789.322      -12351.373        -470.280           0.255  
G07  23408305.840      -31460.081       -1313.304           0.248  
> 2023 05 18 00 00 49.8688020  0  6                     
G02  24295896.033      127495.727        2910.628           0.239  
G03  22338537.521      -17432.554        -399.710           0.255  
G04  23621266.398      -71286.573       -2128.404           0.244  
G05  22520518.239       70928.819        2036.485           0.255  
G06  20628802.041      -12398.424        -470.344           0.255  
G07  23408339.396      -31591.393       -1312.672           0.248  
> 2023 05 18 00 00 49.9688020  0  6                     
G02  24295821.894      127786.801        2910.327           0.239  
G03  22338550.832      -17482.023        -488.541           0.255  
G04  23621321.063      -71499.426       -2128.504           0.244  
G05  22520466.086       71132.370        2036.069           0.255  
G06  20628813.808      -12445.478        -471.295           0.255  
G07  23408372.748      -31722.711       -1313.193           0.248  
> 2023 05 18 00 00 50.0688020  0  6                     
G02  24295748.191      128077.870        2909.850           0.239  
G03  22338564.200      -17531.024        -488.204           0.255  
G04  23621374.141      -71712.266       -2128.631           0.244  
G05  22520414.189       71335.929        2035.531           0.255  
G06  20628825.867      -12492.529        -471.708           0.255  
G07  23408406.517      -31854.037       -1313.363           0.248  
> 2023 05 18 00 00 50.1688020  0  6                     
G02  24295673.010      128368.966        2910.838           0.239  
G03  22338576.060      -17579.951        -473.125           0.255  
G04  23621428.810      -71925.010       -2098.596           0.244  
G05  22520362.444       71539.488        2036.116           0.255  
G06  20628837.473      -12539.581        -471.352           0.255  
G07  23408440.078      -31985.309       -1300.111           0.248  
> 2023 05 18 00 00 50.2688020  0  6                     
G02  24295598.885      128660.044        2910.229           0.239  
G03  22338588.927      -17628.934        -489.571           0.255  
G04  23621482.810      -72138.208       -2152.647           0.244  
G05  22520310.546       71743.038        2034.478           0.255  
G06  20628849.561      -12586.632        -470.074           0.255  
G07  23408473.465      -32116.790       -1326.601           0.248  
> 2023 05 18 00 00 50.3688020  0  6                     
G02  24295524.211      128950.956        2907.878           0.239  
G03  22338601.552      -17678.086        -491.022           0.255  
G04  23621537.276      -72351.002       -2108.516           0.244  
G05  22520259.042       71946.598        2036.273           0.255  
G06  20628861.369      -12633.693        -470.032           0.255  
G07  23408506.945      -32248.018       -1313.284           0.248  
> 2023 05 18 00 00 50.4688020  0  6                     
G02  24295449.750      129242.207        2910.135           0.239  
G03  22338614.154      -17727.103        -492.282           0.255  
G04  23621591.998      -72563.669       -2127.948           0.244  
G05  22520207.084       72150.135        2033.986           0.255  
G06  20628873.443      -12680.761        -469.562           0.255  
G07  23408540.500      -32379.351       -1313.222           0.248  
> 2023 05 18 00 00 50.5688020  0  6                     
G02  24295376.728      129533.303        2910.593           0.239  
G03  22338626.575      -17775.347        -417.743           0.255  
G04  23621646.638      -72776.516       -2128.302           0.244  
G05  22520155.260       72353.689        2036.262           0.255  
G06  20628885.086      -12727.837        -470.496           0.255  
G07  23408573.684      -32510.898       -1336.718           0.248  
> 2023 05 18 00 00 50.6688020  0  6                     
G02  24295302.363      129824.385        2911.110           0.239  
G03  22338638.922      -17824.790        -450.281           0.255  
G04  23621700.905      -72989.436       -2095.233           0.244  
G05  22520102.947       72556.676        1939.519           0.255  
G06  20628897.226      -12774.909        -469.998           0.255  
G07  23408607.313      -32642.079       -1310.456           0.248  
> 2023 05 18 00 00 50.7688020  0  6                     
G02  24295228.193      130115.458        2911.611           0.239  
G03  22338651.093      -17874.180        -490.241           0.255  
G04  23621754.594      -73202.223       -2128.822           0.244  
G05  22520051.305       72760.781        2036.514           0.255  
G06  20628909.342      -12821.984        -470.928           0.255  
G07  23408640.806      -32773.372       -1313.203           0.248  
> 2023 05 18 00 00 50.8688020  0  6                     
G02  24295153.141      130406.529        2910.561           0.239  
G03  22338664.562      -17923.222        -490.451           0.255  
G04  23621809.008      -73415.072       -2127.753           0.244  
G05  22519999.389       72964.311        2034.745           0.255  
G06  20628921.256      -12869.063        -471.265           0.255  
G07  23408674.201      -32904.721       -1313.416           0.248  
> 2023 05 18 00 00 50.9688020  0  6                     
G02  24295079.836      130697.620        2911.212           0.239  
G03  22338676.887      -17972.273        -490.763           0.255  
G04  23621862.612      -73627.926       -2128.151           0.244  
G05  22519947.466       73167.859        2036.244           0.255  
G06  20628933.151      -12916.138        -470.762           0.255  
G07  23408707.853      -33036.067       -1313.081           0.248  
> 2023 05 18 00 00 51.0688020  0  6                     
G02  24295006.418      130988.700        2910.421           0.239  
G03  22338689.560      -18021.323        -491.228           0.255  
G04  23621916.865      -73840.786       -2128.972           0.244  
G05  22519895.755       73371.386        2035.301           0.255  
G06  20628945.291      -12963.225        -470.649           0.255  
G07  23408741.527      -33167.422       -1313.521           0.248  
> 2023 05 18 00 00 51.1688020  0  6                     
G02  24294931.878      131280.012        2906.321           0.239  
G03  22338701.423      -18070.429        -558.384           0.255  
G04  23621971.240      -74053.847       -2156.763           0.244  
G05  22519844.024       73574.923        2035.551           0.255  
G06  20628957.145      -13010.304        -469.792           0.255  
G07  23408774.923      -33298.775       -1313.640           0.248  
> 2023 05 18 00 00 51.2688020  0  6                     
G02  24294857.179      131570.871        2910.500           0.239  
G03  22338714.002      -18119.445        -492.591           0.255  
G04  23622025.650      -74266.506       -2128.411           0.244  
G05  22519792.081       73778.444        2035.576           0.255  
G06  20628969.410      -13057.402        -469.914           0.255  
G07  23408808.223      -33430.138       -1313.945           0.248  
> 2023 05 18 00 00 51.3688020  0  6                     
G02  24294782.511      131861.957        2911.522           0.239  
G03  22338726.365      -18168.492        -491.766           0.255  
G04  23622079.926      -74479.604       -2160.550           0.244  
G05  22519740.179       73981.976        2035.253           0.255  
G06  20628981.328      -13104.503        -469.997           0.255  
G07  23408841.806      -33561.482       -1304.533           0.248  
> 2023 05 18 00 00 51.4688020  0  6                     
G02  24294708.623      132153.037        2911.250           0.239  
G03  22338738.674      -18217.553        -491.125           0.255  
G04  23622134.097      -74692.226       -2128.403           0.244  
G05  22519688.340       74185.498        2035.226           0.255  
G06  20628993.317      -13151.610        -471.110           0.255  
G07  23408875.334      -33692.857       -1313.362           0.248  
> 2023 05 18 00 00 51.5688020  0  6                     
G02  24294635.662      132444.120        2911.513           0.239  
G03  22338750.771      -18266.623        -490.094           0.255  
G04  23622187.587      -74905.102       -2128.915           0.244  
G05  22519636.594       74389.020        2034.469           0.255  
G06  20629005.648      -13198.714        -471.535           0.255  
G07  23408908.218      -33824.226       -1313.896           0.248  
> 2023 05 18 00 00 51.6688020  0  6                     
G02  24294559.941      132735.209        2910.832           0.239  
G03  22338763.897      -18315.687        -488.424           0.255  
G04  23622242.324      -75117.960       -2128.666           0.244  
G05  22519584.686       74592.546        2035.381           0.255  
G06  20629017.515      -13245.823        -472.445           0.255  
G07  23408942.219      -33955.599       -1313.291           0.248  
> 2023 05 18 00 00 51.7688020  0  6                     
G02  24294485.932      133026.278        2911.337           0.239  
G03  22338776.626      -18364.777        -488.771           0.255  
G04  23622297.204      -75330.820       -2129.062           0.244  
G05  22519532.800       74796.063        2034.096           0.255  
G06  20629029.381      -13292.931        -472.647           0.255  
G07  23408975.618      -34086.917       -1313.835           0.248  
> 2023 05 18 00 00 51.8688020  0  6                     
G02  24294411.951      133317.369        2911.623           0.239  
G03  22338788.875      -18413.862        -488.643           0.255  
G04  23622351.205      -75543.681       -2128.504           0.244  
G05  22519481.028       74999.586        2035.723           0.255  
G06  20629041.424      -13340.042        -472.205           0.255  
G07  23409009.179      -34218.351       -1313.830           0.248  
> 2023 05 18 00 00 51.9688020  0  6                     
G02  24294337.672      133608.446        2910.670           0.239  
G03  22338801.369      -18462.952        -489.806           0.255  
G04  23622405.436      -75756.550       -2129.004           0.244  
G05  22519428.804       75203.093        2034.113           0.255  
G06  20629053.253      -13387.161        -471.797           0.255  
G07  23409042.676      -34349.733       -1313.961           0.248  
> 2023 05 18 00 00 52.0688020  0  6                     
G02  24294263.705      133899.534        2911.143           0.239  
G03  22338813.857      -18512.042        -490.553           0.255  
G04  23622459.727      -75969.415       -2128.848           0.244  
G05  22519377.303       75406.618        2035.959           0.255  
G06  20629065.411      -13434.280        -471.001           0.255  
G07  23409076.068      -34481.113       -1313.645           0.248  
> 2023 05 18 00 00 52.1688020  0  6                     
G02  24294189.723      134190.622        2910.338           0.239  
G03  22338826.379      -18561.136        -491.115           0.255  
G04  23622513.644      -76182.280       -2128.759           0.244  
G05  22519325.416       75610.118        2033.819           0.255  
G06  20629077.428      -13481.413        -471.693           0.255  
G07  23409109.781      -34612.495       -1313.855           0.248  
> 2023 05 18 00 00 52.2688020  0  6                     
G02  24294116.548      134481.714        2911.550           0.239  
G03  22338838.384      -18610.245        -492.138           0.255  
G04  23622567.357      -76395.147       -2128.933           0.244  
G05  22519273.499       75813.636        2035.255           0.255  
G06  20629089.956      -13528.540        -471.575           0.255  
G07  23409142.733      -34743.884       -1313.598           0.248  
> 2023 05 18 00 00 52.3688020  0  6                     
G02  24294041.287      134772.795        2911.161           0.239  
G03  22338850.801      -18659.328        -490.648           0.255  
G04  23622622.211      -76608.030       -2128.991           0.244  
G05  22519221.872       76017.139        2033.617           0.255  
G06  20629101.784      -13575.670        -470.612           0.255  
G07  23409176.500      -34875.281       -1313.868           0.248  
> 2023 05 18 00 00 52.4688020  0  6                     
G02  24293967.281      135063.875        2910.690           0.239  
G03  22338863.732      -18708.439        -491.317           0.255  
G04  23622676.287      -76820.901       -2128.841           0.244  
G05  22519169.680       76220.653        2035.539           0.255  
G06  20629113.188      -13622.808        -471.896           0.255  
G07  23409210.001      -35006.673       -1313.810           0.248  
> 2023 05 18 00 00 52.5688020  0  6                     
G02  24293892.641      135354.954        2911.070           0.239  
G03  22338876.467      -18757.562        -490.586           0.255  
G04  23622730.610      -77033.772       -2128.766           0.244  
G05  22519117.958       76424.145        2033.314           0.255  
G06  20629125.281      -13669.943        -471.245           0.255  
G07  23409243.561      -35138.070       -1313.710           0.248  
> 2023 05 18 00 00 52.6688020  0  6                     
G02  24293817.849      135646.035        2910.250           0.239  
G03  22338889.327      -18806.688        -490.752           0.255  
G04  23622784.766      -77246.651       -2128.193           0.244  
G05  22519065.892       76627.848        2113.941           0.255  
G06  20629137.244      -13717.077        -471.387           0.255  
G07  23409277.075      -35269.474       -1313.907           0.248  
> 2023 05 18 00 00 52.7688020  0  6                     
G02  24293744.799      135937.193        2906.751           0.239  
G03  22338901.954      -18855.847        -517.672           0.255  
G04  23622839.681      -77459.527       -2128.835           0.244  
G05  22519014.209       76831.147        2033.450           0.255  
G06  20629149.682      -13764.224        -471.938           0.255  
G07  23409310.200      -35401.148       -1318.966           0.248  
> 2023 05 18 00 00 52.8688020  0  6                     
G02  24293670.280      136228.218        2911.798           0.239  
G03  22338914.565      -18904.959        -492.698           0.255  
G04  23622893.781      -77672.401       -2129.078           0.244  
G05  22518962.246       77034.654        2036.042           0.255  
G06  20629162.139      -13811.361        -470.508           0.255  
G07  23409344.295      -35532.277       -1313.862           0.248  
> 2023 05 18 00 00 52.9688020  0  6                     
G02  24293597.331      136519.280        2910.326           0.239  
G03  22338926.619      -18954.274        -554.313           0.255  
G04  23622947.502      -77885.282       -2129.633           0.244  
G05  22518910.427       77238.136        2033.365           0.255  
G06  20629173.323      -13858.511        -470.579           0.255  
G07  23409377.720      -35663.686       -1313.844           0.248  
> 2023 05 18 00 00 53.0688020  0  6                     
G02  24293521.950      136810.374        2911.712           0.239  
G03  22338939.440      -19003.150        -510.937           0.255  
G04  23623002.191      -78098.159       -2128.639           0.244  
G05  22518858.450       77441.635        2035.623           0.255  
G06  20629185.194      -13905.672        -470.461           0.255  
G07  23409411.308      -35795.097       -1314.724           0.248  
> 2023 05 18 00 00 53.1688020  0  6                     
G02  24293447.359      137101.450        2909.215           0.239  
G03  22338951.963      -19052.358        -492.337           0.255  
G04  23623056.283      -78311.033       -2128.284           0.244  
G05  22518806.921       77645.116        2033.861           0.255  
G06  20629197.037      -13952.832        -471.420           0.255  
G07  23409445.079      -35926.504       -1313.991           0.248  
> 2023 05 18 00 00 53.2688020  0  6                     
G02  24293373.250      137392.532        2911.468           0.239  
G03  22338964.542      -19101.500        -491.958           0.255  
G04  23623110.567      -78523.912       -2128.589           0.244  
G05  22518754.736       77848.610        2035.316           0.255  
G06  20629209.303      -13999.996        -471.662           0.255  
G07  23409478.397      -36057.915       -1313.915           0.248  
> 2023 05 18 00 00 53.3688020  0  6                     
G02  24293300.025      137683.607        2911.007           0.239  
G03  22338976.718      -19150.647        -490.902           0.255  
G04  23623164.589      -78736.788       -2128.259           0.244  
G05  22518702.473       78052.093        2034.294           0.255  
G06  20629221.279      -14047.169        -472.045           0.255  
G07  23409511.560      -36189.338       -1313.707           0.248  
> 2023 05 18 00 00 53.4688020  0  6                     
G02  24293225.758      137974.683        2911.099           0.239  
G03  22338988.909      -19199.803        -490.309           0.255  
G04  23623219.030      -78949.766       -2158.675           0.244  
G05  22518651.112       78255.382        2029.614           0.255  
G06  20629233.476      -14094.333        -472.187           0.255  
G07  23409545.081      -36320.766       -1314.413           0.248  
> 2023 05 18 00 00 53.5688020  0  6                     
G02  24293151.195      138265.766        2911.957           0.239  
G03  22339000.648      -19249.087        -466.872           0.255  
G04  23623274.038      -79162.551       -2128.798           0.244  
G05  22518599.124       78459.053        2034.045           0.255  
G06  20629245.240      -14141.512        -472.973           0.255  
G07  23409578.569      -36452.424       -1326.502           0.248  
> 2023 05 18 00 00 53.6688020  0  6                     
G02  24293077.433      138556.836        2909.780           0.239  
G03  22339014.178      -19298.421        -483.002           0.255  
G04  23623328.132      -79375.430       -2128.497           0.244  
G05  22518547.526       78662.539        2035.432           0.255  
G06  20629257.060      -14188.687        -472.821           0.255  
G07  23409611.714      -36583.598       -1299.316           0.248  
> 2023 05 18 00 00 53.7688020  0  6                     
G02  24293002.654      138847.915        2910.597           0.239  
G03  22339026.861      -19347.293        -489.941           0.255  
G04  23623381.914      -79588.324       -2129.185           0.244  
G05  22518495.663       78866.419        2059.463           0.255  
G06  20629269.516      -14235.866        -472.976           0.255  
G07  23409645.422      -36715.050       -1313.940           0.248  
> 2023 05 18 00 00 53.8688020  0  6                     
G02  24292928.575      139139.000        2911.343           0.239  
G03  22339039.301      -19396.351        -510.433           0.255  
G04  23623435.803      -79801.137       -2104.183           0.244  
G05  22518443.912       79069.490        2035.452           0.255  
G06  20629281.679      -14283.040        -471.707           0.255  
G07  23409678.663      -36846.482       -1313.881           0.248  
> 2023 05 18 00 00 53.9688020  0  6                     
G02  24292855.136      139430.070        2910.927           0.239  
G03  22339051.746      -19445.662        -493.214           0.255  
G04  23623489.640      -80014.093       -2129.457           0.244  
G05  22518392.102       79272.964        2034.273           0.255  
G06  20629293.842      -14330.227        -471.185           0.255  
G07  23409712.617      -36977.919       -1314.370           0.248  
> 2023 05 18 00 00 54.0688020  0  6                     
G02  24292780.343      139721.155        2911.815           0.239  
G03  22339064.098      -19494.849        -494.570           0.255  
G04  23623544.473      -80226.979       -2129.093           0.244  
G05  22518340.223       79476.426        2034.657           0.255  
G06  20629305.634      -14377.419        -470.603           0.255  
G07  23409745.514      -37109.358       -1314.288           0.248  
> 2023 05 18 00 00 54.1688020  0  6                     
G02  24292706.418      140012.406        2933.994           0.239  
G03  22339077.096      -19544.084        -557.387           0.255  
G04  23623598.734      -80439.595       -2083.383           0.244  
G05  22518288.410       79679.902        2035.425           0.255  
G06  20629317.766      -14424.615        -470.991           0.255  
G07  23409779.142      -37240.783       -1303.843           0.248  
> 2023 05 18 00 00 54.2688020  0  6                     
G02  24292632.292      140303.298        2910.951           0.239  
G03  22339090.159      -19593.043        -502.736           0.255  
G04  23623653.263      -80652.681       -2082.751           0.244  
G05  22518236.261       79883.360        2034.320           0.255  
G06  20629329.997      -14471.812        -471.254           0.255  
G07  23409812.693      -37372.258       -1314.787           0.248  
> 2023 05 18 00 00 54.3688020  0  6                     
G02  24292557.711      140594.379        2910.415           0.239  
G03  22339101.852      -19642.420        -492.989           0.255  
G04  23623707.511      -80865.650       -2128.570           0.244  
G05  22518184.542       80086.832        2035.479           0.255  
G06  20629341.732      -14519.011        -471.511           0.255  
G07  23409846.424      -37503.872       -1340.010           0.248  
> 2023 05 18 00 00 54.4688020  0  6                     
G02  24292483.331      140885.442        2910.468           0.239  
G03  22339114.560      -19691.617        -491.688           0.255  
G04  23623761.463      -81078.543       -2129.052           0.244  
G05  22518132.619       80290.283        2034.016           0.255  
G06  20629353.833      -14566.216        -471.779           0.255  
G07  23409879.855      -37635.160       -1314.805           0.248  
> 2023 05 18 00 00 54.5688020  0  6                     
G02  24292409.456      141176.522        2911.148           0.239  
G03  22339126.955      -19740.822        -491.544           0.255  
G04  23623815.571      -81291.430       -2128.884           0.244  
G05  22518080.825       80493.752        2035.478           0.255  
G06  20629365.817      -14613.422        -472.280           0.255  
G07  23409913.417      -37766.617       -1314.223           0.248  
> 2023 05 18 00 00 54.6688020  0  6                     
G02  24292334.727      141467.597        2911.093           0.239  
G03  22339139.041      -19790.399        -524.474           0.255  
G04  23623869.392      -81504.334       -2129.213           0.244  
G05  22518029.024       80697.197        2033.456           0.255  
G06  20629378.048      -14660.634        -473.139           0.255  
G07  23409945.741      -37898.425       -1335.842           0.248  
> 2023 05 18 00 00 54.7688020  0  6                     
G02  24292260.572      141758.672        2912.055           0.239  
G03  22339151.257      -19839.239        -489.875           0.255  
G04  23623924.440      -81717.220       -2129.084           0.244  
G05  22517977.172       80900.664        2035.655           0.255  
G06  20629390.095      -14707.846        -473.169           0.255  
G07  23409980.202      -38029.538       -1314.369           0.248  
> 2023 05 18 00 00 54.8688020  0  6                     
G02  24292187.174      142049.750        2911.279           0.239  
G03  22339164.271      -19888.461        -490.748           0.255  
G04  23623979.093      -81930.120       -2129.448           0.244  
G05  22517924.902       81104.105        2033.190           0.255  
G06  20629400.981      -14755.061        -472.686           0.255  
G07  23410015.317      -38161.001       -1314.962           0.248  
> 2023 05 18 00 00 54.9688020  0  6                     
G02  24292112.622      142340.830        2910.836           0.239  
G03  22339176.923      -19937.687        -491.124           0.255  
G04  23624032.960      -82143.015       -2128.674           0.244  
G05  22517873.611       81307.553        2035.256           0.255  
G06  20629413.368      -14802.286        -473.129           0.255  
G07  23410047.444      -38292.463       -1314.620           0.248  
> 2023 05 18 00 00 55.0688020  0  6                     
G02  24292037.223      142631.909        2910.360           0.239  
G03  22339189.979      -19986.557        -450.658           0.255  
G04  23624088.238      -82355.998       -2159.770           0.244  
G05  22517821.550       81510.999        2034.437           0.255  
G06  20629425.950      -14849.506        -472.317           0.255  
G07  23410080.943      -38423.863       -1308.915           0.248  
> 2023 05 18 00 00 55.1688020  0  6                     
G02  24291963.365      142922.982        2910.145           0.239  
G03  22339202.414      -20036.143        -493.202           0.255  
G04  23624141.954      -82568.807       -2128.628           0.244  
G05  22517769.700       81714.448        2035.008           0.255  
G06  20629437.302      -14896.739        -471.698           0.255  
G07  23410114.625      -38555.403       -1315.704           0.248  
> 2023 05 18 00 00 55.2688020  0  6                     
G02  24291889.284      143214.060        2911.572           0.239  
G03  22339214.799      -20085.386        -494.328           0.255  
G04  23624195.371      -82781.712       -2129.162           0.244  
G05  22517717.862       81917.894        2035.050           0.255  
G06  20629449.297      -14943.963        -471.164           0.255  
G07  23410148.413      -38686.880       -1315.411           0.248  
> 2023 05 18 00 00 55.3688020  0  6                     
G02  24291814.948      143505.138        2911.190           0.239  
G03  22339227.293      -20134.634        -494.548           0.255  
G04  23624250.465      -82994.566       -2116.498           0.244  
G05  22517666.160       82121.330        2034.429           0.255  
G06  20629462.151      -14991.196        -470.994           0.255  
G07  23410181.247      -38818.357       -1314.827           0.248  
> 2023 05 18 00 00 55.4688020  0  6                     
G02  24291741.510      143796.216        2911.459           0.239  
G03  22339239.585      -20183.869        -493.436           0.255  
G04  23624303.093      -83207.515       -2129.203           0.244  
G05  22517614.408       82324.775        2034.951           0.255  
G06  20629474.331      -15038.434        -471.538           0.255  
G07  23410214.644      -38949.842       -1314.911           0.248  
> 2023 05 18 00 00 55.5688020  0  6                     
G02  24291667.575      144087.286        2910.662           0.239  
G03  22339252.849      -20233.118        -492.751           0.255  
G04  23624358.631      -83420.424       -2129.154           0.244  
G05  22517562.522       82528.200        2033.516           0.255  
G06  20629485.897      -15085.672        -471.627           0.255  
G07  23410248.545      -39081.320       -1315.797           0.248  
> 2023 05 18 00 00 55.6688020  0  6                     
G02  24291593.531      144378.369        2910.017           0.239  
G03  22339265.219      -20282.375        -492.564           0.255  
G04  23624412.624      -83633.323       -2128.931           0.244  
G05  22517510.545       82731.645        2035.399           0.255  
G06  20629498.280      -15132.923        -472.568           0.255  
G07  23410282.234      -39212.803       -1314.704           0.248  
> 2023 05 18 00 00 55.7688020  0  6                     
G02  24291519.062      144669.442        2910.951           0.239  
G03  22339277.216      -20331.637        -492.375           0.255  
G04  23624466.115      -83846.224       -2129.309           0.244  
G05  22517458.540       82935.065        2033.039           0.255  
G06  20629510.578      -15180.179        -472.639           0.255  
G07  23410315.311      -39344.290       -1314.258           0.248  
> 2023 05 18 00 00 55.8688020  0  6                     
G02  24291444.581      144960.517        2910.386           0.239  
G03  22339290.123      -20380.893        -491.410           0.255  
G04  23624520.753      -84059.307       -2159.419           0.244  
G05  22517407.072       83138.501        2034.246           0.255  
G06  20629522.390      -15227.431        -473.078           0.255  
G07  23410349.470      -39475.793       -1314.910           0.248  
> 2023 05 18 00 00 55.9688020  0  6                     
G02  24291370.815      145251.964        2961.497           0.239  
G03  22339302.800      -20430.152        -490.610           0.255  
G04  23624574.994      -84272.361       -2184.494           0.244  
G05  22517354.985       83341.936        2034.533           0.255  
G06  20629534.189      -15274.691        -474.353           0.255  
G07  23410382.909      -39607.279       -1314.778           0.248  
> 2023 05 18 00 00 56.0688020  0  6                     
G02  24291296.073      145542.677        2910.901           0.239  
G03  22339315.046      -20479.424        -490.340           0.255  
G04  23624629.441      -84484.957       -2129.214           0.244  
G05  22517303.180       83544.715        1920.431           0.255  
G06  20629546.379      -15321.946        -473.569           0.255  
G07  23410415.847      -39738.781       -1315.036           0.248  
> 2023 05 18 00 00 56.1688020  0  6                     
G02  24291222.304      145833.755        2910.672           0.239  
G03  22339327.805      -20528.768        -479.629           0.255  
G04  23624684.012      -84697.914       -2149.262           0.244  
G05  22517251.412       83748.778        2035.163           0.255  
G06  20629558.440      -15369.203        -473.148           0.255  
G07  23410449.203      -39870.281       -1314.914           0.248  
> 2023 05 18 00 00 56.2688020  0  6                     
G02  24291147.888      146124.843        2910.373           0.239  
G03  22339340.313      -20578.007        -493.039           0.255  
G04  23624738.352      -84910.776       -2128.984           0.244  
G05  22517199.459       83952.192        2033.447           0.255  
G06  20629570.708      -15416.465        -472.840           0.255  
G07  23410483.004      -40001.872       -1328.806           0.248  
> 2023 05 18 00 00 56.3688020  0  6                     
G02  24291074.607      146415.909        2909.475           0.239  
G03  22339353.441      -20627.301        -494.149           0.255  
G04  23624792.203      -85123.689       -2129.000           0.244  
G05  22517147.743       84155.615        2034.478           0.255  
G06  20629582.489      -15463.723        -471.913           0.255  
G07  23410516.736      -40133.296       -1315.018           0.248  
> 2023 05 18 00 00 56.4688020  0  6                     
G02  24291000.250      146706.981        2909.940           0.239  
G03  22339365.551      -20676.601        -494.683           0.255  
G04  23624846.615      -85336.601       -2128.727           0.244  
G05  22517095.845       84359.030        2033.465           0.255  
G06  20629594.492      -15510.992        -471.221           0.255  
G07  23410550.077      -40264.808       -1315.186           0.248  
> 2023 05 18 00 00 56.5688020  0  6                     
G02  24290925.934      146998.068        2910.780           0.239  
G03  22339378.053      -20725.994        -429.981           0.255  
G04  23624900.609      -85549.518       -2128.610           0.244  
G05  22517044.028       84561.948        1952.365           0.255  
G06  20629606.714      -15558.273        -471.803           0.255  
G07  23410583.193      -40396.197       -1323.170           0.248  
> 2023 05 18 00 00 56.6688020  0  6                     
G02  24290851.834      147289.117        2909.671           0.239  
G03  22339390.887      -20775.189        -493.748           0.255  
G04  23624954.953      -85762.430       -2128.938           0.244  
G05  22516992.273       84765.862        2034.723           0.255  
G06  20629618.606      -15605.556        -472.717           0.255  
G07  23410616.873      -40527.843       -1315.615           0.248  
> 2023 05 18 00 00 56.7688020  0  6                     
G02  24290777.577      147580.204        2911.114           0.239  
G03  22339403.339      -20824.491        -493.297           0.255  
G04  23625009.713      -85975.336       -2126.105           0.244  
G05  22516940.315       84969.263        2033.386           0.255  
G06  20629630.519      -15652.840        -472.432           0.255  
G07  23410650.433      -40659.402       -1312.516           0.248  
> 2023 05 18 00 00 56.8688020  0  6                     
G02  24290702.824      147871.292        2911.578           0.239  
G03  22339415.835      -20873.793        -493.052           0.255  
G04  23625064.057      -86188.262       -2129.354           0.244  
G05  22516888.621       85172.839        2087.599           0.255  
G06  20629642.794      -15700.129        -472.546           0.255  
G07  23410684.045      -40790.914       -1317.154           0.248  
> 2023 05 18 00 00 56.9688020  0  6                     
G02  24290629.068      148162.359        2910.144           0.239  
G03  22339428.043      -20923.105        -493.004           0.255  
G04  23625117.997      -86401.180       -2128.890           0.244  
G05  22516836.847       85376.076        2032.736           0.255  
G06  20629654.974      -15747.424        -473.145           0.255  
G07  23410717.448      -40922.408       -1315.028           0.248  
> 2023 05 18 00 00 57.0688020  0  6                     
G02  24290555.066      148453.433        2910.564           0.239  
G03  22339440.768      -20971.964        -441.508           0.255  
G04  23625171.983      -86614.100       -2128.420           0.244  
G05  22516785.002       85579.480        2034.046           0.255  
G06  20629666.933      -15794.718        -473.190           0.255  
G07  23410751.072      -41053.940       -1315.401           0.248  
> 2023 05 18 00 00 57.1688020  0  6                     
G02  24290480.795      148744.519        2911.244           0.239  
G03  22339453.226      -21021.738        -493.663           0.255  
G04  23625226.230      -86827.022       -2128.733           0.244  
G05  22516733.180       85782.879        2034.576           0.255  
G06  20629678.994      -15842.013        -472.780           0.255  
G07  23410784.405      -41185.472       -1315.580           0.248  
> 2023 05 18 00 00 57.2688020  0  6                     
G02  24290407.047      149035.585        2909.917           0.239  
G03  22339466.247      -21071.067        -494.269           0.255  
G04  23625280.442      -87039.948       -2129.222           0.244  
G05  22516681.183       85986.272        2033.568           0.255  
G06  20629690.911      -15889.317        -472.546           0.255  
G07  23410818.222      -41317.010       -1315.537           0.248  
> 2023 05 18 00 00 57.3688020  0  6                     
G02  24290332.914      149326.666        2910.847           0.239  
G03  22339478.860      -21120.314        -484.754           0.255  
G04  23625334.619      -87252.769       -2116.537           0.244  
G05  22516629.410       86189.570        2080.145           0.255  
G06  20629702.927      -15936.618        -473.118           0.255  
G07  23410851.795      -41448.546       -1315.481           0.248  
> 2023 05 18 00 00 57.4688020  0  6                     
G02  24290258.662      149617.757        2911.569           0.239  
G03  22339491.321      -21169.739        -492.649           0.255  
G04  23625388.989      -87465.798       -2129.744           0.244  
G05  22516577.569       86393.556        2063.299           0.255  
G06  20629714.914      -15983.922        -473.379           0.255  
G07  23410885.102      -41580.084       -1315.464           0.248  
> 2023 05 18 00 00 57.5688020  0  6                     
G02  24290184.326      149908.571        2867.331           0.239  
G03  22339503.898      -21219.597        -513.709           0.255  
G04  23625443.560      -87678.543       -2094.052           0.244  
G05  22516525.832       86596.460        2033.889           0.255  
G06  20629727.121      -16031.228        -473.664           0.255  
G07  23410918.551      -41711.628       -1315.569           0.248  
> 2023 05 18 00 00 57.6688020  0  6                     
G02  24290110.089      150199.903        2911.545           0.239  
G03  22339516.422      -21268.897        -512.926           0.255  
G04  23625497.528      -87891.649       -2129.382           0.244  
G05  22516473.931       86799.860        2034.260           0.255  
G06  20629739.335      -16078.545        -474.099           0.255  
G07  23410952.279      -41843.168       -1315.267           0.248  
> 2023 05 18 00 00 57.7688020  0  6                     
G02  24290035.344      150490.987        2911.988           0.239  
G03  22339529.095      -21318.054        -494.843           0.255  
G04  23625551.945      -88104.576       -2129.686           0.244  
G05  22516421.964       87003.241        2033.631           0.255  
G06  20629751.297      -16125.861        -474.128           0.255  
G07  23410985.941      -41974.715       -1315.313           0.248  
> 2023 05 18 00 00 57.8688020  0  6                     
G02  24289961.767      150782.051        2910.440           0.239  
G03  22339541.460      -21367.126        -492.144           0.255  
G04  23625606.087      -88317.500       -2129.469           0.244  
G05  22516370.317       87206.633        2034.156           0.255  
G06  20629763.396      -16173.182        -473.876           0.255  
G07  23411019.451      -42106.265       -1315.377           0.248  
> 2023 05 18 00 00 57.9688020  0  6                     
G02  24289887.239      151073.123        2910.238           0.239  
G03  22339554.311      -21416.484        -492.433           0.255  
G04  23625660.226      -88530.427       -2129.286           0.244  
G05  22516318.529       87410.009        2032.895           0.255  
G06  20629775.326      -16220.502        -473.466           0.255  
G07  23411052.918      -42237.823       -1315.490           0.248  
> 2023 05 18 00 00 58.0688020  0  6                     
G02  24289813.002      151364.226        2912.703           0.239  
G03  22339566.766      -21465.857        -493.667           0.255  
G04  23625714.824      -88743.362       -2129.420           0.244  
G05  22516266.695       87613.394        2033.928           0.255  
G06  20629787.366      -16267.828        -473.334           0.255  
G07  23411086.138      -42369.375       -1315.324           0.248  
> 2023 05 18 00 00 58.1688020  0  6                     
G02  24289739.136      151655.296        2910.901           0.239  
G03  22339579.859      -21515.226        -494.127           0.255  
G04  23625769.457      -88956.559       -2145.183           0.244  
G05  22516214.972       87816.785        2034.717           0.255  
G06  20629799.430      -16315.160        -473.070           0.255  
G07  23411119.963      -42500.825       -1291.791           0.248  
> 2023 05 18 00 00 58.2688020  0  6                     
G02  24289665.065      151946.364        2910.417           0.239  
G03  22339592.442      -21564.607        -494.938           0.255  
G04  23625823.605      -89168.993       -2100.857           0.244  
G05  22516162.995       88020.143        2032.111           0.255  
G06  20629811.507      -16362.488        -472.814           0.255  
G07  23411153.369      -42632.498       -1315.416           0.248  
> 2023 05 18 00 00 58.3688020  0  6                     
G02  24289591.063      152237.446        2911.963           0.239  
G03  22339604.920      -21613.984        -494.451           0.255  
G04  23625877.505      -89382.192       -2131.481           0.244  
G05  22516111.108       88223.527        2034.303           0.255  
G06  20629823.539      -16409.825        -472.746           0.255  
G07  23411186.767      -42764.053       -1313.172           0.248  
> 2023 05 18 00 00 58.4688020  0  6                     
G02  24289517.058      152528.526        2911.126           0.239  
G03  22339616.987      -21663.372        -494.111           0.255  
G04  23625931.588      -89595.093       -2129.313           0.244  
G05  22516059.427       88427.227        2091.713           0.255  
G06  20629835.692      -16457.163        -473.043           0.255  
G07  23411220.329      -42895.634       -1315.471           0.248  
> 2023 05 18 00 00 58.5688020  0  6                     
G02  24289442.139      152819.588        2909.688           0.239  
G03  22339629.234      -21712.747        -493.669           0.255  
G04  23625985.758      -89808.027       -2129.246           0.244  
G05  22516007.577       88630.266        2033.074           0.255  
G06  20629847.994      -16504.512        -473.207           0.255  
G07  23411253.675      -43027.206       -1315.651           0.248  
> 2023 05 18 00 00 58.6688020  0  6                     
G02  24289367.520      153110.678        2911.617           0.239  
G03  22339641.770      -21762.128        -494.444           0.255  
G04  23626040.306      -90020.965       -2129.475           0.244  
G05  22515955.689       88833.643        2034.456           0.255  
G06  20629860.133      -16551.864        -473.260           0.255  
G07  23411287.393      -43158.779       -1315.156           0.248  
> 2023 05 18 00 00 58.7688020  0  6                     
G02  24289293.561      153401.768        2912.580           0.239  
G03  22339654.622      -21811.520        -495.479           0.255  
G04  23626094.657      -90233.907       -2129.850           0.244  
G05  22515903.959       89037.009        2033.279           0.255  
G06  20629872.050      -16599.218        -472.876           0.255  
G07  23411321.026      -43290.360       -1315.445           0.248  
> 2023 05 18 00 00 58.8688020  0  6                     
G02  24289219.502      153692.834        2910.791           0.239  
G03  22339667.363      -21860.928        -495.538           0.255  
G04  23626149.131      -90446.846       -2129.792           0.244  
G05  22515851.989       89240.371        2033.737           0.255  
G06  20629883.918      -16646.573        -473.009           0.255  
G07  23411354.473      -43421.940       -1315.699           0.248  
> 2023 05 18 00 00 58.9688020  0  6                     
G02  24289145.671      153983.908        2911.022           0.239  
G03  22339679.877      -21910.331        -494.941           0.255  
G04  23626203.291      -90659.781       -2129.271           0.244  
G05  22515800.496       89443.740        2034.285           0.255  
G06  20629896.232      -16693.929        -473.175           0.255  
G07  23411387.980      -43553.526       -1315.708           0.248  
> 2023 05 18 00 00 59.0688020  0  6                     
G02  24289071.649      154274.982        2910.645           0.239  
G03  22339692.266      -21959.742        -495.028           0.255  
G04  23626257.254      -90872.724       -2129.450           0.244  
G05  22515748.281       89647.089        2032.591           0.255  
G06  20629908.296      -16741.291        -473.057           0.255  
G07  23411421.649      -43685.112       -1315.788           0.248  
> 2023 05 18 00 00 59.1688020  0  6                     
G02  24288997.674      154565.860        2871.807           0.239  
G03  22339704.951      -22009.157        -494.869           0.255  
G04  23626311.464      -91085.663       -2119.539           0.244  
G05  22515696.437       89849.851        1914.516           0.255  
G06  20629920.161      -16788.653        -472.926           0.255  
G07  23411455.245      -43816.705       -1315.764           0.248  
> 2023 05 18 00 00 59.2688020  0  6                     
G02  24288923.016      154857.137        2910.389           0.239  
G03  22339717.652      -22058.571        -494.062           0.255  
G04  23626365.960      -91298.798       -2143.295           0.244  
G05  22515644.535       90053.887        2100.542           0.255  
G06  20629932.147      -16836.027        -473.774           0.255  
G07  23411488.662      -43948.295       -1315.489           0.248  
> 2023 05 18 00 00 59.3688020  0  6                     
G02  24288848.389      155148.224        2911.867           0.239  
G03  22339730.139      -22107.990        -494.055           0.255  
G04  23626420.424      -91511.751       -2157.877           0.244  
G05  22515592.906       90257.342        2032.308           0.255  
G06  20629944.291      -16883.400        -474.434           0.255  
G07  23411522.058      -44079.890       -1315.323           0.248  
> 2023 05 18 00 00 59.4688020  0  6                     
G02  24288774.796      155439.302        2911.492           0.239  
G03  22339742.571      -22157.412        -493.851           0.255  
G04  23626474.761      -91724.502       -2129.612           0.244  
G05  22515540.927       90460.512        2034.170           0.255  
G06  20629956.707      -16930.775        -474.080           0.255  
G07  23411555.777      -44211.494       -1316.097           0.248  
> 2023 05 18 00 00 59.5688020  0  6                     
G02  24288700.949      155730.370        2910.254           0.239  
G03  22339754.855      -22206.843        -494.098           0.255  
G04  23626528.683      -91937.444       -2128.880           0.244  
G05  22515489.219       90663.867        2033.903           0.255  
G06  20629968.662      -16978.151        -473.899           0.255  
G07  23411589.213      -44343.097       -1315.780           0.248  
> 2023 05 18 00 00 59.6688020  0  6                     
G02  24288626.211      156021.447        2910.709           0.239  
G03  22339768.128      -22256.276        -494.707           0.255  
G04  23626583.075      -92150.393       -2129.361           0.244  
G05  22515437.172       90867.198        2032.487           0.255  
G06  20629980.451      -17025.534        -473.695           0.255  
G07  23411622.775      -44474.700       -1315.447           0.248  
> 2023 05 18 00 00 59.7688020  0  6                     
G02  24288552.244      156312.522        2911.149           0.239  
G03  22339780.809      -22305.720        -494.359           0.255  
G04  23626637.281      -92363.396       -2132.628           0.244  
G05  22515385.656       91070.085        1977.995           0.255  
G06  20629992.435      -17072.920        -473.847           0.255  
G07  23411656.256      -44606.309       -1315.375           0.248  
> 2023 05 18 00 00 59.8688020  0  6                     
G02  24288478.207      156603.608        2910.615           0.239  
G03  22339793.424      -22355.565        -487.595           0.255  
G04  23626691.018      -92576.294       -2121.748           0.244  
G05  22515333.877       91273.902        2034.003           0.255  
G06  20630004.467      -17120.308        -474.523           0.255  
G07  23411689.963      -44737.921       -1315.964           0.248  
> 2023 05 18 00 00 59.9688020  0  6                     
G02  24288403.098      156894.678        2909.800           0.239  
G03  22339805.802      -22404.539        -454.507           0.255  
G04  23626745.869      -92789.247       -2129.217           0.244  
G05  22515282.509       91477.230        2032.458           0.255  
G06  20630016.486      -17167.700        -474.855           0.255  
G07  23411723.714      -44869.487       -1328.223           0.248  
> 2023 05 18 00 01 00.0688020  0  6                     
G02  24288328.754      157185.763        2910.624           0.239  
G03  22339818.550      -22454.070        -493.547           0.255  
G04  23626800.188      -93002.268       -2125.381           0.244  
G05  22515230.188       91680.261        2004.751           0.255  
G06  20630029.048      -17215.096        -474.561           0.255  
G07  23411756.839      -45001.149       -1316.143           0.248  
> 2023 05 18 00 01 00.1688020  0  6                     
G02  24288255.149      157476.843        2911.402           0.239  
G03  22339830.940      -22503.526        -493.944           0.255  
G04  23626854.836      -93215.072       -2114.517           0.244  
G05  22515178.446       91884.093        2091.939           0.255  
G06  20630041.212      -17262.498        -474.474           0.255  
G07  23411790.438      -45132.768       -1316.503           0.248  
> 2023 05 18 00 01 00.2688020  0  6                     
G02  24288181.849      157767.913        2909.805           0.239  
G03  22339843.320      -22552.991        -494.612           0.255  
G04  23626908.844      -93428.098       -2129.075           0.244  
G05  22515126.536       92087.233        2033.058           0.255  
G06  20630053.215      -17309.895        -473.831           0.255  
G07  23411824.331      -45264.392       -1316.371           0.248  
> 2023 05 18 00 01 00.3688020  0  6                     
G02  24288107.175      158058.972        2909.296           0.239  
G03  22339856.261      -22602.458        -494.606           0.255  
G04  23626963.046      -93641.059       -2129.154           0.244  
G05  22515074.457       92290.575        2034.217           0.255  
G06  20630064.997      -17357.303        -474.353           0.255  
G07  23411857.878      -45396.012       -1316.346           0.248  
> 2023 05 18 00 01 00.4688020  0  6                     
G02  24288032.704      158350.049        2909.324           0.239  
G03  22339868.868      -22651.932        -494.462           0.255  
G04  23627017.245      -93854.016       -2129.330           0.244  
G05  22515023.131       92493.901        2033.432           0.255  
G06  20630077.075      -17404.712        -474.295           0.255  
G07  23411891.116      -45527.638       -1316.279           0.248  
> 2023 05 18 00 01 00.5688020  0  6                     
G02  24287959.222      158641.248        2968.912           0.239  
G03  22339881.573      -22701.415        -493.616           0.255  
G04  23627071.565      -94066.883       -2124.904           0.244  
G05  22514970.789       92697.217        2032.222           0.255  
G06  20630089.280      -17452.122        -474.208           0.255  
G07  23411924.694      -45659.436       -1339.737           0.248  
> 2023 05 18 00 01 00.6688020  0  6                     
G02  24287885.271      158932.206        2911.179           0.239  
G03  22339893.489      -22750.884        -494.146           0.255  
G04  23627124.786      -94279.932       -2129.639           0.244  
G05  22514919.379       92900.549        2034.078           0.255  
G06  20630102.047      -17499.541        -474.267           0.255  
G07  23411958.086      -45790.995       -1319.049           0.248  
> 2023 05 18 00 01 00.7688020  0  6                     
G02  24287810.781      159223.272        2909.554           0.239  
G03  22339906.196      -22800.304        -455.407           0.255  
G04  23627180.455      -94492.891       -2129.060           0.244  
G05  22514867.630       93103.882        2034.090           0.255  
G06  20630113.269      -17546.965        -474.683           0.255  
G07  23411991.425      -45922.536       -1316.608           0.248  
> 2023 05 18 00 01 00.8688020  0  6                     
G02  24287735.919      159514.333        2908.976           0.239  
G03  22339918.981      -22849.858        -493.925           0.255  
G04  23627234.930      -94705.851       -2129.064           0.244  
G05  22514815.388       93307.188        2032.146           0.255  
G06  20630125.488      -17594.389        -474.600           0.255  
G07  23412025.006      -46054.182       -1317.207           0.248  
> 2023 05 18 00 01 00.9688020  0  6                     
G02  24287661.701      159805.421        2910.907           0.239  
G03  22339932.248      -22899.368        -500.671           0.255  
G04  23627287.717      -94918.819       -2129.805           0.244  
G05  22514763.668       93510.511        2033.760           0.255  
G06  20630137.562      -17641.811        -474.778           0.255  
G07  23412058.650      -46185.821       -1316.982           0.248  
> 2023 05 18 00 01 01.0688020  0  6                     
G02  24287588.179      160096.496        2911.650           0.239  
G03  22339944.439      -22948.860        -495.219           0.255  
G04  23627342.544      -95131.943       -2136.957           0.244  
G05  22514711.778       93713.829        2033.965           0.255  
G06  20630149.811      -17689.239        -474.628           0.255  
G07  23412092.376      -46317.404       -1323.236           0.248  
> 2023 05 18 00 01 01.1688020  0  6                     
G02  24287514.158      160387.558        2910.606           0.239  
G03  22339957.217      -22998.369        -495.490           0.255  
G04  23627396.670      -95344.745       -2129.708           0.244  
G05  22514659.904       93917.137        2031.755           0.255  
G06  20630161.829      -17736.666        -474.246           0.255  
G07  23412126.600      -46449.108       -1316.503           0.248  
> 2023 05 18 00 01 01.2688020  0  6                     
G02  24287439.998      160678.626        2910.044           0.239  
G03  22339970.096      -23047.871        -495.103           0.255  
G04  23627451.297      -95557.709       -2130.256           0.244  
G05  22514608.049       94120.455        2033.605           0.255  
G06  20630173.751      -17784.105        -474.090           0.255  
G07  23412159.934      -46580.765       -1317.137           0.248  
> 2023 05 18 00 01 01.3688020  0  6                     
G02  24287364.988      160969.705        2911.225           0.239  
G03  22339982.484      -23097.382        -495.000           0.255  
G04  23627505.470      -95770.671       -2129.435           0.244  
G05  22514557.045       94323.767        2033.877           0.255  
G06  20630186.029      -17831.551        -474.541           0.255  
G07  23412192.365      -46712.413       -1316.494           0.248  
> 2023 05 18 00 01 01.4688020  0  6                     
G02  24287291.359      161260.782        2912.094           0.239  
G03  22339994.807      -23146.904        -495.140           0.255  
G04  23627559.909      -95983.418       -2094.888           0.244  
G05  22514505.968       94527.068        2031.997           0.255  
G06  20630198.138      -17878.995        -474.664           0.255  
G07  23412226.595      -46844.077       -1316.620           0.248  
> 2023 05 18 00 01 01.5688020  0  6                     
G02  24287217.839      161551.852        2910.643           0.239  
G03  22340008.069      -23196.426        -495.022           0.255  
G04  23627614.778      -96196.569       -2122.342           0.244  
G05  22514453.866       94730.371        2033.430           0.255  
G06  20630209.878      -17926.444        -474.670           0.255  
G07  23412259.856      -46975.739       -1316.682           0.248  
> 2023 05 18 00 01 01.6688020  0  6                     
G02  24287143.332      161842.915        2909.874           0.239  
G03  22340020.711      -23245.997        -509.790           0.255  
G04  23627668.291      -96409.527       -2117.594           0.244  
G05  22514401.968       94933.684        2034.284           0.255  
G06  20630222.084      -17973.893        -474.530           0.255  
G07  23412293.655      -47107.400       -1316.658           0.248  
> 2023 05 18 00 01 01.7688020  0  6                     
G02  24287068.880      162133.985        2910.353           0.239  
G03  22340032.975      -23295.480        -495.326           0.255  
G04  23627722.564      -96622.551       -2129.815           0.244  
G05  22514349.797       95136.980        2032.690           0.255  
G06  20630234.668      -18021.346        -474.397           0.255  
G07  23412327.369      -47239.067       -1316.553           0.248  
> 2023 05 18 00 01 01.8688020  0  6                     
G02  24286995.077      162425.053        2910.939           0.239  
G03  22340045.764      -23345.014        -494.999           0.255  
G04  23627776.500      -96835.344       -2108.196           0.244  
G05  22514297.712       95340.269        2032.590           0.255  
G06  20630246.314      -18068.803        -474.570           0.255  
G07  23412360.309      -47370.735       -1317.067           0.248  
> 2023 05 18 00 01 01.9688020  0  6                     
G02  24286920.389      162716.118        2911.055           0.239  
G03  22340058.282      -23394.561        -495.099           0.255  
G04  23627831.028      -97048.492       -2130.121           0.244  
G05  22514245.341       95543.573        2034.022           0.255  
G06  20630258.381      -18116.262        -474.441           0.255  
G07  23412394.238      -47502.400       -1316.265           0.248  
> 2023 05 18 00 01 02.0688020  0  6                     
G02  24286846.782      163007.188        2911.289           0.239  
G03  22340070.620      -23444.102        -495.115           0.255  
G04  23627885.226      -97261.465       -2129.783           0.244  
G05  22514194.093       95746.874        2033.795           0.255  
G06  20630270.681      -18163.731        -475.012           0.255  
G07  23412427.771      -47634.082       -1316.047           0.248  
> 2023 05 18 00 01 02.1688020  0  6                     
G02  24286771.988      163298.258        2910.882           0.239  
G03  22340083.557      -23493.652        -495.637           0.255  
G04  23627939.483      -97474.393       -2106.133           0.244  
G05  22514142.358       95950.149        2031.766           0.255  
G06  20630282.629      -18211.198        -474.885           0.255  
G07  23412461.394      -47765.759       -1316.649           0.248  
> 2023 05 18 00 01 02.2688020  0  6                     
G02  24286697.724      163589.100        2871.294           0.239  
G03  22340096.021      -23543.210        -496.380           0.255  
G04  23627993.984      -97687.158       -2079.718           0.244  
G05  22514090.005       96153.444        2033.179           0.255  
G06  20630294.704      -18258.669        -474.480           0.255  
G07  23412495.113      -47897.501       -1325.471           0.248  
> 2023 05 18 00 01 02.3688020  0  6                     
G02  24286624.332      163880.203        2910.057           0.239  
G03  22340108.520      -23592.857        -518.283           0.255  
G04  23628047.703      -97900.657       -2164.250           0.244  
G05  22514038.448       96356.744        2034.024           0.255  
G06  20630307.150      -18306.139        -474.197           0.255  
G07  23412528.443      -48029.137       -1304.265           0.248  
> 2023 05 18 00 01 02.4688020  0  6                     
G02  24286549.228      164171.467        2910.777           0.239  
G03  22340121.037      -23642.323        -496.001           0.255  
G04  23628102.749      -98113.362       -2129.713           0.244  
G05  22513987.084       96560.015        2032.204           0.255  
G06  20630319.062      -18353.628        -474.930           0.255  
G07  23412562.268      -48160.812       -1316.549           0.248  
> 2023 05 18 00 01 02.5688020  0  6                     
G02  24286475.494      164462.528        2911.100           0.239  
G03  22340133.461      -23691.889        -495.621           0.255  
G04  23628156.758      -98326.342       -2129.906           0.244  
G05  22513934.935       96763.300        2032.454           0.255  
G06  20630331.485      -18401.101        -474.449           0.255  
G07  23412595.991      -48292.503       -1316.644           0.248  
> 2023 05 18 00 01 02.6688020  0  6                     
G02  24286401.125      164753.597        2910.446           0.239  
G03  22340146.729      -23741.459        -495.353           0.255  
G04  23628211.130      -98539.077       -2086.626           0.244  
G05  22513883.041       96966.582        2033.307           0.255  
G06  20630343.409      -18448.588        -474.743           0.255  
G07  23412629.412      -48424.192       -1316.998           0.248  
> 2023 05 18 00 01 02.7688020  0  6                     
G02  24286327.202      165044.673        2910.841           0.239  
G03  22340159.409      -23791.032        -495.582           0.255  
G04  23628265.570      -98752.308       -2130.328           0.244  
G05  22513831.074       97169.865        2033.314           0.255  
G06  20630355.290      -18496.075        -474.803           0.255  
G07  23412662.818      -48555.883       -1316.884           0.248  
> 2023 05 18 00 01 02.8688020  0  6                     
G02  24286252.809      165335.745        2911.198           0.239  
G03  22340171.903      -23840.615        -496.064           0.255  
G04  23628319.855      -98965.291       -2129.979           0.244  
G05  22513779.811       97373.130        2031.134           0.255  
G06  20630367.454      -18543.567        -474.804           0.255  
G07  23412696.422      -48687.579       -1316.666           0.248  
> 2023 05 18 00 01 02.9688020  0  6                     
G02  24286179.152      165626.818        2911.378           0.239  
G03  22340184.678      -23890.199        -496.163           0.255  
G04  23628373.704      -99178.271       -2130.067           0.244  
G05  22513727.222       97576.405        2032.888           0.255  
G06  20630379.892      -18591.067        -475.171           0.255  
G07  23412729.282      -48819.280       -1316.536           0.248  
> 2023 05 18 00 01 03.0688020  0  6                     
G02  24286105.558      165917.886        2910.227           0.239  
G03  22340197.283      -23939.789        -495.974           0.255  
G04  23628427.759      -99391.251       -2129.890           0.244  
G05  22513676.044       97779.687        2034.227           0.255  
G06  20630391.618      -18638.559        -475.418           0.255  
G07  23412763.644      -48950.985       -1317.209           0.248  
> 2023 05 18 00 01 03.1688020  0  6                     
G02  24286030.818      166208.963        2910.352           0.239  
G03  22340210.014      -23989.553        -513.332           0.255  
G04  23628482.111      -99604.247       -2129.251           0.244  
G05  22513624.206       97982.952        2032.602           0.255  
G06  20630403.633      -18686.065        -475.439           0.255  
G07  23412797.344      -49082.696       -1317.109           0.248  
> 2023 05 18 00 01 03.2688020  0  6                     
G02  24285955.838      166500.028        2910.856           0.239  
G03  22340222.390      -24038.978        -495.819           0.255  
G04  23628536.629      -99817.242       -2130.103           0.244  
G05  22513572.249       98186.212        2031.686           0.255  
G06  20630415.898      -18733.569        -475.207           0.255  
G07  23412830.729      -49214.406       -1317.187           0.248  
> 2023 05 18 00 01 03.3688020  0  6                     
G02  24285882.218      166791.083        2911.329           0.239  
G03  22340235.170      -24088.584        -496.226           0.255  
G04  23628590.810     -100030.230       -2130.343           0.244  
G05  22513520.407       98389.480        2033.353           0.255  
G06  20630428.033      -18781.078        -474.976           0.255  
G07  23412864.206      -49346.237       -1332.634           0.248  
> 2023 05 18 00 01 03.4688020  0  6                     
G02  24285807.479      167082.154        2911.293           0.239  
G03  22340247.683      -24138.195        -496.567           0.255  
G04  23628645.328     -100243.217       -2130.321           0.244  
G05  22513468.673       98592.756        2033.734           0.255  
G06  20630440.026      -18828.587        -474.636           0.255  
G07  23412897.762      -49477.831       -1316.975           0.248  
> 2023 05 18 00 01 03.5688020  0  6                     
G02  24285733.271      167373.234        2911.334           0.239  
G03  22340260.491      -24187.805        -496.282           0.255  
G04  23628699.466     -100456.206       -2130.167           0.244  
G05  22513417.384       98796.008        2031.888           0.255  
G06  20630452.182      -18876.102        -474.671           0.255  
G07  23412930.823      -49609.550       -1317.083           0.248  
> 2023 05 18 00 01 03.6688020  0  6                     
G02  24285660.236      167664.297        2910.365           0.239  
G03  22340272.602      -24237.416        -495.567           0.255  
G04  23628754.197     -100669.187       -2129.481           0.244  
G05  22513365.260       98999.264        2031.605           0.255  
G06  20630464.340      -18923.633        -474.816           0.255  
G07  23412965.243      -49741.268       -1317.606           0.248  
> 2023 05 18 00 01 03.7688020  0  6                     
G02  24285585.616      167955.366        2910.994           0.239  
G03  22340285.512      -24287.039        -496.104           0.255  
G04  23628808.094     -100882.186       -2130.070           0.244  
G05  22513313.352       99202.521        2032.990           0.255  
G06  20630476.410      -18971.153        -475.165           0.255  
G07  23412998.708      -49872.992       -1317.309           0.248  
> 2023 05 18 00 01 03.8688020  0  6                     
G02  24285511.545      168246.436        2910.649           0.239  
G03  22340298.227      -24336.666        -496.165           0.255  
G04  23628862.086     -101095.180       -2130.059           0.244  
G05  22513261.413       99405.781        2033.755           0.255  
G06  20630488.551      -19018.683        -475.475           0.255  
G07  23413032.133      -50004.717       -1317.070           0.248  
> 2023 05 18 00 01 03.9688020  0  6                     
G02  24285437.194      168537.938        2955.677           0.239  
G03  22340311.004      -24386.295        -496.558           0.255  
G04  23628916.727     -101308.183       -2129.900           0.244  
G05  22513209.825       99609.390        2098.994           0.255  
G06  20630500.627      -19066.211        -475.518           0.255  
G07  23413065.685      -50136.451       -1317.190           0.248  
> 2023 05 18 00 01 04.0688020  0  6                     
G02  24285363.164      168828.582        2910.581           0.239  
G03  22340323.259      -24436.054        -503.207           0.255  
G04  23628970.782     -101521.180       -2130.257           0.244  
G05  22513158.056       99812.272        2032.366           0.255  
G06  20630512.822      -19113.745        -475.734           0.255  
G07  23413099.059      -50268.191       -1317.889           0.248  
> 2023 05 18 00 01 04.1688020  0  6                     
G02  24285289.355      169119.643        2911.001           0.239  
G03  22340335.819      -24485.566        -495.937           0.255  
G04  23629024.551     -101734.176       -2130.222           0.244  
G05  22513106.562      100015.525        2033.267           0.255  
G06  20630524.802      -19161.272        -475.567           0.255  
G07  23413132.910      -50399.925       -1317.227           0.248  
> 2023 05 18 00 01 04.2688020  0  6                     
G02  24285215.918      169410.712        2911.183           0.239  
G03  22340348.569      -24535.218        -496.573           0.255  
G04  23629078.827     -101947.176       -2130.037           0.244  
G05  22513054.158      100218.780        2033.872           0.255  
G06  20630536.930      -19208.814        -474.757           0.255  
G07  23413166.475      -50531.725       -1331.978           0.248  
> 2023 05 18 00 01 04.3688020  0  6                     
G02  24285141.106      169701.780        2910.898           0.239  
G03  22340361.449      -24584.861        -496.635           0.255  
G04  23629132.550     -102160.177       -2130.198           0.244  
G05  22513002.935      100422.011        2032.191           0.255  
G06  20630548.941      -19256.358        -475.239           0.255  
G07  23413199.895      -50663.409       -1317.498           0.248  
> 2023 05 18 00 01 04.4688020  0  6                     
G02  24285066.394      169992.853        2910.063           0.239  
G03  22340374.180      -24634.512        -496.528           0.255  
G04  23629186.555     -102373.172       -2129.866           0.244  
G05  22512950.632      100625.247        2031.946           0.255  
G06  20630560.863      -19303.906        -475.645           0.255  
G07  23413234.082      -50795.152       -1317.152           0.248  
> 2023 05 18 00 01 04.5688020  0  6                     
G02  24284991.039      170283.934        2911.311           0.239  
G03  22340387.071      -24684.176        -496.092           0.255  
G04  23629241.301     -102586.180       -2130.536           0.244  
G05  22512899.110      100827.917        1927.549           0.255  
G06  20630573.466      -19351.465        -475.555           0.255  
G07  23413266.859      -50926.648       -1315.372           0.248  
> 2023 05 18 00 01 04.6688020  0  6                     
G02  24284917.703      170574.998        2910.597           0.239  
G03  22340399.894      -24733.832        -496.387           0.255  
G04  23629295.289     -102799.178       -2130.189           0.244  
G05  22512847.370      101031.736        2033.383           0.255  
G06  20630585.409      -19399.008        -474.788           0.255  
G07  23413299.762      -51058.647       -1317.276           0.248  
> 2023 05 18 00 01 04.7688020  0  6                     
G02  24284843.946      170866.067        2910.110           0.239  
G03  22340412.120      -24783.240        -472.840           0.255  
G04  23629350.395     -103012.176       -2129.539           0.244  
G05  22512795.479      101234.965        2032.328           0.255  
G06  20630597.378      -19446.567        -474.798           0.255  
G07  23413333.772      -51190.398       -1317.323           0.248  
> 2023 05 18 00 01 04.8688020  0  6                     
G02  24284769.861      171157.147        2910.928           0.239  
G03  22340424.748      -24833.172        -497.731           0.255  
G04  23629405.343     -103225.180       -2129.281           0.244  
G05  22512744.021      101438.191        2030.826           0.255  
G06  20630609.479      -19494.127        -475.491           0.255  
G07  23413367.013      -51322.164       -1318.068           0.248  
> 2023 05 18 00 01 04.9688020  0  6                     
G02  24284695.617      171448.201        2911.047           0.239  
G03  22340437.356      -24882.848        -496.912           0.255  
G04  23629459.665     -103438.191       -2129.987           0.244  
G05  22512691.891      101641.425        2032.153           0.255  
G06  20630621.769      -19541.693        -475.236           0.255  
G07  23413401.036      -51453.644       -1299.829           0.248  
> 2023 05 18 00 01 05.0688020  0  6                     
G02  24284620.687      171739.265        2910.671           0.239  
G03  22340449.721      -24932.524        -497.003           0.255  
G04  23629513.930     -103651.196       -2129.959           0.244  
G05  22512639.979      101844.650        2032.945           0.255  
G06  20630633.965      -19589.259        -475.631           0.255  
G07  23413434.865      -51585.686       -1318.035           0.248  
> 2023 05 18 00 01 05.1688020  0  6                     
G02  24284546.742      172030.336        2910.856           0.239  
G03  22340462.478      -24982.207        -497.137           0.255  
G04  23629568.267     -103864.203       -2130.171           0.244  
G05  22512588.229      102047.874        2032.586           0.255  
G06  20630645.978      -19636.826        -475.534           0.255  
G07  23413468.350      -51717.450       -1317.892           0.248  
> 2023 05 18 00 01 05.2688020  0  6                     
G02  24284473.707      172321.405        2910.050           0.239  
G03  22340475.307      -25031.897        -497.205           0.255  
G04  23629622.375     -104077.213       -2130.427           0.244  
G05  22512535.997      102251.087        2030.892           0.255  
G06  20630658.163      -19684.403        -475.280           0.255  
G07  23413501.942      -51849.220       -1317.745           0.248  
> 2023 05 18 00 01 05.3688020  0  6                     
G02  24284399.434      172612.482        2910.448           0.239  
G03  22340487.813      -25081.595        -497.034           0.255  
G04  23629676.799     -104290.217       -2130.656           0.244  
G05  22512484.742      102454.313        2032.031           0.255  
G06  20630670.337      -19731.978        -475.457           0.255  
G07  23413534.982      -51980.982       -1316.998           0.248  
> 2023 05 18 00 01 05.4688020  0  6                     
G02  24284324.619      172903.553        2911.239           0.239  
G03  22340501.375      -25131.288        -497.213           0.255  
G04  23629731.195     -104503.230       -2130.203           0.244  
G05  22512432.433      102656.948        1925.810           0.255  
G06  20630681.925      -19779.566        -475.563           0.255  
G07  23413568.597      -52112.764       -1318.087           0.248  
> 2023 05 18 00 01 05.5688020  0  6                     
G02  24284250.400      173194.626        2911.209           0.239  
G03  22340514.072      -25180.987        -496.919           0.255  
G04  23629784.676     -104716.245       -2130.793           0.244  
G05  22512381.055      102860.705        2058.283           0.255  
G06  20630694.286      -19827.152        -476.022           0.255  
G07  23413603.185      -52244.535       -1318.301           0.248  
> 2023 05 18 00 01 05.6688020  0  6                     
G02  24284176.415      173485.690        2910.407           0.239  
G03  22340526.047      -25230.694        -497.016           0.255  
G04  23629839.054     -104929.255       -2130.679           0.244  
G05  22512328.967      103064.322        2113.024           0.255  
G06  20630706.431      -19874.739        -475.945           0.255  
G07  23413636.887      -52376.316       -1318.055           0.248  
> 2023 05 18 00 01 05.7688020  0  6                     
G02  24284102.114      173776.754        2910.818           0.239  
G03  22340538.578      -25280.407        -497.009           0.255  
G04  23629894.317     -105142.265       -2130.154           0.244  
G05  22512277.066      103267.692        2077.840           0.255  
G06  20630718.821      -19922.324        -475.435           0.255  
G07  23413669.530      -52508.128       -1327.538           0.248  
> 2023 05 18 00 01 05.8688020  0  6                     
G02  24284028.327      174067.823        2910.939           0.239  
G03  22340552.057      -25330.119        -497.288           0.255  
G04  23629947.973     -105355.274       -2129.853           0.244  
G05  22512225.211      103470.383        2031.914           0.255  
G06  20630730.242      -19969.925        -476.385           0.255  
G07  23413703.870      -52639.883       -1317.376           0.248  
> 2023 05 18 00 01 05.9688020  0  6                     
G02  24283954.573      174358.895        2911.657           0.239  
G03  22340564.516      -25379.840        -497.271           0.255  
G04  23630001.915     -105568.294       -2130.454           0.244  
G05  22512173.671      103673.604        2033.213           0.255  
G06  20630742.184      -20017.520        -476.366           0.255  
G07  23413737.924      -52771.677       -1318.326           0.248  
> 2023 05 18 00 01 06.0688020  0  7                     
G02  24283879.708      174649.963        2910.030           0.239  
G03  22340576.327      -25429.561        -496.986           0.255  
G04  23630057.090     -105781.310       -2130.012           0.244  
G05  22512122.421      103876.814        2033.091           0.255  
G06  20630754.796      -20065.121        -476.683           0.255  
G07  23413771.138      -52903.469       -1317.908           0.248  
G09  23111370.329      -46531.997       -1434.638           0.251  
> 2023 05 18 00 01 06.1688020  0  7                     
G02  24283805.721      174941.034        2909.946           0.239  
G03  22340589.359      -25479.300        -497.396           0.255  
G04  23630110.973     -105994.322       -2129.464           0.244  
G05  22512070.750      104080.012        2032.039           0.255  
G06  20630767.360      -20112.729        -476.428           0.255  
G07  23413804.729      -53035.257       -1317.168           0.248  
G09  23111406.351      -46675.627       -1435.742           0.251  
> 2023 05 18 00 01 06.2688020  0  7                     
G02  24283730.534      175232.112        2910.169           0.239  
G03  22340601.937      -25529.030        -497.134           0.255  
G04  23630164.693     -106207.352       -2138.327           0.244  
G05  22512018.855      104283.195        2031.155           0.255  
G06  20630779.408      -20160.337        -476.376           0.255  
G07  23413838.251      -53167.060       -1317.399           0.248  
G09  23111443.233      -46818.735       -1404.305           0.251  
> 2023 05 18 00 01 06.3688020  0  7                     
G02  24283656.861      175523.184        2911.424           0.239  
G03  22340614.416      -25578.736        -473.530           0.255  
G04  23630219.375     -106420.340       -2123.514           0.244  
G05  22511966.681      104486.400        2031.906           0.255  
G06  20630791.770      -20207.953        -476.278           0.255  
G07  23413871.334      -53298.964       -1322.001           0.248  
G09  23111480.089      -46962.890       -1436.381           0.252  
> 2023 05 18 00 01 06.4688020  0  7                     
G02  24283582.726      175814.249        2910.177           0.239  
G03  22340627.235      -25628.510        -496.723           0.255  
G04  23630273.877     -106633.382       -2129.914           0.244  
G05  22511915.281      104689.607        2032.827           0.255  
G06  20630803.769      -20255.566        -476.630           0.255  
G07  23413904.708      -53430.667       -1318.154           0.248  
G09  23111516.172      -47106.525       -1435.791           0.252  
> 2023 05 18 00 01 06.5688020  0  7                     
G02  24283508.632      176105.322        2910.449           0.239  
G03  22340640.022      -25678.262        -497.388           0.255  
G04  23630328.106     -106846.401       -2130.130           0.244  
G05  22511863.335      104892.802        2032.865           0.255  
G06  20630815.882      -20303.184        -476.240           0.255  
G07  23413938.688      -53562.410       -1308.984           0.248  
G09  23111553.213      -47250.163       -1436.050           0.251  
> 2023 05 18 00 01 06.6688020  0  7                     
G02  24283434.674      176396.393        2910.756           0.239  
G03  22340652.564      -25728.012        -497.876           0.255  
G04  23630382.658     -107059.421       -2129.956           0.244  
G05  22511811.389      105095.983        2031.355           0.255  
G06  20630827.791      -20350.807        -476.544           0.255  
G07  23413972.706      -53694.280       -1317.947           0.248  
G09  23111590.868      -47393.788       -1434.912           0.251  
> 2023 05 18 00 01 06.7688020  0  7                     
G02  24283359.481      176687.467        2911.447           0.239  
G03  22340666.191      -25777.767        -497.900           0.255  
G04  23630436.750     -107272.454       -2130.429           0.244  
G05  22511760.309      105299.169        2030.294           0.255  
G06  20630839.951      -20398.431        -475.874           0.255  
G07  23414005.407      -53826.095       -1318.301           0.248  
G09  23111625.909      -47537.438       -1437.006           0.251  
> 2023 05 18 00 01 06.8688020  0  7                     
G02  24283285.785      176978.532        2910.947           0.239  
G03  22340678.742      -25827.530        -497.944           0.255  
G04  23630490.535     -107485.476       -2130.140           0.244  
G05  22511707.959      105502.357        2031.646           0.255  
G06  20630852.300      -20446.061        -475.933           0.255  
G07  23414038.269      -53957.912       -1317.860           0.248  
G09  23111663.229      -47681.079       -1437.647           0.251  
> 2023 05 18 00 01 06.9688020  0  7                     
G02  24283211.613      177269.760        2948.577           0.239  
G03  22340691.586      -25877.144        -468.503           0.255  
G04  23630545.082     -107698.392       -2107.300           0.244  
G05  22511656.189      105705.551        2032.375           0.255  
G06  20630863.909      -20493.697        -476.410           0.255  
G07  23414072.888      -54089.910       -1308.622           0.248  
G09  23111699.604      -47824.394       -1388.260           0.251  
> 2023 05 18 00 01 07.0688020  0  7                     
G02  24283137.769      177560.678        2910.803           0.239  
G03  22340703.649      -25927.063        -497.581           0.255  
G04  23630599.363     -107911.525       -2130.172           0.244  
G05  22511604.973      105908.744        2032.472           0.255  
G06  20630876.501      -20541.336        -476.325           0.255  
G07  23414106.339      -54221.558       -1318.177           0.248  
G09  23111735.954      -47968.357       -1436.641           0.252  
> 2023 05 18 00 01 07.1688020  0  7                     
G02  24283063.095      177851.758        2912.080           0.239  
G03  22340716.227      -25976.839        -497.412           0.255  
G04  23630653.805     -108124.556       -2130.316           0.244  
G05  22511553.357      106111.917        2031.636           0.255  
G06  20630889.013      -20588.975        -476.778           0.255  
G07  23414139.900      -54353.374       -1317.787           0.248  
G09  23111771.361      -48111.996       -1435.496           0.251  
> 2023 05 18 00 01 07.2688020  0  7                     
G02  24282989.198      178142.830        2911.882           0.239  
G03  22340728.837      -26026.652        -501.660           0.255  
G04  23630707.842     -108337.587       -2130.620           0.244  
G05  22511501.782      106315.087        2030.147           0.255  
G06  20630901.125      -20636.614        -476.181           0.255  
G07  23414173.029      -54485.371       -1358.136           0.248  
G09  23111808.604      -48255.637       -1436.119           0.252  
> 2023 05 18 00 01 07.3688020  0  7                     
G02  24282914.184      178433.898        2911.052           0.239  
G03  22340741.877      -26076.407        -498.024           0.255  
G04  23630762.929     -108550.616       -2130.114           0.244  
G05  22511449.850      106518.262        2030.985           0.255  
G06  20630912.868      -20684.259        -476.140           0.255  
G07  23414207.813      -54617.029       -1317.902           0.248  
G09  23111845.116      -48399.276       -1437.023           0.252  
> 2023 05 18 00 01 07.4688020  0  7                     
G02  24282841.344      178724.967        2910.788           0.239  
G03  22340753.654      -26126.191        -498.029           0.255  
G04  23630815.942     -108763.641       -2130.766           0.244  
G05  22511397.772      106721.438        2032.228           0.255  
G06  20630925.495      -20731.908        -476.165           0.255  
G07  23414240.565      -54748.861       -1318.717           0.248  
G09  23111881.790      -48542.928       -1437.272           0.252  
> 2023 05 18 00 01 07.5688020  0  7                     
G02  24282766.868      179016.039        2910.848           0.239  
G03  22340766.590      -26175.983        -497.889           0.255  
G04  23630870.732     -108976.674       -2130.245           0.244  
G05  22511345.180      106924.620        2032.435           0.255  
G06  20630937.284      -20779.560        -476.397           0.255  
G07  23414274.496      -54880.702       -1318.603           0.248  
G09  23111918.886      -48686.556       -1436.577           0.252  
> 2023 05 18 00 01 07.6688020  0  7                     
G02  24282692.952      179307.106        2911.343           0.239  
G03  22340778.158      -26225.789        -498.607           0.255  
G04  23630925.318     -109189.711       -2130.493           0.244  
G05  22511293.337      107127.794        2032.857           0.255  
G06  20630950.000      -20827.217        -476.544           0.255  
G07  23414308.378      -55012.533       -1318.426           0.248  
G09  23111956.061      -48830.199       -1436.101           0.252  
> 2023 05 18 00 01 07.7688020  0  7                     
G02  24282619.554      179598.161        2909.428           0.239  
G03  22340792.538      -26275.405        -467.849           0.255  
G04  23630978.895     -109402.746       -2130.069           0.244  
G05  22511241.301      107331.275        2111.202           0.255  
G06  20630961.673      -20874.882        -476.912           0.255  
G07  23414342.583      -55144.369       -1317.729           0.248  
G09  23111991.682      -48973.775       -1434.552           0.251  
> 2023 05 18 00 01 07.8688020  0  7                     
G02  24282544.727      179889.516        2952.958           0.239  
G03  22340805.591      -26325.313        -493.665           0.255  
G04  23631033.606     -109615.783       -2130.156           0.244  
G05  22511189.662      107534.629        2080.616           0.255  
G06  20630973.223      -20922.545        -476.969           0.255  
G07  23414375.312      -55275.968       -1268.035           0.248  
G09  23112028.928      -49117.523       -1447.963           0.251  
> 2023 05 18 00 01 07.9688020  0  7                     
G02  24282469.050      180180.285        2910.878           0.239  
G03  22340818.808      -26374.967        -476.583           0.255  
G04  23631087.883     -109828.819       -2130.262           0.244  
G05  22511138.552      107737.720        2050.798           0.255  
G06  20630985.456      -20970.210        -476.482           0.255  
G07  23414409.104      -55408.063       -1318.119           0.248  
G09  23112065.383      -49261.135       -1416.395           0.251  
> 2023 05 18 00 01 08.0688020  0  7                     
G02  24282395.284      180471.344        2910.010           0.239  
G03  22340831.280      -26425.016        -498.458           0.255  
G04  23631142.302     -110041.858       -2130.611           0.244  
G05  22511087.247      107940.443        2032.146           0.255  
G06  20630997.454      -21017.881        -476.508           0.255  
G07  23414442.641      -55539.688       -1314.161           0.248  
G09  23112103.153      -49404.788       -1436.723           0.251  
> 2023 05 18 00 01 08.1688020  0  7                     
G02  24282320.470      180762.414        2910.546           0.239  
G03  22340842.121      -26474.835        -498.456           0.255  
G04  23631196.564     -110254.888       -2129.832           0.244  
G05  22511035.334      108143.610        2032.417           0.255  
G06  20631010.625      -21065.556        -476.495           0.255  
G07  23414477.084      -55671.769       -1318.823           0.248  
G09  23112139.158      -49548.429       -1435.403           0.251  
> 2023 05 18 00 01 08.2688020  0  7                     
G02  24282246.751      181053.478        2911.836           0.239  
G03  22340856.091      -26524.658        -497.428           0.255  
G04  23631251.076     -110467.928       -2130.554           0.244  
G05  22510982.989      108346.769        2032.794           0.255  
G06  20631022.306      -21113.230        -477.004           0.255  
G07  23414508.226      -55803.624       -1318.435           0.248  
G09  23112176.287      -49692.071       -1437.110           0.251  
> 2023 05 18 00 01 08.3688020  0  7                     
G02  24282173.344      181344.544        2910.730           0.239  
G03  22340868.596      -26574.481        -497.794           0.255  
G04  23631305.629     -110680.972       -2130.255           0.244  
G05  22510931.268      108549.916        2031.392           0.255  
G06  20631033.696      -21160.914        -477.200           0.255  
G07  23414543.253      -55935.480       -1317.601           0.248  
G09  23112214.057      -49835.721       -1436.306           0.251  
> 2023 05 18 00 01 08.4688020  0  7                     
G02  24282098.601      181635.607        2910.847           0.239  
G03  22340880.340      -26624.315        -497.803           0.255  
G04  23631359.801     -110894.016       -2130.719           0.244  
G05  22510879.448      108753.075        2030.595           0.255  
G06  20631046.884      -21208.601        -476.973           0.255  
G07  23414577.344      -56067.350       -1318.542           0.248  
G09  23112248.596      -49979.377       -1436.617           0.251  
> 2023 05 18 00 01 08.5688020  0  7                     
G02  24282024.669      181926.675        2911.580           0.239  
G03  22340893.224      -26674.163        -498.521           0.255  
G04  23631414.208     -111107.059       -2130.763           0.244  
G05  22510827.959      108956.219        2030.221           0.255  
G06  20631058.550      -21256.285        -476.972           0.255  
G07  23414609.817      -56199.212       -1317.932           0.248  
G09  23112286.465      -50123.031       -1435.968           0.251  
> 2023 05 18 00 01 08.6688020  0  7                     
G02  24281951.298      182217.599        2910.872           0.239  
G03  22340906.141      -26723.996        -497.861           0.255  
G04  23631466.464     -111320.109       -2130.894           0.244  
G05  22510776.327      109159.369        2031.394           0.255  
G06  20631070.899      -21303.978        -476.913           0.255  
G07  23414643.589      -56331.331       -1351.600           0.248  
G09  23112322.236      -50266.683       -1437.270           0.252  
> 2023 05 18 00 01 08.7688020  0  7                     
G02  24281877.041      182508.808        2911.093           0.239  
G03  22340919.286      -26773.844        -497.833           0.255  
G04  23631522.206     -111533.118       -2133.765           0.244  
G05  22510724.333      109362.517        2032.115           0.255  
G06  20631083.434      -21351.669        -477.087           0.255  
G07  23414676.496      -56462.958       -1318.459           0.248  
G09  23112356.973      -50410.338       -1436.777           0.251  
> 2023 05 18 00 01 08.8688020  0  7                     
G02  24281803.017      182799.882        2912.415           0.239  
G03  22340932.826      -26823.693        -497.802           0.255  
G04  23631576.865     -111746.198       -2132.129           0.244  
G05  22510672.494      109565.665        2032.391           0.255  
G06  20631094.815      -21399.374        -476.977           0.255  
G07  23414711.155      -56594.835       -1328.729           0.248  
G09  23112394.488      -50553.982       -1437.644           0.252  
> 2023 05 18 00 01 08.9688020  0  7                     
G02  24281727.068      183090.943        2911.139           0.239  
G03  22340944.796      -26873.556        -498.432           0.255  
G04  23631631.963     -111959.244       -2130.699           0.244  
G05  22510619.624      109768.815        2033.030           0.255  
G06  20631107.621      -21447.068        -476.974           0.255  
G07  23414745.692      -56726.707       -1319.200           0.248  
G09  23112431.129      -50697.640       -1436.623           0.252  
> 2023 05 18 00 01 09.0688020  0  7                     
G02  24281655.580      183382.000        2909.707           0.239  
G03  22340957.468      -26923.423        -499.146           0.255  
G04  23631685.947     -112172.292       -2131.530           0.244  
G05  22510567.615      109971.941        2031.742           0.255  
G06  20631119.766      -21494.769        -476.526           0.255  
G07  23414779.017      -56858.583       -1318.777           0.248  
G09  23112468.952      -50841.289       -1436.472           0.252  
> 2023 05 18 00 01 09.1688020  0  7                     
G02  24281579.039      183673.066        2911.240           0.239  
G03  22340970.671      -26973.277        -499.234           0.255  
G04  23631739.958     -112385.342       -2130.774           0.244  
G05  22510516.808      110175.073        2030.267           0.255  
G06  20631131.037      -21542.482        -477.032           0.255  
G07  23414812.527      -56990.468       -1318.789           0.248  
G09  23112507.708      -50984.945       -1435.620           0.252  
> 2023 05 18 00 01 09.2688020  0  7                     
G02  24281505.757      183964.116        2909.972           0.239  
G03  22340982.957      -27023.153        -498.797           0.255  
G04  23631793.812     -112598.386       -2129.562           0.244  
G05  22510465.389      110378.209        2030.372           0.255  
G06  20631142.676      -21590.191        -476.982           0.255  
G07  23414845.741      -57122.353       -1318.738           0.248  
G09  23112545.341      -51128.595       -1436.591           0.251  
> 2023 05 18 00 01 09.3688020  0  7                     
G02  24281431.024      184255.179        2911.367           0.239  
G03  22340996.835      -27073.025        -498.486           0.255  
G04  23631847.879     -112811.433       -2130.558           0.244  
G05  22510413.505      110581.333        2030.677           0.255  
G06  20631153.967      -21637.909        -476.969           0.255  
G07  23414879.100      -57254.245       -1318.671           0.248  
G09  23112582.015      -51272.257       -1437.062           0.251  
> 2023 05 18 00 01 09.4688020  0  7                     
G02  24281357.181      184546.250        2911.650           0.238  
G03  22341009.407      -27122.900        -498.136           0.255  
G04  23631902.156     -113024.495       -2130.575           0.244  
G05  22510361.401      110784.466        2031.456           0.255  
G06  20631167.519      -21685.626        -477.245           0.255  
G07  23414912.898      -57386.137       -1319.199           0.248  
G09  23112615.672      -51415.917       -1437.093           0.251  
> 2023 05 18 00 01 09.5688020  0  7                     
G02  24281283.244      184837.308        2910.736           0.239  
G03  22341020.496      -27172.785        -498.854           0.255  
G04  23631956.097     -113237.548       -2129.998           0.244  
G05  22510309.905      110987.604        2032.328           0.255  
G06  20631180.090      -21733.351        -477.186           0.255  
G07  23414946.448      -57518.026       -1318.607           0.248  
G09  23112651.264      -51559.570       -1436.662           0.251  
> 2023 05 18 00 01 09.6688020  0  7                     
G02  24281208.660      185128.383        2911.181           0.239  
G03  22341033.821      -27222.673        -499.085           0.255  
G04  23632011.350     -113450.599       -2129.920           0.244  
G05  22510258.581      111190.299        1986.891           0.255  
G06  20631192.196      -21781.075        -477.514           0.255  
G07  23414980.184      -57649.926       -1318.948           0.248  
G09  23112687.245      -51703.224       -1435.560           0.251  
> 2023 05 18 00 01 09.7688020  0  7                     
G02  24281133.857      185419.438        2908.907           0.240  
G03  22341046.892      -27272.563        -499.173           0.255  
G04  23632065.652     -113663.654       -2129.333           0.244  
G05  22510207.132      111393.858        2032.182           0.255  
G06  20631203.938      -21828.806        -477.413           0.255  
G07  23415013.635      -57781.823       -1319.196           0.248  
G09  23112725.394      -51846.882       -1436.114           0.251  
> 2023 05 18 00 01 09.8688020  0  7                     
G02  24281060.949      185710.522        2912.772           0.239  
G03  22341059.073      -27322.457        -498.750           0.255  
G04  23632120.304     -113876.718       -2130.767           0.244  
G05  22510154.940      111596.972        2030.519           0.255  
G06  20631216.753      -21876.528        -476.897           0.255  
G07  23415046.586      -57913.720       -1310.579           0.248  
G09  23112761.202      -51991.417       -1508.178           0.251  
> 2023 05 18 00 01 09.9688020  0  7                     
G02  24280986.480      186001.575        2910.284           0.239  
G03  22341073.092      -27372.362        -499.194           0.255  
G04  23632174.887     -114089.776       -2131.111           0.244  
G05  22510103.267      111800.084        2029.968           0.255  
G06  20631228.787      -21924.269        -477.333           0.255  
G07  23415080.011      -58045.627       -1318.632           0.248  
G09  23112796.069      -52134.206       -1437.122           0.252  
> 2023 05 18 00 01 10.0688020  0  7                     
G02  24280911.434      186292.642        2913.309           0.239  
G03  22341084.414      -27422.265        -499.273           0.255  
G04  23632229.550     -114302.832       -2130.969           0.244  
G05  22510051.175      112003.199        2029.788           0.255  
G06  20631241.107      -21972.020        -477.275           0.255  
G07  23415114.463      -58177.540       -1318.739           0.248  
G09  23112833.453      -52277.836       -1436.489           0.252  
> 2023 05 18 00 01 10.1688020  0  7                     
G02  24280837.164      186583.692        2911.182           0.239  
G03  22341096.068      -27471.995        -463.385           0.255  
G04  23632283.202     -114515.891       -2130.876           0.244  
G05  22510000.240      112206.316        2030.371           0.255  
G06  20631252.945      -22019.761        -478.114           0.255  
G07  23415147.711      -58309.410       -1305.093           0.248  
G09  23112873.119      -52421.576       -1458.634           0.252  
> 2023 05 18 00 01 10.2688020  0  7                     
G02  24280762.712      186874.769        2912.778           0.239  
G03  22341108.844      -27522.051        -485.807           0.255  
G04  23632337.084     -114728.952       -2131.471           0.244  
G05  22509948.533      112409.426        2031.096           0.255  
G06  20631268.025      -22067.500        -477.347           0.255  
G07  23415181.546      -58441.362       -1319.297           0.248  
G09  23112900.973      -52565.190       -1436.422           0.251  
> 2023 05 18 00 01 10.3688020  0  7                     
G02  24280690.342      187165.325        2890.874           0.239  
G03  22341123.477      -27572.011        -498.822           0.255  
G04  23632391.366     -114942.016       -2130.656           0.244  
G05  22509896.490      112612.297        2018.987           0.255  
G06  20631277.996      -22115.248        -477.760           0.255  
G07  23415215.398      -58573.464       -1327.113           0.248  
G09  23112943.424      -52708.411       -1386.598           0.251  
> 2023 05 18 00 01 10.4688020  0  7                     
G02  24280615.838      187456.880        2910.640           0.239  
G03  22341134.839      -27621.930        -499.024           0.255  
G04  23632445.797     -115155.082       -2131.011           0.244  
G05  22509844.033      112815.659        2031.769           0.255  
G06  20631289.625      -22163.004        -477.378           0.255  
G07  23415249.625      -58705.266       -1322.975           0.248  
G09  23112981.966      -52852.515       -1436.683           0.251  
> 2023 05 18 00 01 10.5688020  0  7                     
G02  24280540.882      187747.946        2910.569           0.239  
G03  22341147.710      -27671.925        -507.550           0.255  
G04  23632499.557     -115368.149       -2130.953           0.244  
G05  22509792.314      113018.773        2032.708           0.255  
G06  20631301.485      -22210.758        -477.888           0.255  
G07  23415282.275      -58837.120       -1319.355           0.248  
G09  23113022.058      -52996.180       -1435.629           0.251  
> 2023 05 18 00 01 10.6688020  0  7                     
G02  24280467.474      188039.025        2912.268           0.239  
G03  22341160.303      -27721.795        -498.984           0.255  
G04  23632553.778     -115581.220       -2131.579           0.244  
G05  22509740.806      113221.871        2031.760           0.255  
G06  20631312.260      -22258.514        -477.535           0.255  
G07  23415316.043      -58969.054       -1320.048           0.248  
G09  23113059.956      -53139.847       -1436.482           0.250  
> 2023 05 18 00 01 10.7688020  0  7                     
G02  24280394.438      188330.068        2910.652           0.239  
G03  22341174.194      -27771.731        -499.452           0.255  
G04  23632607.888     -115794.283       -2131.299           0.244  
G05  22509688.712      113424.969        2030.807           0.255  
G06  20631324.497      -22306.279        -477.869           0.255  
G07  23415349.739      -59100.974       -1319.129           0.248  
G09  23113095.155      -53283.515       -1436.900           0.250  
> 2023 05 18 00 01 10.8688020  0  7                     
G02  24280319.465      188621.136        2911.381           0.239  
G03  22341186.045      -27821.675        -499.728           0.255  
G04  23632662.402     -116007.348       -2131.369           0.244  
G05  22509636.988      113628.066        2029.521           0.255  
G06  20631339.419      -22354.042        -477.544           0.255  
G07  23415383.606      -59232.911       -1319.263           0.248  
G09  23113126.279      -53427.176       -1436.310           0.251  
> 2023 05 18 00 01 10.9688020  0  7                     
G02  24280245.986      188912.207        2910.386           0.239  
G03  22341198.440      -27871.614        -499.686           0.255  
G04  23632716.611     -116220.427       -2130.447           0.244  
G05  22509585.052      113831.155        2029.711           0.255  
G06  20631350.764      -22401.819        -477.747           0.255  
G07  23415417.584      -59364.661       -1303.064           0.248  
G09  23113164.377      -53570.844       -1436.453           0.252  
> 2023 05 18 00 01 11.0688020  0  7                     
G02  24280170.530      189203.275        2910.084           0.239  
G03  22341212.107      -27921.563        -499.023           0.255  
G04  23632771.566     -116433.489       -2130.098           0.244  
G05  22509533.682      114034.249        2029.997           0.255  
G06  20631362.747      -22449.596        -478.261           0.255  
G07  23415451.303      -59496.785       -1320.037           0.248  
G09  23113199.520      -53714.502       -1436.490           0.251  
> 2023 05 18 00 01 11.1688020  0  7                     
G02  24280096.597      189494.337        2911.125           0.239  
G03  22341224.409      -27971.519        -498.728           0.255  
G04  23632825.644     -116646.566       -2130.737           0.244  
G05  22509481.832      114237.347        2029.831           0.255  
G06  20631375.519      -22497.361        -476.971           0.255  
G07  23415484.568      -59628.554       -1300.469           0.248  
G09  23113235.564      -53858.216       -1440.449           0.251  
> 2023 05 18 00 01 11.2688020  0  7                     
G02  24280021.275      189785.405        2911.318           0.239  
G03  22341237.333      -28021.795        -518.958           0.255  
G04  23632878.855     -116859.656       -2131.577           0.244  
G05  22509430.999      114440.445        1983.073           0.255  
G06  20631386.915      -22545.144        -477.856           0.255  
G07  23415518.387      -59760.380       -1288.542           0.248  
G09  23113273.837      -54001.876       -1438.627           0.251  
> 2023 05 18 00 01 11.3688020  0  7                     
G02  24279947.742      190076.462        2910.435           0.239  
G03  22341249.915      -28071.647        -530.497           0.255  
G04  23632934.169     -117072.728       -2131.815           0.244  
G05  22509378.444      114643.112        1930.166           0.255  
G06  20631399.391      -22592.935        -478.806           0.255  
G07  23415551.459      -59892.613       -1319.854           0.248  
G09  23113310.956      -54145.529       -1436.070           0.251  
> 2023 05 18 00 01 11.4688020  0  7                     
G02  24279873.940      190367.529        2910.775           0.239  
G03  22341262.824      -28121.488        -491.040           0.255  
G04  23632988.356     -117285.795       -2131.056           0.244  
G05  22509326.881      114846.611        2031.480           0.255  
G06  20631411.266      -22640.714        -477.628           0.255  
G07  23415585.087      -60024.577       -1321.250           0.248  
G09  23113347.033      -54288.972       -1374.445           0.251  
> 2023 05 18 00 01 11.5688020  0  7                     
G02  24279800.432      190658.599        2910.856           0.239  
G03  22341275.452      -28171.389        -498.950           0.255  
G04  23633042.628     -117498.869       -2130.833           0.244  
G05  22509275.035      115049.700        2032.187           0.255  
G06  20631423.838      -22688.503        -478.085           0.255  
G07  23415620.050      -60156.518       -1320.080           0.248  
G09  23113381.701      -54432.877       -1435.941           0.251  
> 2023 05 18 00 01 11.6688020  0  7                     
G02  24279725.574      190949.668        2911.327           0.239  
G03  22341288.617      -28221.371        -500.204           0.255  
G04  23633096.638     -117711.948       -2130.827           0.244  
G05  22509223.412      115252.785        2032.460           0.255  
G06  20631435.751      -22736.302        -477.806           0.255  
G07  23415653.187      -60288.477       -1320.285           0.248  
G09  23113419.998      -54576.546       -1436.982           0.251  
> 2023 05 18 00 01 11.7688020  0  7                     
G02  24279651.866      191240.735        2910.837           0.239  
G03  22341301.257      -28271.356        -500.147           0.255  
G04  23633150.754     -117925.027       -2131.196           0.244  
G05  22509171.878      115456.350        2111.221           0.255  
G06  20631447.825      -22784.097        -477.806           0.255  
G07  23415686.325      -60420.456       -1315.163           0.248  
G09  23113456.532      -54720.208       -1436.698           0.251  
> 2023 05 18 00 01 11.8688020  0  7                     
G02  24279577.509      191531.803        2910.954           0.239  
G03  22341313.985      -28321.337        -498.532           0.255  
G04  23633205.364     -118138.107       -2131.271           0.244  
G05  22509120.049      115658.937        2030.968           0.255  
G06  20631460.061      -22831.902        -478.561           0.255  
G07  23415720.030      -60552.388       -1318.743           0.248  
G09  23113493.029      -54863.887       -1436.688           0.251  
> 2023 05 18 00 01 11.9688020  0  7                     
G02  24279504.432      191823.062        2942.695           0.239  
G03  22341326.501      -28371.041        -464.587           0.255  
G04  23633258.927     -118351.185       -2130.942           0.244  
G05  22509068.303      115862.534        2052.041           0.255  
G06  20631472.554      -22879.709        -478.548           0.255  
G07  23415753.350      -60684.354       -1318.984           0.248  
G09  23113528.983      -55006.971       -1364.337           0.251  
> 2023 05 18 00 01 12.0688020  0  7                     
G02  24279428.549      192113.924        2909.475           0.239  
G03  22341340.040      -28421.475        -511.865           0.255  
G04  23633315.008     -118564.251       -2129.986           0.244  
G05  22509016.328      116065.071        2029.205           0.255  
G06  20631484.359      -22927.523        -478.235           0.255  
G07  23415786.758      -60816.338       -1296.713           0.248  
G09  23113565.830      -55151.227       -1436.061           0.252  
> 2023 05 18 00 01 12.1688020  0  7                     
G02  24279354.993      192404.995        2910.753           0.239  
G03  22341352.228      -28471.216        -476.982           0.255  
G04  23633368.625     -118777.333       -2130.485           0.244  
G05  22508964.170      116268.130        2028.815           0.255  
G06  20631496.156      -22975.330        -478.035           0.255  
G07  23415821.304      -60948.193       -1314.672           0.248  
G09  23113603.326      -55294.854       -1445.501           0.252  
> 2023 05 18 00 01 12.2688020  0  7                     
G02  24279280.281      192696.056        2910.561           0.239  
G03  22341365.088      -28521.326        -499.570           0.255  
G04  23633422.592     -118990.421       -2130.669           0.244  
G05  22508912.360      116471.639        2082.790           0.255  
G06  20631508.554      -23023.146        -478.227           0.255  
G07  23415854.428      -61080.208       -1305.518           0.248  
G09  23113639.231      -55438.591       -1437.084           0.252  
> 2023 05 18 00 01 12.3688020  0  7                     
G02  24279206.401      192987.120        2910.905           0.239  
G03  22341377.189      -28571.338        -500.615           0.255  
G04  23633476.536     -119203.508       -2130.564           0.244  
G05  22508860.752      116674.266        2030.187           0.255  
G06  20631521.178      -23070.958        -477.941           0.255  
G07  23415887.564      -61212.237       -1319.398           0.248  
G09  23113676.155      -55582.268       -1436.908           0.252  
> 2023 05 18 00 01 12.4688020  0  7                     
G02  24279132.508      193278.190        2911.448           0.239  
G03  22341389.662      -28621.367        -502.221           0.255  
G04  23633531.112     -119416.595       -2130.843           0.244  
G05  22508809.182      116877.331        2030.562           0.255  
G06  20631533.621      -23118.775        -477.374           0.255  
G07  23415921.106      -61344.214       -1319.408           0.248  
G09  23113713.005      -55725.947       -1436.439           0.251  
> 2023 05 18 00 01 12.5688020  0  7                     
G02  24279058.244      193569.280        2951.761           0.239  
G03  22341402.951      -28671.385        -500.749           0.255  
G04  23633585.765     -119629.677       -2130.468           0.244  
G05  22508757.746      117080.394        2031.146           0.255  
G06  20631546.204      -23166.600        -477.996           0.255  
G07  23415954.889      -61476.196       -1319.497           0.248  
G09  23113748.574      -55869.624       -1436.525           0.251  
> 2023 05 18 00 01 12.6688020  0  7                     
G02  24278983.565      193860.851        2974.642           0.239  
G03  22341415.699      -28721.206        -444.275           0.255  
G04  23633640.500     -119842.757       -2129.704           0.244  
G05  22508705.715      117282.814        1972.889           0.255  
G06  20631557.663      -23214.427        -478.195           0.255  
G07  23415989.192      -61608.183       -1320.380           0.248  
G09  23113787.295      -56013.714       -1486.748           0.251  
> 2023 05 18 00 01 12.7688020  0  7                     
G02  24278909.433      194151.379        2909.474           0.239  
G03  22341428.207      -28771.712        -547.010           0.255  
G04  23633694.380     -120055.847       -2130.388           0.244  
G05  22508654.024      117486.129        1940.198           0.255  
G06  20631569.571      -23262.269        -478.677           0.255  
G07  23416023.095      -61740.171       -1319.915           0.248  
G09  23113824.137      -56156.991       -1436.080           0.251  
> 2023 05 18 00 01 12.8688020  0  7                     
G02  24278835.355      194442.455        2911.464           0.239  
G03  22341441.565      -28821.566        -504.493           0.255  
G04  23633748.848     -120268.934       -2130.732           0.244  
G05  22508602.444      117689.576        2031.750           0.255  
G06  20631581.823      -23310.097        -478.306           0.255  
G07  23416055.399      -61872.160       -1320.071           0.248  
G09  23113860.270      -56300.681       -1437.723           0.251  
> 2023 05 18 00 01 12.9688020  0  7                     
G02  24278761.839      194733.521        2911.666           0.239  
G03  22341455.232      -28871.298        -440.985           0.255  
G04  23633803.108     -120482.028       -2131.348           0.244  
G05  22508550.624      117892.626        2031.280           0.255  
G06  20631593.718      -23357.945        -479.040           0.255  
G07  23416089.332      -62003.992       -1304.681           0.248  
G09  23113896.735      -56444.365       -1437.202           0.251  
> 2023 05 18 00 01 13.0688020  0  7                     
G02  24278687.825      195024.575        2910.455           0.239  
G03  22341467.220      -28921.526        -500.113           0.255  
G04  23633857.266     -120695.116       -2130.430           0.244  
G05  22508498.669      118095.685        2031.865           0.255  
G06  20631605.924      -23405.785        -478.712           0.255  
G07  23416123.201      -62136.147       -1319.526           0.248  
G09  23113932.627      -56588.040       -1435.975           0.252  
> 2023 05 18 00 01 13.1688020  0  7                     
G02  24278614.618      195315.646        2910.635           0.239  
G03  22341479.449      -28971.573        -500.933           0.255  
G04  23633910.437     -120908.209       -2130.787           0.244  
G05  22508447.343      118298.733        2032.507           0.255  
G06  20631618.195      -23453.628        -478.306           0.255  
G07  23416157.184      -62268.148       -1319.136           0.248  
G09  23113968.635      -56731.728       -1436.727           0.252  
> 2023 05 18 00 01 13.2688020  0  7                     
G02  24278539.316      195606.700        2911.286           0.239  
G03  22341492.327      -29021.625        -500.662           0.255  
G04  23633965.377     -121121.308       -2131.196           0.244  
G05  22508395.593      118501.779        2032.075           0.255  
G06  20631630.643      -23501.476        -478.084           0.255  
G07  23416191.408      -62400.146       -1319.725           0.248  
G09  23114006.292      -56875.412       -1436.812           0.252  
> 2023 05 18 00 01 13.3688020  0  7                     
G02  24278464.605      195897.762        2911.044           0.239  
G03  22341505.016      -29071.679        -500.589           0.255  
G04  23634019.768     -121334.393       -2130.533           0.244  
G05  22508343.739      118704.825        2031.435           0.255  
G06  20631643.032      -23549.331        -478.634           0.255  
G07  23416224.516      -62532.157       -1320.231           0.248  
G09  23114042.001      -57019.092       -1436.747           0.252  
> 2023 05 18 00 01 13.4688020  0  7                     
G02  24278389.933      196188.833        2911.196           0.239  
G03  22341518.348      -29121.743        -501.113           0.255  
G04  23634074.254     -121547.567       -2132.269           0.244  
G05  22508291.839      118908.315        2113.623           0.255  
G06  20631655.059      -23597.188        -478.516           0.255  
G07  23416258.060      -62664.159       -1319.900           0.248  
G09  23114078.557      -57162.857       -1445.749           0.252  
> 2023 05 18 00 01 13.5688020  0  7                     
G02  24278316.260      196479.896        2909.923           0.239  
G03  22341532.166      -29171.804        -501.409           0.255  
G04  23634128.606     -121760.595       -2131.003           0.244  
G05  22508239.979      119110.902        2030.802           0.255  
G06  20631666.797      -23645.044        -478.119           0.255  
G07  23416291.700      -62796.176       -1319.754           0.248  
G09  23114115.053      -57306.472       -1436.054           0.252  
> 2023 05 18 00 01 13.6688020  0  7                     
G02  24278242.805      196770.955        2911.724           0.239  
G03  22341542.725      -29221.863        -500.099           0.255  
G04  23634183.918     -121973.687       -2131.897           0.244  
G05  22508188.271      119313.930        2029.767           0.255  
G06  20631679.232      -23692.911        -478.826           0.255  
G07  23416325.054      -62928.555       -1340.520           0.248  
G09  23114152.533      -57449.781       -1423.015           0.252  
> 2023 05 18 00 01 13.7688020  0  7                     
G02  24278167.686      197062.019        2910.628           0.239  
G03  22341556.706      -29271.940        -500.213           0.255  
G04  23634237.614     -122186.782       -2131.175           0.244  
G05  22508136.697      119516.966        2029.363           0.255  
G06  20631691.022      -23740.774        -478.570           0.255  
G07  23416359.105      -63060.212       -1320.035           0.248  
G09  23114189.776      -57593.847       -1438.460           0.252  
> 2023 05 18 00 01 13.8688020  0  7                     
G02  24278094.649      197353.091        2911.471           0.239  
G03  22341569.436      -29322.016        -501.051           0.255  
G04  23634290.794     -122399.882       -2130.790           0.244  
G05  22508084.851      119720.002        2029.817           0.255  
G06  20631703.137      -23788.645        -478.441           0.255  
G07  23416392.706      -63192.229       -1320.924           0.248  
G09  23114225.704      -57737.395       -1419.982           0.251  
> 2023 05 18 00 01 13.9688020  0  7                     
G02  24278019.043      197644.141        2910.201           0.239  
G03  22341581.404      -29372.103        -501.080           0.255  
G04  23634346.062     -122612.976       -2130.277           0.244  
G05  22508033.226      119923.036        2029.407           0.255  
G06  20631715.715      -23836.513        -478.486           0.255  
G07  23416425.936      -63324.255       -1320.970           0.248  
G09  23114264.001      -57881.225       -1436.658           0.251  
> 2023 05 18 00 01 14.0688020  0  7                     
G02  24277944.634      197935.205        2910.476           0.239  
G03  22341596.493      -29422.197        -501.156           0.255  
G04  23634400.764     -122826.085       -2130.825           0.244  
G05  22507981.745      120126.059        2028.760           0.255  
G06  20631727.887      -23884.384        -478.149           0.255  
G07  23416460.239      -63456.279       -1320.879           0.248  
G09  23114298.921      -58024.919       -1437.684           0.252  
> 2023 05 18 00 01 14.1688020  0  7                     
G02  24277872.592      198226.280        2910.414           0.239  
G03  22341608.248      -29472.287        -502.057           0.255  
G04  23634452.939     -123039.192       -2129.747           0.244  
G05  22507929.947      120329.075        2028.429           0.255  
G06  20631740.725      -23932.271        -478.627           0.255  
G07  23416493.306      -63588.307       -1320.863           0.248  
G09  23114335.203      -58168.602       -1436.583           0.252  
> 2023 05 18 00 01 14.2688020  0  7                     
G02  24277797.752      198517.542        2938.666           0.239  
G03  22341619.241      -29522.374        -501.428           0.255  
G04  23634508.017     -123252.289       -2130.552           0.244  
G05  22507877.861      120532.534        2031.928           0.255  
G06  20631753.543      -23980.158        -478.542           0.255  
G07  23416527.396      -63720.333       -1320.490           0.248  
G09  23114371.486      -58312.513       -1467.443           0.251  
> 2023 05 18 00 01 14.3688020  0  7                     
G02  24277722.960      198808.436        2912.080           0.239  
G03  22341632.707      -29572.645        -532.426           0.255  
G04  23634563.111     -123465.273       -2109.688           0.244  
G05  22507826.146      120735.337        1999.704           0.255  
G06  20631765.300      -24028.042        -478.462           0.255  
G07  23416560.620      -63852.369       -1320.546           0.248  
G09  23114408.727      -58455.502       -1424.855           0.252  
> 2023 05 18 00 01 14.4688020  0  7                     
G02  24277648.964      199099.451        2910.538           0.239  
G03  22341645.556      -29622.587        -501.345           0.255  
G04  23634617.300     -123678.499       -2131.029           0.244  
G05  22507774.676      120938.481        2101.612           0.255  
G06  20631776.744      -24075.930        -478.822           0.255  
G07  23416594.521      -63984.404       -1320.539           0.248  
G09  23114445.904      -58599.476       -1436.460           0.251  
> 2023 05 18 00 01 14.5688020  0  7                     
G02  24277574.730      199390.512        2911.403           0.239  
G03  22341657.793      -29672.695        -501.303           0.255  
G04  23634671.478     -123891.607       -2131.481           0.244  
G05  22507722.465      121141.537        2107.561           0.255  
G06  20631789.164      -24123.825        -478.750           0.255  
G07  23416628.056      -64116.439       -1319.880           0.248  
G09  23114482.033      -58742.906       -1332.095           0.251  
> 2023 05 18 00 01 14.6688020  0  7                     
G02  24277500.511      199681.571        2910.842           0.239  
G03  22341671.843      -29722.681        -500.064           0.255  
G04  23634726.211     -124104.721       -2131.839           0.244  
G05  22507670.984      121344.175        2029.037           0.255  
G06  20631801.148      -24171.718        -478.716           0.255  
G07  23416661.895      -64248.250       -1304.472           0.248  
G09  23114518.112      -58887.086       -1437.603           0.251  
> 2023 05 18 00 01 14.7688020  0  7                     
G02  24277426.085      199972.631        2910.594           0.239  
G03  22341680.894      -29772.915        -501.195           0.255  
G04  23634780.540     -124317.827       -2131.309           0.244  
G05  22507619.613      121547.189        2029.301           0.255  
G06  20631815.068      -24219.626        -479.737           0.255  
G07  23416695.552      -64380.523       -1320.456           0.248  
G09  23114554.533      -59030.764       -1435.940           0.251  
> 2023 05 18 00 01 14.8688020  0  7                     
G02  24277353.045      200263.681        2910.115           0.239  
G03  22341694.782      -29823.045        -502.515           0.255  
G04  23634834.729     -124530.934       -2129.804           0.244  
G05  22507567.572      121750.197        2029.056           0.255  
G06  20631827.321      -24267.525        -478.385           0.255  
G07  23416728.763      -64512.574       -1320.430           0.248  
G09  23114590.159      -59174.467       -1436.693           0.252  
> 2023 05 18 00 01 14.9688020  0  7                     
G02  24277278.854      200554.750        2910.289           0.239  
G03  22341708.980      -29873.372        -544.212           0.255  
G04  23634888.021     -124744.050       -2131.111           0.244  
G05  22507516.057      121953.732        2100.028           0.255  
G06  20631838.611      -24315.431        -478.873           0.255  
G07  23416762.586      -64644.628       -1320.756           0.248  
G09  23114627.901      -59318.281       -1470.363           0.252  
> 2023 05 18 00 01 15.0688020  0  7                     
G02  24277203.319      200845.952        2914.766           0.239  
G03  22341721.793      -29923.395        -504.711           0.255  
G04  23634942.984     -124957.159       -2131.465           0.244  
G05  22507464.586      122156.736        2085.224           0.255  
G06  20631850.817      -24363.348        -479.291           0.255  
G07  23416796.766      -64776.802       -1332.654           0.248  
G09  23114664.246      -59461.301       -1396.954           0.252  
> 2023 05 18 00 01 15.1688020  0  7                     
G02  24277129.828      201136.871        2911.307           0.239  
G03  22341735.078      -29973.436        -501.581           0.255  
G04  23634998.224     -125170.269       -2131.500           0.244  
G05  22507412.715      122359.615        2077.861           0.255  
G06  20631862.748      -24411.258        -478.853           0.255  
G07  23416830.614      -64908.739       -1320.385           0.248  
G09  23114700.209      -59605.761       -1492.259           0.251  
> 2023 05 18 00 01 15.2688020  0  7                     
G02  24277054.742      201427.928        2910.371           0.240  
G03  22341748.073      -30023.582        -502.501           0.255  
G04  23635052.466     -125383.384       -2130.943           0.244  
G05  22507361.282      122562.228        2029.439           0.255  
G06  20631874.528      -24459.176        -478.582           0.255  
G07  23416863.106      -65040.802       -1321.127           0.248  
G09  23114737.661      -59749.440       -1401.216           0.251  
> 2023 05 18 00 01 15.3688020  0  7                     
G02  24276979.976      201718.983        2910.259           0.239  
G03  22341759.775      -30073.294        -436.337           0.255  
G04  23635107.335     -125596.497       -2130.701           0.244  
G05  22507309.252      122765.620        2080.057           0.255  
G06  20631887.282      -24507.096        -479.429           0.255  
G07  23416897.022      -65172.851       -1322.757           0.248  
G09  23114774.849      -59892.692       -1439.129           0.251  
> 2023 05 18 00 01 15.4688020  0  7                     
G02  24276908.131      202010.036        2910.239           0.239  
G03  22341773.843      -30123.861        -502.166           0.255  
G04  23635159.947     -125809.612       -2131.007           0.244  
G05  22507257.736      122968.644        2070.809           0.255  
G06  20631898.533      -24555.029        -478.736           0.255  
G07  23416930.732      -65304.931       -1321.008           0.248  
G09  23114812.842      -60036.710       -1470.401           0.252  
> 2023 05 18 00 01 15.5688020  0  7                     
G02  24276834.033      202301.107        2910.554           0.239  
G03  22341785.996      -30174.014        -501.062           0.255  
G04  23635214.547     -126022.730       -2131.028           0.244  
G05  22507205.196      123171.221        2028.940           0.255  
G06  20631911.228      -24602.950        -479.247           0.255  
G07  23416964.677      -65436.998       -1320.883           0.248  
G09  23114847.856      -60180.364       -1437.185           0.252  
> 2023 05 18 00 01 15.6688020  0  7                     
G02  24276758.690      202592.158        2910.397           0.239  
G03  22341798.650      -30224.176        -501.427           0.255  
G04  23635268.105     -126235.847       -2130.770           0.244  
G05  22507154.039      123374.213        2028.834           0.255  
G06  20631924.712      -24650.881        -479.292           0.255  
G07  23416998.316      -65569.074       -1320.965           0.248  
G09  23114881.631      -60324.064       -1436.980           0.252  
> 2023 05 18 00 01 15.7688020  0  7                     
G02  24276684.351      202883.310        2930.472           0.239  
G03  22341812.066      -30274.272        -503.074           0.255  
G04  23635323.437     -126448.965       -2132.086           0.244  
G05  22507101.929      123577.199        1970.718           0.255  
G06  20631936.594      -24698.821        -479.352           0.255  
G07  23417032.787      -65701.053       -1308.241           0.248  
G09  23114918.866      -60467.487       -1446.036           0.252  
> 2023 05 18 00 01 15.8688020  0  7                     
G02  24276611.201      203174.272        2909.648           0.239  
G03  22341824.275      -30324.504        -501.275           0.255  
G04  23635377.581     -126662.095       -2131.600           0.244  
G05  22507050.857      123780.196        2028.993           0.255  
G06  20631948.660      -24746.757        -479.824           0.255  
G07  23417065.635      -65833.228       -1320.999           0.248  
G09  23114957.085      -60611.465       -1436.411           0.252  
> 2023 05 18 00 01 15.9688020  0  7                     
G02  24276536.689      203465.897        3008.462           0.239  
G03  22341837.292      -30374.486        -497.602           0.255  
G04  23635431.535     -126875.260       -2176.700           0.244  
G05  22506999.161      123983.358        2016.665           0.255  
G06  20631960.877      -24794.692        -479.635           0.255  
G07  23417099.427      -65965.285       -1316.229           0.248  
G09  23114993.412      -60755.019       -1423.241           0.251  
> 2023 05 18 00 01 16.0688020  0  7                     
G02  24276462.195      203756.400        2910.429           0.239  
G03  22341850.036      -30424.855        -500.953           0.255  
G04  23635485.987     -127088.333       -2131.705           0.244  
G05  22506946.864      124186.162        2029.283           0.255  
G06  20631972.863      -24842.643        -479.413           0.255  
G07  23417133.177      -66097.397       -1321.590           0.248  
G09  23115030.397      -60898.874       -1437.324           0.252  
> 2023 05 18 00 01 16.1688020  0  7                     
G02  24276388.106      204047.462        2910.580           0.239  
G03  22341862.676      -30475.040        -501.183           0.255  
G04  23635540.618     -127301.457       -2131.071           0.244  
G05  22506894.946      124389.149        2028.498           0.255  
G06  20631984.664      -24890.590        -479.682           0.255  
G07  23417166.731      -66229.478       -1320.310           0.248  
G09  23115067.905      -61042.588       -1436.773           0.251  
> 2023 05 18 00 01 16.2688020  0  7                     
G02  24276312.932      204338.505        2909.858           0.239  
G03  22341875.142      -30525.225        -501.596           0.255  
G04  23635595.653     -127514.584       -2131.816           0.244  
G05  22506843.331      124592.124        2027.868           0.255  
G06  20631997.354      -24938.538        -479.331           0.255  
G07  23417201.010      -66361.566       -1320.720           0.248  
G09  23115103.976      -61186.300       -1437.759           0.251  
> 2023 05 18 00 01 16.3688020  0  7                     
G02  24276238.971      204629.588        2912.122           0.239  
G03  22341888.883      -30575.414        -501.641           0.255  
G04  23635650.076     -127727.720       -2131.476           0.244  
G05  22506791.909      124795.103        2028.270           0.255  
G06  20632008.260      -24986.496        -479.754           0.255  
G07  23417234.636      -66493.656       -1320.541           0.248  
G09  23115143.115      -61329.999       -1436.934           0.252  
> 2023 05 18 00 01 16.4688020  0  7                     
G02  24276164.958      204920.626        2910.296           0.239  
G03  22341902.298      -30625.606        -501.412           0.255  
G04  23635704.662     -127940.844       -2131.016           0.244  
G05  22506739.851      124998.084        2027.805           0.255  
G06  20632020.524      -25034.452        -479.278           0.255  
G07  23417268.372      -66625.751       -1320.922           0.248  
G09  23115178.271      -61473.710       -1437.730           0.252  
> 2023 05 18 00 01 16.5688020  0  7                     
G02  24276091.175      205211.684        2904.797           0.239  
G03  22341912.317      -30675.746        -475.183           0.255  
G04  23635758.609     -128153.979       -2131.609           0.244  
G05  22506687.989      125201.630        2023.291           0.255  
G06  20632034.515      -25082.412        -479.780           0.255  
G07  23417301.255      -66757.636       -1282.182           0.248  
G09  23115213.624      -61618.036       -1511.543           0.251  
> 2023 05 18 00 01 16.6688020  0  7                     
G02  24276017.866      205502.744        2909.075           0.240  
G03  22341927.525      -30726.015        -502.387           0.255  
G04  23635812.285     -128367.101       -2129.737           0.244  
G05  22506636.356      125404.036        2028.324           0.255  
G06  20632045.343      -25130.380        -479.410           0.255  
G07  23417334.823      -66889.947       -1320.843           0.248  
G09  23115250.836      -61761.132       -1437.909           0.252  
> 2023 05 18 00 01 16.7688020  0  7                     
G02  24275942.951      205793.807        2911.526           0.239  
G03  22341939.263      -30776.221        -502.337           0.255  
G04  23635865.670     -128580.237       -2130.746           0.244  
G05  22506584.544      125607.005        2028.975           0.255  
G06  20632058.382      -25178.349        -480.008           0.255  
G07  23417368.987      -67022.051       -1320.801           0.248  
G09  23115286.783      -61904.833       -1435.797           0.251  
> 2023 05 18 00 01 16.8688020  0  7                     
G02  24275869.650      206084.870        2910.449           0.239  
G03  22341951.970      -30826.435        -502.113           0.255  
G04  23635920.124     -128793.373       -2131.354           0.244  
G05  22506532.781      125809.971        2028.904           0.255  
G06  20632070.716      -25226.323        -479.838           0.255  
G07  23417403.327      -67154.157       -1321.182           0.248  
G09  23115322.665      -62048.622       -1450.581           0.251  
> 2023 05 18 00 01 16.9688020  0  7                     
G02  24275794.357      206375.935        2910.542           0.239  
G03  22341964.782      -30876.648        -502.489           0.255  
G04  23635974.875     -129006.510       -2131.878           0.244  
G05  22506481.333      126012.937        2029.838           0.255  
G06  20632082.421      -25274.295        -479.075           0.255  
G07  23417436.287      -67286.270       -1321.042           0.248  
G09  23115360.929      -62192.274       -1438.713           0.252  
> 2023 05 18 00 01 17.0688020  0  7                     
G02  24275719.333      206666.982        2910.260           0.239  
G03  22341977.894      -30926.880        -503.672           0.255  
G04  23636029.472     -129219.640       -2131.092           0.244  
G05  22506430.030      126215.901        2030.065           0.255  
G06  20632094.562      -25322.272        -478.893           0.255  
G07  23417469.783      -67418.379       -1321.375           0.248  
G09  23115397.466      -62335.976       -1437.209           0.250  
> 2023 05 18 00 01 17.1688020  0  7                     
G02  24275644.877      206958.041        2910.892           0.239  
G03  22341992.259      -30977.104        -501.810           0.255  
G04  23636085.010     -129432.786       -2130.997           0.244  
G05  22506378.610      126418.864        2030.271           0.255  
G06  20632105.959      -25370.247        -480.277           0.255  
G07  23417503.195      -67550.492       -1321.215           0.248  
G09  23115435.062      -62479.706       -1437.489           0.250  
> 2023 05 18 00 01 17.2688020  0  7                     
G02  24275571.238      207249.096        2910.435           0.239  
G03  22342003.900      -31027.334        -502.637           0.255  
G04  23636138.416     -129645.911       -2130.975           0.244  
G05  22506326.666      126621.824        2030.204           0.255  
G06  20632119.000      -25418.242        -479.423           0.255  
G07  23417537.021      -67682.609       -1321.219           0.248  
G09  23115469.987      -62623.401       -1437.612           0.251  
> 2023 05 18 00 01 17.3688020  0  7                     
G02  24275498.543      207540.160        2912.744           0.239  
G03  22342015.987      -31077.566        -503.155           0.255  
G04  23636191.654     -129859.047       -2132.546           0.244  
G05  22506274.889      126824.102        1929.261           0.255  
G06  20632130.958      -25466.231        -479.663           0.255  
G07  23417570.426      -67814.700       -1312.775           0.248  
G09  23115507.954      -62767.122       -1435.599           0.251  
> 2023 05 18 00 01 17.4688020  0  7                     
G02  24275423.216      207831.221        2910.740           0.239  
G03  22342028.968      -31127.796        -502.372           0.255  
G04  23636246.755     -130072.198       -2131.340           0.244  
G05  22506222.718      127027.736        2031.193           0.255  
G06  20632142.592      -25514.230        -480.274           0.255  
G07  23417604.464      -67946.858       -1321.439           0.248  
G09  23115547.683      -62910.824       -1436.867           0.251  
> 2023 05 18 00 01 17.5688020  0  7                     
G02  24275348.590      208122.269        2911.109           0.239  
G03  22342041.999      -31178.040        -502.667           0.255  
G04  23636301.493     -130285.340       -2131.937           0.244  
G05  22506171.094      127230.685        2030.984           0.255  
G06  20632156.041      -25562.228        -479.963           0.255  
G07  23417638.522      -68078.988       -1321.242           0.248  
G09  23115581.110      -63054.536       -1436.524           0.251  
> 2023 05 18 00 01 17.6688020  0  7                     
G02  24275275.209      208413.333        2911.090           0.239  
G03  22342054.703      -31228.297        -502.585           0.255  
G04  23636355.159     -130498.483       -2131.250           0.244  
G05  22506119.110      127433.633        2030.728           0.255  
G06  20632168.828      -25610.223        -479.938           0.255  
G07  23417671.915      -68211.117       -1321.312           0.248  
G09  23115615.692      -63198.251       -1436.496           0.252  
> 2023 05 18 00 01 17.7688020  0  7                     
G02  24275201.600      208704.386        2910.879           0.239  
G03  22342070.302      -31278.532        -503.062           0.255  
G04  23636409.467     -130711.615       -2130.996           0.244  
G05  22506067.633      127636.578        2030.511           0.255  
G06  20632179.149      -25658.237        -479.861           0.255  
G07  23417705.113      -68343.252       -1321.596           0.248  
G09  23115655.515      -63341.115       -1346.719           0.252  
> 2023 05 18 00 01 17.8688020  0  7                     
G02  24275125.945      208995.448        2910.514           0.239  
G03  22342082.754      -31328.796        -501.901           0.255  
G04  23636464.662     -130924.761       -2130.329           0.244  
G05  22506015.688      127839.518        2030.081           0.255  
G06  20632190.972      -25706.233        -480.134           0.255  
G07  23417738.743      -68475.388       -1321.335           0.248  
G09  23115691.811      -63485.692       -1437.565           0.251  
> 2023 05 18 00 01 17.9688020  0  7                     
G02  24275052.179      209286.497        2909.518           0.239  
G03  22342093.738      -31379.058        -502.221           0.255  
G04  23636519.102     -131137.907       -2131.897           0.244  
G05  22505963.619      128042.457        2029.920           0.255  
G06  20632205.263      -25754.244        -480.316           0.255  
G07  23417773.106      -68607.528       -1321.956           0.248  
G09  23115725.575      -63629.410       -1437.241           0.251  
> 2023 05 18 00 01 18.0688020  0  7                     
G02  24274977.887      209577.566        2910.173           0.239  
G03  22342106.034      -31429.329        -501.977           0.255  
G04  23636573.490     -131351.046       -2131.382           0.244  
G05  22505912.614      128245.396        2029.408           0.255  
G06  20632217.155      -25802.258        -480.276           0.255  
G07  23417805.930      -68739.671       -1322.016           0.248  
G09  23115762.336      -63773.116       -1437.421           0.251  
> 2023 05 18 00 01 18.1688020  0  7                     
G02  24274904.317      209868.746        2933.222           0.239  
G03  22342118.153      -31479.601        -503.077           0.255  
G04  23636627.614     -131564.187       -2131.239           0.244  
G05  22505861.192      128448.331        2028.534           0.255  
G06  20632229.360      -25850.271        -479.486           0.255  
G07  23417839.894      -68871.811       -1322.334           0.248  
G09  23115799.914      -63917.170       -1506.311           0.250  
> 2023 05 18 00 01 18.2688020  0  7                     
G02  24274830.188      210159.664        2910.464           0.239  
G03  22342129.447      -31529.869        -503.175           0.255  
G04  23636681.714     -131777.335       -2131.043           0.244  
G05  22505809.515      128651.267        2027.923           0.255  
G06  20632243.139      -25898.295        -479.783           0.255  
G07  23417873.632      -69003.962       -1321.240           0.248  
G09  23115835.694      -64060.564       -1437.156           0.251  
> 2023 05 18 00 01 18.3688020  0  7                     
G02  24274756.343      210450.725        2910.585           0.239  
G03  22342144.094      -31580.169        -502.481           0.255  
G04  23636735.680     -131990.488       -2131.414           0.244  
G05  22505757.335      128854.202        2027.810           0.255  
G06  20632254.636      -25946.310        -480.403           0.255  
G07  23417907.200      -69136.115       -1321.395           0.248  
G09  23115872.760      -64204.292       -1437.139           0.251  
> 2023 05 18 00 01 18.4688020  0  7                     
G02  24274682.362      210741.786        2910.916           0.239  
G03  22342157.006      -31630.435        -501.027           0.255  
G04  23636789.689     -132203.637       -2131.754           0.244  
G05  22505705.079      129057.133        2027.574           0.255  
G06  20632266.346      -25994.351        -481.659           0.255  
G07  23417940.787      -69268.286       -1315.704           0.248  
G09  23115910.028      -64348.526       -1532.128           0.251  
> 2023 05 18 00 01 18.5688020  0  7                     
G02  24274607.740      211032.852        2910.569           0.239  
G03  22342169.817      -31680.726        -502.369           0.255  
G04  23636844.092     -132416.783       -2131.581           0.244  
G05  22505653.723      129260.066        2027.759           0.255  
G06  20632278.409      -26042.374        -480.192           0.255  
G07  23417974.685      -69400.422       -1321.477           0.248  
G09  23115946.569      -64491.737       -1437.774           0.252  
> 2023 05 18 00 01 18.6688020  0  7                     
G02  24274533.270      211323.902        2910.126           0.239  
G03  22342182.276      -31731.026        -503.607           0.255  
G04  23636898.062     -132629.932       -2131.214           0.244  
G05  22505602.505      129463.001        2028.475           0.255  
G06  20632290.336      -26090.413        -480.730           0.255  
G07  23418008.362      -69532.581       -1321.738           0.248  
G09  23115984.626      -64635.441       -1435.398           0.252  
> 2023 05 18 00 01 18.7688020  0  7                     
G02  24274459.549      211614.958        2909.727           0.239  
G03  22342195.298      -31781.320        -503.307           0.255  
G04  23636951.859     -132843.082       -2131.121           0.244  
G05  22505550.678      129665.927        2029.076           0.255  
G06  20632302.869      -26138.444        -480.066           0.255  
G07  23418041.805      -69664.740       -1321.879           0.248  
G09  23116020.924      -64779.199       -1437.920           0.251  
> 2023 05 18 00 01 18.8688020  0  7                     
G02  24274385.284      211906.027        2911.349           0.239  
G03  22342207.433      -31831.645        -504.521           0.255  
G04  23637006.567     -133056.240       -2131.926           0.244  
G05  22505498.797      129868.856        2029.909           0.255  
G06  20632316.307      -26186.477        -479.582           0.255  
G07  23418075.651      -69796.910       -1322.125           0.248  
G09  23116054.111      -64922.916       -1437.198           0.252  
> 2023 05 18 00 01 18.9688020  0  7                     
G02  24274310.856      212197.075        2910.047           0.239  
G03  22342223.053      -31882.204        -499.768           0.255  
G04  23637061.129     -133269.393       -2131.246           0.244  
G05  22505447.266      130071.776        2030.299           0.255  
G06  20632326.851      -26234.526        -480.316           0.255  
G07  23418108.785      -69929.072       -1321.597           0.248  
G09  23116092.382      -65066.155       -1378.928           0.252  
> 2023 05 18 00 01 19.0688020  0  7                     
G02  24274237.217      212488.129        2929.943           0.239  
G03  22342234.629      -31932.243        -502.182           0.255  
G04  23637115.608     -133482.548       -2131.267           0.244  
G05  22505395.619      130274.690        2030.592           0.255  
G06  20632339.702      -26282.577        -480.481           0.255  
G07  23418142.525      -70061.243       -1321.988           0.248  
G09  23116128.991      -65210.375       -1438.385           0.252  
> 2023 05 18 00 01 19.1688020  0  7                     
G02  24274162.836      212779.106        2883.112           0.239  
G03  22342246.860      -31982.562        -503.071           0.255  
G04  23637170.176     -133695.696       -2131.149           0.244  
G05  22505343.262      130477.604        2030.153           0.255  
G06  20632352.107      -26330.630        -479.950           0.255  
G07  23418176.892      -70193.416       -1321.663           0.248  
G09  23116164.883      -65354.100       -1439.159           0.251  
> 2023 05 18 00 01 19.2688020  0  7                     
G02  24274089.042      213070.255        2909.849           0.239  
G03  22342260.034      -32032.675        -483.556           0.255  
G04  23637224.220     -133908.856       -2131.361           0.244  
G05  22505291.132      130680.833        2032.601           0.255  
G06  20632363.620      -26378.687        -480.286           0.255  
G07  23418209.906      -70325.596       -1321.690           0.248  
G09  23116203.392      -65497.812       -1438.626           0.252  
> 2023 05 18 00 01 19.3688020  0  7                     
G02  24274014.494      213361.314        2910.029           0.239  
G03  22342271.533      -32083.206        -504.323           0.255  
G04  23637278.063     -134122.015       -2131.362           0.244  
G05  22505239.750      130883.417        2029.647           0.255  
G06  20632376.933      -26426.741        -479.662           0.255  
G07  23418243.745      -70457.771       -1321.568           0.248  
G09  23116239.957      -65641.558       -1438.205           0.252  
> 2023 05 18 00 01 19.4688020  0  7                     
G02  24273939.754      213652.374        2910.683           0.239  
G03  22342284.779      -32133.550        -504.376           0.255  
G04  23637332.724     -134335.176       -2131.793           0.244  
G05  22505188.435      131086.330        2029.058           0.255  
G06  20632389.005      -26474.791        -479.026           0.255  
G07  23418277.716      -70589.960       -1322.254           0.248  
G09  23116276.233      -65785.291       -1439.866           0.252  
> 2023 05 18 00 01 19.5688020  0  7                     
G02  24273866.092      213943.440        2911.152           0.239  
G03  22342296.776      -32183.874        -501.608           0.255  
G04  23637387.580     -134548.337       -2131.917           0.244  
G05  22505136.496      131289.232        2028.071           0.255  
G06  20632401.342      -26522.869        -481.395           0.255  
G07  23418311.555      -70722.141       -1322.214           0.248  
G09  23116314.899      -65929.006       -1437.849           0.252  
> 2023 05 18 00 01 19.6688020  0  7                     
G02  24273791.886      214234.493        2910.496           0.239  
G03  22342310.179      -32234.203        -503.075           0.255  
G04  23637441.756     -134761.497       -2131.607           0.244  
G05  22505085.501      131492.139        2027.449           0.255  
G06  20632413.299      -26570.932        -480.775           0.255  
G07  23418345.532      -70854.333       -1322.360           0.248  
G09  23116349.881      -66072.754       -1436.815           0.251  
> 2023 05 18 00 01 19.7688020  0  7                     
G02  24273717.832      214525.548        2910.568           0.239  
G03  22342323.602      -32284.550        -503.624           0.255  
G04  23637495.911     -134974.651       -2131.385           0.244  
G05  22505033.605      131695.048        2027.674           0.255  
G06  20632424.543      -26619.004        -480.253           0.255  
G07  23418379.266      -70986.517       -1321.932           0.248  
G09  23116386.977      -66216.475       -1437.828           0.251  
> 2023 05 18 00 01 19.8688020  0  7                     
G02  24273643.972      214816.609        2910.017           0.239  
G03  22342336.791      -32334.896        -503.541           0.255  
G04  23637549.677     -135187.816       -2131.442           0.244  
G05  22504981.763      131897.458        2010.028           0.255  
G06  20632437.612      -26667.085        -481.029           0.255  
G07  23418412.632      -71118.714       -1321.645           0.248  
G09  23116423.126      -66360.211       -1436.948           0.251  
> 2023 05 18 00 01 19.9688020  0  7                     
G02  24273569.920      215107.668        2909.746           0.239  
G03  22342348.897      -32385.853        -502.953           0.255  
G04  23637604.159     -135400.980       -2131.029           0.244  
G05  22504929.910      132100.193        1963.849           0.255  
G06  20632449.822      -26715.161        -480.612           0.255  
G07  23418446.105      -71250.986       -1305.628           0.248  
G09  23116459.813      -66504.218       -1489.121           0.251  
> 2023 05 18 00 01 20.0688020  0  7                     
G02  24273495.233      215398.731        2910.752           0.239  
G03  22342362.588      -32435.614        -502.477           0.255  
G04  23637658.509     -135614.148       -2131.765           0.244  
G05  22504878.238      132303.186        1931.596           0.255  
G06  20632461.810      -26763.238        -480.603           0.255  
G07  23418479.713      -71383.089       -1318.697           0.248  
G09  23116497.459      -66647.302       -1355.299           0.251  
> 2023 05 18 00 01 20.1688020  0  7                     
G02  24273421.618      215689.799        2911.718           0.239  
G03  22342375.798      -32485.957        -502.074           0.255  
G04  23637713.053     -135827.314       -2131.872           0.244  
G05  22504826.524      132506.641        2030.377           0.255  
G06  20632474.009      -26811.338        -482.226           0.255  
G07  23418513.590      -71515.323       -1322.510           0.248  
G09  23116533.467      -66791.409       -1437.474           0.251  
> 2023 05 18 00 01 20.2688020  0  7                     
G02  24273347.093      215980.852        2911.413           0.239  
G03  22342387.519      -32536.331        -504.241           0.255  
G04  23637767.121     -136040.480       -2131.938           0.244  
G05  22504774.764      132709.530        2029.605           0.255  
G06  20632486.524      -26859.424        -481.091           0.255  
G07  23418547.541      -71647.523       -1321.803           0.248  
G09  23116568.833      -66935.141       -1437.228           0.251  
> 2023 05 18 00 01 20.3688020  0  7                     
G02  24273273.119      216271.911        2911.678           0.239  
G03  22342400.404      -32586.704        -503.965           0.255  
G04  23637821.944     -136253.636       -2131.347           0.244  
G05  22504722.983      132912.407        2029.066           0.255  
G06  20632498.232      -26907.510        -480.689           0.255  
G07  23418581.268      -71779.738       -1322.946           0.248  
G09  23116607.998      -67078.882       -1437.631           0.251  
> 2023 05 18 00 01 20.4688020  0  7                     
G02  24273198.092      216562.950        2909.493           0.239  
G03  22342413.542      -32637.081        -504.720           0.255  
G04  23637876.752     -136466.809       -2131.225           0.244  
G05  22504671.470      133115.295        2027.990           0.255  
G06  20632511.308      -26955.605        -480.684           0.255  
G07  23418615.107      -71911.946       -1322.141           0.248  
G09  23116641.581      -67222.620       -1437.329           0.251  
> 2023 05 18 00 01 20.5688020  0  7                     
G02  24273123.519      216854.005        2909.515           0.239  
G03  22342426.700      -32687.469        -503.787           0.255  
G04  23637930.775     -136679.981       -2131.424           0.244  
G05  22504619.996      133318.184        2027.195           0.255  
G06  20632523.616      -27003.699        -480.574           0.255  
G07  23418649.112      -72044.161       -1322.004           0.248  
G09  23116677.580      -67366.352       -1436.609           0.251  
> 2023 05 18 00 01 20.6688020  0  7                     
G02  24273050.317      217145.061        2910.104           0.239  
G03  22342440.734      -32737.845        -502.449           0.255  
G04  23637985.365     -136893.012       -2107.036           0.244  
G05  22504568.194      133521.056        2027.396           0.255  
G06  20632534.971      -27051.812        -481.912           0.255  
G07  23418681.919      -72176.279       -1284.846           0.248  
G09  23116715.342      -67510.103       -1404.017           0.251  
> 2023 05 18 00 01 20.7688020  0  7                     
G02  24272976.412      217435.807        2888.198           0.239  
G03  22342452.525      -32788.227        -503.466           0.255  
G04  23638039.400     -137106.328       -2132.083           0.244  
G05  22504516.479      133723.947        2028.699           0.255  
G06  20632547.527      -27099.923        -481.134           0.255  
G07  23418715.795      -72308.727       -1337.898           0.248  
G09  23116752.495      -67653.878       -1408.092           0.251  
> 2023 05 18 00 01 20.8688020  0  7                     
G02  24272902.005      217727.168        2910.993           0.239  
G03  22342464.934      -32838.626        -504.424           0.255  
G04  23638093.313     -137319.492       -2132.141           0.244  
G05  22504464.584      133926.829        2029.802           0.255  
G06  20632559.885      -27148.028        -481.207           0.255  
G07  23418749.717      -72440.817       -1322.339           0.248  
G09  23116789.746      -67797.580       -1444.673           0.252  
> 2023 05 18 00 01 20.9688020  0  7                     
G02  24272827.721      218018.215        2910.216           0.239  
G03  22342477.900      -32889.028        -504.551           0.255  
G04  23638147.984     -137532.669       -2131.197           0.244  
G05  22504412.969      134129.334        1929.999           0.255  
G06  20632571.903      -27196.140        -481.107           0.255  
G07  23418783.189      -72572.956       -1304.891           0.248  
G09  23116825.258      -67941.305       -1437.040           0.252  
> 2023 05 18 00 01 21.0688020  0  7                     
G02  24272753.082      218309.268        2910.384           0.239  
G03  22342489.872      -32939.424        -504.033           0.255  
G04  23638202.757     -137745.855       -2131.804           0.244  
G05  22504361.180      134332.672        2003.657           0.255  
G06  20632584.625      -27244.258        -481.397           0.255  
G07  23418817.124      -72705.238       -1309.734           0.248  
G09  23116862.804      -68085.039       -1436.640           0.251  
> 2023 05 18 00 01 21.1688020  0  7                     
G02  24272679.163      218600.328        2910.830           0.239  
G03  22342504.246      -32989.831        -503.090           0.255  
G04  23638256.920     -137959.030       -2131.378           0.244  
G05  22504309.638      134535.436        2028.725           0.255  
G06  20632596.709      -27292.376        -481.807           0.255  
G07  23418850.689      -72837.504       -1322.137           0.248  
G09  23116899.069      -68228.786       -1436.192           0.251  
> 2023 05 18 00 01 21.2688020  0  7                     
G02  24272605.533      218891.376        2910.609           0.239  
G03  22342516.640      -33040.228        -503.194           0.255  
G04  23638310.767     -138172.205       -2131.469           0.244  
G05  22504257.903      134738.302        2028.030           0.255  
G06  20632608.958      -27340.504        -481.966           0.255  
G07  23418884.487      -72969.738       -1322.306           0.248  
G09  23116935.244      -68372.537       -1437.547           0.251  
> 2023 05 18 00 01 21.3688020  0  7                     
G02  24272531.353      219182.415        2911.008           0.239  
G03  22342528.686      -33090.665        -505.721           0.255  
G04  23638365.148     -138385.382       -2131.634           0.244  
G05  22504206.119      134941.173        2027.186           0.255  
G06  20632621.822      -27388.621        -480.422           0.255  
G07  23418917.731      -73101.980       -1322.679           0.248  
G09  23116972.434      -68516.284       -1437.607           0.251  
> 2023 05 18 00 01 21.4688020  0  7                     
G02  24272457.524      219473.606        2909.365           0.239  
G03  22342542.152      -33141.212        -496.434           0.255  
G04  23638419.023     -138598.560       -2131.630           0.244  
G05  22504154.284      135144.036        2090.797           0.255  
G06  20632633.664      -27436.751        -481.132           0.255  
G07  23418951.696      -73234.219       -1333.785           0.248  
G09  23117008.837      -68659.661       -1381.323           0.251  
> 2023 05 18 00 01 21.5688020  0  7                     
G02  24272382.460      219764.525        2909.925           0.239  
G03  22342555.612      -33191.698        -536.791           0.255  
G04  23638473.362     -138811.473       -2106.306           0.244  
G05  22504102.902      135346.918        2029.256           0.255  
G06  20632645.557      -27484.885        -481.234           0.255  
G07  23418985.560      -73366.464       -1322.846           0.248  
G09  23117045.828      -68803.418       -1423.386           0.251  
> 2023 05 18 00 01 21.6688020  0  7                     
G02  24272308.293      220055.577        2910.555           0.239  
G03  22342567.611      -33241.935        -503.946           0.255  
G04  23638527.570     -139024.925       -2131.476           0.244  
G05  22504051.272      135549.779        2030.170           0.255  
G06  20632658.466      -27533.025        -481.670           0.255  
G07  23419019.153      -73498.741       -1313.872           0.248  
G09  23117081.546      -68947.515       -1438.274           0.251  
> 2023 05 18 00 01 21.7688020  0  7                     
G02  24272234.204      220346.626        2910.135           0.239  
G03  22342581.099      -33292.353        -503.402           0.255  
G04  23638582.029     -139238.106       -2131.545           0.244  
G05  22503999.499      135752.618        1975.689           0.255  
G06  20632670.515      -27581.171        -481.653           0.255  
G07  23419052.316      -73630.960       -1322.606           0.248  
G09  23117118.136      -69091.256       -1437.509           0.251  
> 2023 05 18 00 01 21.8688020  0  7                     
G02  24272160.490      220637.678        2909.775           0.239  
G03  22342593.337      -33342.814        -545.359           0.255  
G04  23638636.276     -139451.290       -2131.319           0.244  
G05  22503947.709      135955.482        2029.340           0.255  
G06  20632683.146      -27629.310        -480.696           0.255  
G07  23419086.129      -73763.197       -1305.609           0.248  
G09  23117155.230      -69234.887       -1418.761           0.251  
> 2023 05 18 00 01 21.9688020  0  7                     
G02  24272085.647      220928.731        2909.915           0.239  
G03  22342606.146      -33393.251        -505.087           0.255  
G04  23638691.327     -139664.476       -2131.545           0.244  
G05  22503896.230      136158.331        2028.549           0.255  
G06  20632695.260      -27677.450        -481.117           0.255  
G07  23419120.028      -73895.466       -1322.629           0.248  
G09  23117191.566      -69378.752       -1437.783           0.252  
> 2023 05 18 00 01 22.0688020  0  7                     
G02  24272011.743      221219.792        2910.935           0.239  
G03  22342619.246      -33443.689        -504.016           0.255  
G04  23638745.499     -139877.660       -2131.906           0.244  
G05  22503844.495      136361.182        2027.096           0.255  
G06  20632707.340      -27725.607        -481.891           0.255  
G07  23419154.010      -74027.721       -1322.613           0.248  
G09  23117228.831      -69522.499       -1437.192           0.251  
> 2023 05 18 00 01 22.1688020  0  7                     
G02  24271938.615      221510.456        2879.315           0.239  
G03  22342632.179      -33494.069        -498.399           0.255  
G04  23638799.706     -140090.602       -2096.623           0.244  
G05  22503792.946      136563.934        2066.288           0.255  
G06  20632719.562      -27773.755        -481.546           0.255  
G07  23419187.583      -74159.983       -1322.436           0.248  
G09  23117265.059      -69666.203       -1437.144           0.252  
> 2023 05 18 00 01 22.2688020  0  7                     
G02  24271864.094      221801.886        2910.087           0.239  
G03  22342644.856      -33544.599        -504.273           0.255  
G04  23638852.894     -140304.041       -2132.170           0.244  
G05  22503741.183      136766.890        2028.295           0.255  
G06  20632731.002      -27821.912        -481.580           0.255  
G07  23419221.258      -74292.246       -1322.459           0.248  
G09  23117304.327      -69810.004       -1437.463           0.252  
> 2023 05 18 00 01 22.3688020  0  7                     
G02  24271790.265      222092.944        2909.134           0.239  
G03  22342657.194      -33595.060        -505.038           0.255  
G04  23638907.595     -140517.228       -2131.625           0.244  
G05  22503689.545      136969.740        2029.970           0.255  
G06  20632744.188      -27870.075        -481.278           0.255  
G07  23419254.953      -74424.518       -1322.653           0.248  
G09  23117339.628      -69953.754       -1438.452           0.251  
> 2023 05 18 00 01 22.4688020  0  7                     
G02  24271715.156      222383.996        2909.608           0.239  
G03  22342670.809      -33645.535        -504.806           0.255  
G04  23638962.699     -140730.418       -2131.922           0.244  
G05  22503637.652      137172.578        2029.860           0.255  
G06  20632756.275      -27918.232        -481.119           0.255  
G07  23419289.443      -74556.899       -1336.544           0.248  
G09  23117374.868      -70097.699       -1442.608           0.251  
> 2023 05 18 00 01 22.5688020  0  7                     
G02  24271641.275      222675.061        2910.921           0.239  
G03  22342683.801      -33695.989        -503.809           0.255  
G04  23639016.814     -140943.619       -2132.164           0.244  
G05  22503585.974      137375.918        2046.648           0.255  
G06  20632769.225      -27966.409        -482.022           0.255  
G07  23419322.735      -74689.091       -1321.020           0.248  
G09  23117410.079      -70241.251       -1436.907           0.251  
> 2023 05 18 00 01 22.6688020  0  7                     
G02  24271565.831      222966.099        2909.953           0.239  
G03  22342696.132      -33746.463        -504.584           0.255  
G04  23639070.470     -141156.803       -2131.577           0.244  
G05  22503534.034      137578.235        2026.690           0.255  
G06  20632782.075      -28014.582        -481.890           0.255  
G07  23419357.076      -74821.338       -1322.765           0.248  
G09  23117444.895      -70384.991       -1437.368           0.251  
> 2023 05 18 00 01 22.7688020  0  7                     
G02  24271492.283      223257.147        2909.779           0.239  
G03  22342708.397      -33796.948        -504.667           0.255  
G04  23639125.295     -141369.998       -2131.733           0.244  
G05  22503482.074      137781.073        2025.614           0.255  
G06  20632793.721      -28062.754        -481.635           0.255  
G07  23419390.263      -74953.618       -1322.654           0.248  
G09  23117484.487      -70528.752       -1437.272           0.251  
> 2023 05 18 00 01 22.8688020  0  7                     
G02  24271418.475      223548.214        2910.724           0.239  
G03  22342720.913      -33847.430        -505.631           0.255  
G04  23639179.844     -141583.199       -2132.169           0.244  
G05  22503430.604      137983.928        2028.344           0.255  
G06  20632806.357      -28110.925        -481.072           0.255  
G07  23419423.297      -75085.902       -1322.631           0.248  
G09  23117521.409      -70672.513       -1437.367           0.252  
> 2023 05 18 00 01 22.9688020  0  7                     
G02  24271343.800      223839.273        2911.341           0.239  
G03  22342735.126      -33898.210        -544.849           0.255  
G04  23639235.134     -141796.183       -2093.952           0.244  
G05  22503378.631      138186.361        2082.655           0.255  
G06  20632818.113      -28159.104        -481.656           0.255  
G07  23419457.070      -75218.123       -1309.382           0.248  
G09  23117557.613      -70816.622       -1468.536           0.251  
> 2023 05 18 00 01 23.0688020  0  7                     
G02  24271270.711      224130.314        2911.594           0.239  
G03  22342747.638      -33948.409        -504.388           0.255  
G04  23639288.899     -142009.584       -2131.380           0.244  
G05  22503327.214      138389.581        2029.467           0.255  
G06  20632830.476      -28207.302        -482.541           0.255  
G07  23419490.758      -75350.469       -1322.659           0.248  
G09  23117593.856      -70959.601       -1410.215           0.252  
> 2023 05 18 00 01 23.1688020  0  7                     
G02  24271196.392      224421.521        2949.941           0.239  
G03  22342760.412      -33999.236        -546.232           0.255  
G04  23639342.428     -142222.785       -2131.945           0.244  
G05  22503276.144      138592.400        2027.585           0.255  
G06  20632842.169      -28255.485        -481.516           0.255  
G07  23419524.429      -75482.756       -1322.650           0.248  
G09  23117631.789      -71104.358       -1489.054           0.251  
> 2023 05 18 00 01 23.2688020  0  7                     
G02  24271122.011      224712.411        2909.055           0.239  
G03  22342773.153      -34049.411        -505.653           0.255  
G04  23639397.007     -142435.979       -2132.057           0.244  
G05  22503224.009      138795.233        2027.302           0.255  
G06  20632854.833      -28303.673        -481.012           0.255  
G07  23419558.063      -75615.046       -1322.195           0.248  
G09  23117668.246      -71247.597       -1408.917           0.251  
> 2023 05 18 00 01 23.3688020  0  7                     
G02  24271048.046      225003.479        2910.888           0.239  
G03  22342785.992      -34099.914        -505.287           0.255  
G04  23639451.158     -142649.173       -2131.293           0.244  
G05  22503172.763      138997.800        2070.483           0.255  
G06  20632866.930      -28351.877        -482.045           0.255  
G07  23419592.088      -75747.342       -1322.225           0.248  
G09  23117705.770      -71390.790       -1374.453           0.251  
> 2023 05 18 00 01 23.4688020  0  7                     
G02  24270974.107      225294.542        2911.608           0.239  
G03  22342800.122      -34150.430        -504.948           0.255  
G04  23639505.730     -142862.383       -2132.521           0.244  
G05  22503120.469      139200.882        2028.797           0.255  
G06  20632878.866      -28400.066        -481.921           0.255  
G07  23419625.938      -75879.647       -1322.850           0.248  
G09  23117741.572      -71535.751       -1552.310           0.251  
> 2023 05 18 00 01 23.5688020  0  7                     
G02  24270899.912      225585.572        2910.142           0.239  
G03  22342812.062      -34200.930        -503.983           0.255  
G04  23639560.035     -143075.586       -2132.131           0.244  
G05  22503068.883      139403.703        2029.792           0.255  
G06  20632890.557      -28448.274        -482.298           0.255  
G07  23419659.526      -76011.944       -1323.237           0.248  
G09  23117781.357      -71678.826       -1439.268           0.251  
> 2023 05 18 00 01 23.6688020  0  7                     
G02  24270826.193      225876.620        2909.244           0.239  
G03  22342824.534      -34251.453        -505.699           0.255  
G04  23639614.351     -143288.784       -2132.073           0.244  
G05  22503017.247      139606.509        2028.837           0.255  
G06  20632903.960      -28496.477        -481.686           0.255  
G07  23419693.294      -76144.248       -1323.271           0.248  
G09  23117814.088      -71822.590       -1438.893           0.251  
> 2023 05 18 00 01 23.7688020  0  7                     
G02  24270751.160      226167.687        2910.234           0.239  
G03  22342837.864      -34301.995        -505.643           0.255  
G04  23639668.630     -143501.987       -2132.155           0.244  
G05  22502965.800      139809.315        2027.446           0.255  
G06  20632916.323      -28544.676        -481.374           0.255  
G07  23419727.101      -76276.554       -1322.833           0.248  
G09  23117850.789      -71966.343       -1438.354           0.252  
> 2023 05 18 00 01 23.8688020  0  7                     
G02  24270677.273      226458.738        2910.122           0.239  
G03  22342850.452      -34352.516        -505.042           0.255  
G04  23639723.173     -143715.192       -2131.403           0.244  
G05  22502914.021      140012.130        2026.268           0.255  
G06  20632928.643      -28592.895        -482.353           0.255  
G07  23419760.681      -76408.873       -1323.036           0.248  
G09  23117887.777      -72110.101       -1437.583           0.252  
> 2023 05 18 00 01 23.9688020  0  7                     
G02  24270602.466      226749.791        2911.123           0.239  
G03  22342863.837      -34403.048        -504.210           0.255  
G04  23639777.634     -143928.403       -2132.089           0.244  
G05  22502862.314      140214.950        2027.987           0.255  
G06  20632940.482      -28641.112        -482.656           0.255  
G07  23419794.505      -76541.184       -1323.427           0.248  
G09  23117924.953      -72253.863       -1437.516           0.251  
> 2023 05 18 00 01 24.0688020  0  7                     
G02  24270528.361      227040.842        2910.232           0.239  
G03  22342876.129      -34453.579        -504.665           0.255  
G04  23639832.309     -144141.605       -2131.789           0.244  
G05  22502810.392      140417.759        2029.114           0.255  
G06  20632953.099      -28689.339        -482.811           0.255  
G07  23419827.969      -76673.503       -1323.778           0.248  
G09  23117961.163      -72397.615       -1437.310           0.251  
> 2023 05 18 00 01 24.1688020  0  7                     
G02  24270453.391      227331.901        2909.718           0.239  
G03  22342889.211      -34504.274        -534.850           0.255  
G04  23639885.876     -144354.816       -2132.030           0.244  
G05  22502759.308      140620.561        2028.880           0.255  
G06  20632965.199      -28737.556        -481.956           0.255  
G07  23419862.077      -76805.815       -1322.907           0.248  
G09  23117997.188      -72541.390       -1457.087           0.251  
> 2023 05 18 00 01 24.2688020  0  7                     
G02  24270380.067      227622.957        2909.686           0.239  
G03  22342903.242      -34554.675        -505.246           0.255  
G04  23639940.714     -144568.027       -2132.475           0.244  
G05  22502707.082      140823.351        2027.568           0.255  
G06  20632977.637      -28785.778        -482.231           0.255  
G07  23419895.490      -76938.136       -1322.484           0.248  
G09  23118033.709      -72685.157       -1438.226           0.251  
> 2023 05 18 00 01 24.3688020  0  7                     
G02  24270306.150      227914.009        2910.487           0.239  
G03  22342915.258      -34605.215        -504.827           0.255  
G04  23639995.082     -144781.236       -2132.054           0.244  
G05  22502655.545      141026.153        2026.433           0.255  
G06  20632989.779      -28834.015        -482.679           0.255  
G07  23419929.327      -77070.469       -1323.125           0.248  
G09  23118070.208      -72828.914       -1437.360           0.251  
> 2023 05 18 00 01 24.4688020  0  7                     
G02  24270231.977      228205.056        2910.222           0.239  
G03  22342928.324      -34655.776        -505.557           0.255  
G04  23640049.340     -144994.446       -2131.830           0.244  
G05  22502604.006      141228.962        2027.338           0.255  
G06  20633002.126      -28882.240        -482.204           0.255  
G07  23419962.871      -77202.799       -1323.678           0.248  
G09  23118107.813      -72972.689       -1438.050           0.251  
> 2023 05 18 00 01 24.5688020  0  7                     
G02  24270157.832      228496.109        2909.770           0.239  
G03  22342940.623      -34706.339        -505.818           0.255  
G04  23640103.845     -145207.661       -2131.987           0.244  
G05  22502552.129      141431.764        2028.968           0.255  
G06  20633014.306      -28930.479        -482.406           0.255  
G07  23419996.792      -77335.125       -1323.437           0.248  
G09  23118144.537      -73116.455       -1437.444           0.252  
> 2023 05 18 00 01 24.6688020  0  7                     
G02  24270084.208      228787.172        2910.855           0.239  
G03  22342954.034      -34756.900        -505.914           0.255  
G04  23640157.575     -145420.876       -2131.909           0.244  
G05  22502500.830      141634.957        2032.453           0.255  
G06  20633026.441      -28978.720        -482.545           0.255  
G07  23420030.508      -77467.462       -1323.301           0.248  
G09  23118181.852      -73260.221       -1437.559           0.252  
> 2023 05 18 00 01 24.7688020  0  7                     
G02  24270010.331      229078.226        2911.678           0.239  
G03  22342967.179      -34807.308        -470.185           0.255  
G04  23640211.960     -145634.093       -2132.837           0.244  
G05  22502448.881      141837.331        2027.705           0.255  
G06  20633038.673      -29026.960        -482.446           0.255  
G07  23420063.904      -77599.800       -1323.176           0.248  
G09  23118217.876      -73403.992       -1437.918           0.251  
> 2023 05 18 00 01 24.8688020  0  7                     
G02  24269936.019      229369.273        2911.098           0.239  
G03  22342979.292      -34858.037        -506.206           0.255  
G04  23640266.887     -145847.303       -2132.499           0.244  
G05  22502396.964      142040.121        2025.766           0.255  
G06  20633051.435      -29075.215        -482.570           0.255  
G07  23420097.368      -77732.147       -1323.670           0.248  
G09  23118254.053      -73547.761       -1437.468           0.251  
> 2023 05 18 00 01 24.9688020  0  7                     
G02  24269860.620      229660.317        2910.190           0.239  
G03  22342992.279      -34908.635        -515.735           0.255  
G04  23640321.111     -146060.513       -2131.584           0.244  
G05  22502345.333      142242.118        1930.767           0.255  
G06  20633063.854      -29123.454        -481.985           0.255  
G07  23420131.785      -77864.485       -1323.457           0.248  
G09  23118290.935      -73691.621       -1445.912           0.251  
> 2023 05 18 00 01 25.0688020  0  7                     
G02  24269786.300      229951.375        2910.531           0.239  
G03  22343005.481      -34959.406        -552.994           0.255  
G04  23640375.626     -146273.735       -2131.743           0.244  
G05  22502294.133      142445.711        2029.459           0.255  
G06  20633075.750      -29171.711        -482.195           0.255  
G07  23420165.609      -77996.838       -1323.615           0.248  
G09  23118326.553      -73835.263       -1437.269           0.252  
> 2023 05 18 00 01 25.1688020  0  7                     
G02  24269713.746      230242.428        2911.145           0.239  
G03  22343018.356      -35009.796        -505.882           0.255  
G04  23640429.875     -146486.955       -2131.803           0.244  
G05  22502241.749      142648.483        2028.192           0.255  
G06  20633088.153      -29219.965        -482.684           0.255  
G07  23420198.794      -78129.179       -1323.277           0.248  
G09  23118364.212      -73979.068       -1437.269           0.251  
> 2023 05 18 00 01 25.2688020  0  7                     
G02  24269639.448      230533.487        2910.224           0.239  
G03  22343031.436      -35060.379        -505.579           0.255  
G04  23640483.633     -146700.174       -2132.219           0.244  
G05  22502190.400      142851.262        2026.819           0.255  
G06  20633100.209      -29268.232        -482.953           0.255  
G07  23420232.552      -78261.532       -1323.272           0.248  
G09  23118400.679      -74122.846       -1437.478           0.252  
> 2023 05 18 00 01 25.3688020  0  7                     
G02  24269564.525      230824.534        2910.968           0.239  
G03  22343044.474      -35110.976        -505.942           0.255  
G04  23640538.212     -146913.395       -2132.000           0.244  
G05  22502139.155      143054.041        2026.134           0.255  
G06  20633112.600      -29316.489        -482.296           0.255  
G07  23420266.112      -78393.891       -1323.484           0.248  
G09  23118437.867      -74266.629       -1438.131           0.252  
> 2023 05 18 00 01 25.4688020  0  7                     
G02  24269489.805      231115.585        2909.965           0.239  
G03  22343057.774      -35161.597        -472.287           0.255  
G04  23640593.308     -147126.618       -2131.871           0.244  
G05  22502087.090      143256.221        1909.407           0.255  
G06  20633124.839      -29364.755        -482.734           0.255  
G07  23420300.688      -78526.246       -1323.876           0.248  
G09  23118473.549      -74410.596       -1483.581           0.251  
> 2023 05 18 00 01 25.5688020  0  7                     
G02  24269416.099      231407.321        2984.205           0.239  
G03  22343070.111      -35212.273        -509.597           0.255  
G04  23640647.879     -147339.836       -2132.150           0.244  
G05  22502035.851      143458.383        1866.718           0.255  
G06  20633136.943      -29413.030        -482.858           0.255  
G07  23420333.246      -78658.604       -1323.789           0.248  
G09  23118511.713      -74553.971       -1433.423           0.251  
> 2023 05 18 00 01 25.6688020  0  7                     
G02  24269342.184      231697.699        2910.517           0.239  
G03  22343083.029      -35262.779        -486.032           0.255  
G04  23640701.523     -147553.063       -2131.862           0.244  
G05  22501984.045      143662.352        2027.840           0.255  
G06  20633149.715      -29461.303        -482.849           0.255  
G07  23420367.071      -78790.965       -1323.830           0.248  
G09  23118546.455      -74697.716       -1428.307           0.252  
> 2023 05 18 00 01 25.7688020  0  7                     
G02  24269268.657      231988.746        2911.330           0.239  
G03  22343094.951      -35313.363        -497.158           0.255  
G04  23640755.684     -147766.291       -2132.205           0.244  
G05  22501932.114      143865.126        2025.101           0.255  
G06  20633161.743      -29509.583        -482.816           0.255  
G07  23420401.066      -78923.333       -1323.859           0.248  
G09  23118584.356      -74841.775       -1441.551           0.251  
> 2023 05 18 00 01 25.8688020  0  7                     
G02  24269194.096      232279.798        2910.394           0.239  
G03  22343108.041      -35364.032        -506.550           0.255  
G04  23640809.893     -147979.515       -2132.622           0.244  
G05  22501880.380      144067.914        2027.860           0.255  
G06  20633174.280      -29557.860        -482.880           0.255  
G07  23420435.057      -79055.701       -1323.408           0.248  
G09  23118620.757      -74985.493       -1436.924           0.252  
> 2023 05 18 00 01 25.9688020  0  7                     
G02  24269119.622      232570.860        2910.245           0.239  
G03  22343121.417      -35414.648        -505.523           0.255  
G04  23640864.183     -148192.743       -2132.182           0.244  
G05  22501828.773      144270.679        2029.924           0.255  
G06  20633186.638      -29606.146        -483.384           0.255  
G07  23420469.269      -79188.067       -1323.486           0.248  
G09  23118657.450      -75129.271       -1437.099           0.252  
> 2023 05 18 00 01 26.0688020  0  7                     
G02  24269045.291      232861.913        2911.332           0.239  
G03  22343134.248      -35465.273        -506.237           0.255  
G04  23640918.691     -148405.967       -2132.197           0.244  
G05  22501777.136      144473.426        2027.789           0.255  
G06  20633198.835      -29654.435        -483.045           0.255  
G07  23420502.937      -79320.438       -1323.263           0.248  
G09  23118693.937      -75273.049       -1437.820           0.252  
> 2023 05 18 00 01 26.1688020  0  7                     
G02  24268971.432      233152.955        2910.113           0.239  
G03  22343147.313      -35515.829        -503.367           0.255  
G04  23640972.877     -148619.340       -2163.482           0.244  
G05  22501725.498      144676.451        2128.765           0.255  
G06  20633211.435      -29702.722        -482.627           0.255  
G07  23420536.237      -79452.823       -1323.852           0.248  
G09  23118730.209      -75416.442       -1368.760           0.252  
> 2023 05 18 00 01 26.2688020  0  7                     
G02  24268897.083      233444.017        2893.966           0.239  
G03  22343159.426      -35566.553        -507.074           0.255  
G04  23641027.323     -148832.426       -2132.397           0.244  
G05  22501673.891      144878.212        1935.602           0.255  
G06  20633223.814      -29751.010        -482.259           0.255  
G07  23420570.193      -79585.207       -1324.613           0.248  
G09  23118766.967      -75560.609       -1438.189           0.252  
> 2023 05 18 00 01 26.3688020  0  7                     
G02  24268823.310      233735.067        2940.245           0.239  
G03  22343173.174      -35617.492        -515.379           0.255  
G04  23641081.390     -149045.395       -2093.850           0.244  
G05  22501622.070      145081.597        1957.251           0.255  
G06  20633235.815      -29799.307        -483.072           0.255  
G07  23420604.044      -79717.588       -1324.233           0.248  
G09  23118803.749      -75703.890       -1368.168           0.251  
> 2023 05 18 00 01 26.4688020  0  7                     
G02  24268748.261      234026.094        2910.057           0.239  
G03  22343186.102      -35667.767        -493.920           0.255  
G04  23641135.920     -149258.887       -2131.953           0.244  
G05  22501570.614      145284.453        2027.329           0.255  
G06  20633247.916      -29847.616        -483.164           0.255  
G07  23420638.168      -79849.955       -1303.307           0.248  
G09  23118840.522      -75847.804       -1389.950           0.251  
> 2023 05 18 00 01 26.5688020  0  7                     
G02  24268674.893      234317.140        2909.198           0.239  
G03  22343198.463      -35718.489        -506.832           0.255  
G04  23641190.097     -149472.121       -2131.960           0.244  
G05  22501519.137      145487.207        2025.601           0.255  
G06  20633260.566      -29895.917        -483.034           0.255  
G07  23420671.478      -79982.384       -1330.868           0.248  
G09  23118877.473      -75991.950       -1437.662           0.252  
> 2023 05 18 00 01 26.6688020  0  7                     
G02  24268600.562      234608.194        2910.294           0.239  
G03  22343212.044      -35769.145        -506.655           0.255  
G04  23641244.380     -149685.352       -2132.370           0.244  
G05  22501467.228      145689.970        2027.554           0.255  
G06  20633272.707      -29944.226        -483.071           0.255  
G07  23420705.469      -80114.746       -1324.980           0.248  
G09  23118913.786      -76135.734       -1438.160           0.251  
> 2023 05 18 00 01 26.7688020  0  7                     
G02  24268526.251      234899.239        2910.774           0.239  
G03  22343224.591      -35819.797        -506.489           0.255  
G04  23641299.025     -149898.592       -2132.726           0.244  
G05  22501415.331      145892.714        2029.018           0.255  
G06  20633284.946      -29992.539        -483.329           0.255  
G07  23420739.094      -80247.150       -1323.756           0.248  
G09  23118950.364      -76279.510       -1437.249           0.251  
> 2023 05 18 00 01 26.8688020  0  7                     
G02  24268452.033      235190.281        2909.984           0.239  
G03  22343237.840      -35870.461        -506.211           0.255  
G04  23641352.739     -150111.838       -2132.076           0.244  
G05  22501363.685      146095.449        2027.578           0.255  
G06  20633297.208      -30040.854        -483.274           0.255  
G07  23420772.287      -80379.549       -1323.438           0.248  
G09  23118987.355      -76423.292       -1437.925           0.252  
> 2023 05 18 00 01 26.9688020  0  7                     
G02  24268377.595      235481.332        2910.548           0.239  
G03  22343250.305      -35921.129        -506.482           0.255  
G04  23641407.611     -150325.078       -2132.513           0.244  
G05  22501312.322      146298.191        2025.462           0.255  
G06  20633309.865      -30089.171        -483.229           0.255  
G07  23420805.465      -80511.960       -1324.282           0.248  
G09  23119023.445      -76567.074       -1437.136           0.252  
> 2023 05 18 00 01 27.0688020  0  7                     
G02  24268303.861      235772.384        2910.845           0.239  
G03  22343263.557      -35971.805        -506.507           0.255  
G04  23641461.548     -150538.317       -2132.273           0.244  
G05  22501260.481      146500.947        2027.613           0.255  
G06  20633322.174      -30137.488        -483.001           0.255  
G07  23420839.935      -80644.361       -1324.729           0.248  
G09  23119060.409      -76710.861       -1437.823           0.251  
> 2023 05 18 00 01 27.1688020  0  7                     
G02  24268229.009      236063.427        2910.580           0.239  
G03  22343276.505      -36022.330        -489.956           0.255  
G04  23641516.310     -150751.566       -2132.628           0.244  
G05  22501208.743      146703.684        2028.907           0.255  
G06  20633334.150      -30185.822        -483.812           0.255  
G07  23420873.908      -80776.759       -1323.908           0.248  
G09  23119096.606      -76854.651       -1438.107           0.252  
> 2023 05 18 00 01 27.2688020  0  7                     
G02  24268155.375      236354.471        2909.643           0.239  
G03  22343289.485      -36073.161        -507.221           0.255  
G04  23641570.465     -150964.802       -2131.755           0.244  
G05  22501157.159      146906.402        2026.816           0.255  
G06  20633346.568      -30234.147        -483.118           0.255  
G07  23420907.417      -80909.171       -1323.718           0.248  
G09  23119134.040      -76998.437       -1437.862           0.251  
> 2023 05 18 00 01 27.3688020  0  7                     
G02  24268081.257      236645.524        2910.996           0.239  
G03  22343302.142      -36123.850        -507.117           0.255  
G04  23641625.035     -151178.049       -2132.525           0.244  
G05  22501105.394      147109.140        2025.540           0.255  
G06  20633358.879      -30282.479        -483.027           0.255  
G07  23420940.939      -81041.585       -1324.293           0.248  
G09  23119170.391      -77142.226       -1438.324           0.252  
> 2023 05 18 00 01 27.4688020  0  7                     
G02  24268006.975      236936.567        2911.139           0.239  
G03  22343314.994      -36174.841        -524.826           0.255  
G04  23641679.392     -151391.306       -2133.036           0.244  
G05  22501053.726      147311.891        2028.051           0.255  
G06  20633371.357      -30330.809        -482.946           0.255  
G07  23420975.300      -81173.996       -1324.194           0.248  
G09  23119206.706      -77286.013       -1438.169           0.251  
> 2023 05 18 00 01 27.5688020  0  7                     
G02  24267933.053      237227.611        2909.557           0.239  
G03  22343327.870      -36225.232        -506.341           0.255  
G04  23641733.775     -151604.548       -2132.720           0.244  
G05  22501002.043      147514.615        2028.801           0.255  
G06  20633383.608      -30379.154        -483.732           0.255  
G07  23421008.758      -81306.413       -1323.952           0.248  
G09  23119243.818      -77429.799       -1438.139           0.251  
> 2023 05 18 00 01 27.6688020  0  7                     
G02  24267858.813      237518.661        2910.138           0.239  
G03  22343341.048      -36275.937        -506.892           0.255  
G04  23641787.959     -151817.789       -2131.924           0.244  
G05  22500950.223      147717.326        2026.922           0.255  
G06  20633395.617      -30427.494        -483.408           0.255  
G07  23421041.973      -81438.837       -1324.185           0.248  
G09  23119280.400      -77573.584       -1437.896           0.252  
> 2023 05 18 00 01 27.7688020  0  7                     
G02  24267784.491      237809.704        2910.413           0.239  
G03  22343353.687      -36326.644        -507.322           0.255  
G04  23641842.225     -152031.037       -2132.584           0.244  
G05  22500898.814      147920.056        2025.848           0.255  
G06  20633408.398      -30475.839        -483.437           0.255  
G07  23421076.401      -81571.255       -1324.185           0.248  
G09  23119316.942      -77717.378       -1437.586           0.252  
> 2023 05 18 00 01 27.8688020  0  7                     
G02  24267710.771      238100.753        2910.015           0.239  
G03  22343366.872      -36377.344        -506.676           0.255  
G04  23641896.261     -152243.989       -2082.761           0.244  
G05  22500847.259      148122.555        1946.617           0.255  
G06  20633420.470      -30524.189        -483.757           0.255  
G07  23421110.055      -81703.782       -1332.191           0.248  
G09  23119352.791      -77861.250       -1456.134           0.252  
> 2023 05 18 00 01 27.9688020  0  7                     
G02  24267636.325      238391.802        2910.322           0.239  
G03  22343379.913      -36428.061        -506.964           0.255  
G04  23641950.743     -152457.527       -2131.839           0.244  
G05  22500795.572      148325.505        2028.162           0.255  
G06  20633432.872      -30572.539        -483.524           0.255  
G07  23421143.189      -81836.114       -1324.326           0.248  
G09  23119390.055      -78004.960       -1437.549           0.251  
> 2023 05 18 00 01 28.0688020  0  7                     
G02  24267561.930      238682.852        2911.412           0.239  
G03  22343392.365      -36478.781        -507.184           0.255  
G04  23642005.206     -152670.777       -2132.017           0.244  
G05  22500743.887      148528.212        2025.498           0.255  
G06  20633445.002      -30620.899        -483.578           0.255  
G07  23421177.461      -81968.548       -1324.485           0.248  
G09  23119426.863      -78149.025       -1465.107           0.252  
> 2023 05 18 00 01 28.1688020  0  7                     
G02  24267487.965      238973.896        2911.053           0.239  
G03  22343405.547      -36529.501        -507.224           0.255  
G04  23642059.491     -152884.032       -2132.724           0.244  
G05  22500692.406      148730.022        1896.226           0.255  
G06  20633457.665      -30669.256        -483.388           0.255  
G07  23421211.510      -82100.980       -1324.146           0.248  
G09  23119463.495      -78292.543       -1437.817           0.252  
> 2023 05 18 00 01 28.2688020  0  7                     
G02  24267414.077      239264.956        2911.554           0.239  
G03  22343418.570      -36580.192        -501.413           0.255  
G04  23642113.760     -153097.285       -2133.020           0.244  
G05  22500640.808      148933.663        2029.276           0.255  
G06  20633469.828      -30717.623        -483.872           0.255  
G07  23421244.863      -82233.423       -1324.255           0.248  
G09  23119499.697      -78436.405       -1437.192           0.252  
> 2023 05 18 00 01 28.3688020  0  7                     
G02  24267339.774      239555.993        2910.450           0.239  
G03  22343431.317      -36630.962        -507.533           0.255  
G04  23642168.180     -153310.534       -2132.442           0.244  
G05  22500589.126      149136.351        2026.988           0.255  
G06  20633482.301      -30765.985        -483.427           0.255  
G07  23421278.632      -82365.862       -1324.730           0.248  
G09  23119536.500      -78580.132       -1438.382           0.251  
> 2023 05 18 00 01 28.4688020  0  7                     
G02  24267265.740      239847.035        2910.355           0.239  
G03  22343444.108      -36681.702        -507.423           0.255  
G04  23642222.560     -153523.781       -2132.395           0.244  
G05  22500537.194      149339.066        2025.093           0.255  
G06  20633494.556      -30814.355        -483.628           0.255  
G07  23421312.537      -82498.304       -1323.995           0.248  
G09  23119572.816      -78723.923       -1437.955           0.252  
> 2023 05 18 00 01 28.5688020  0  7                     
G02  24267191.506      240138.087        2910.107           0.239  
G03  22343457.411      -36732.691        -529.757           0.255  
G04  23642277.195     -153737.040       -2132.735           0.244  
G05  22500485.667      149541.638        1946.814           0.255  
G06  20633506.780      -30862.723        -483.553           0.255  
G07  23421346.139      -82630.821       -1333.779           0.248  
G09  23119609.805      -78867.719       -1438.421           0.251  
> 2023 05 18 00 01 28.6688020  0  7                     
G02  24267116.488      240429.127        2910.308           0.239  
G03  22343470.373      -36783.183        -507.054           0.255  
G04  23642331.493     -153950.293       -2131.837           0.244  
G05  22500434.003      149744.482        2027.261           0.255  
G06  20633519.172      -30911.105        -484.160           0.255  
G07  23421379.828      -82763.210       -1324.914           0.248  
G09  23119646.379      -79011.256       -1401.329           0.251  
> 2023 05 18 00 01 28.7688020  0  7                     
G02  24267042.674      240720.170        2910.016           0.239  
G03  22343482.992      -36833.740        -486.297           0.255  
G04  23642385.850     -154163.550       -2132.143           0.244  
G05  22500382.479      149947.185        2025.041           0.255  
G06  20633531.520      -30959.487        -483.822           0.255  
G07  23421413.565      -82895.590       -1306.468           0.248  
G09  23119683.353      -79155.317       -1438.737           0.251  
> 2023 05 18 00 01 28.8688020  0  7                     
G02  24266969.272      241011.213        2910.841           0.239  
G03  22343496.169      -36884.689        -507.689           0.255  
G04  23642440.047     -154376.810       -2132.919           0.244  
G05  22500330.706      150149.316        1936.854           0.255  
G06  20633543.648      -31007.868        -483.798           0.255  
G07  23421447.115      -83028.121       -1324.522           0.248  
G09  23119720.116      -79299.116       -1438.542           0.251  
> 2023 05 18 00 01 28.9688020  0  7                     
G02  24266894.777      241302.254        2910.475           0.239  
G03  22343509.214      -36935.447        -507.482           0.255  
G04  23642494.176     -154590.068       -2132.864           0.244  
G05  22500279.020      150352.593        2028.692           0.255  
G06  20633556.004      -31056.258        -484.049           0.255  
G07  23421481.037      -83160.590       -1325.883           0.248  
G09  23119756.028      -79442.991       -1460.845           0.251  
> 2023 05 18 00 01 29.0688020  0  7                     
G02  24266820.486      241593.296        2909.746           0.239  
G03  22343521.965      -36986.213        -507.989           0.255  
G04  23642548.507     -154803.324       -2132.715           0.244  
G05  22500227.321      150555.275        2025.921           0.255  
G06  20633568.467      -31104.644        -483.529           0.255  
G07  23421515.100      -83293.044       -1325.012           0.248  
G09  23119793.281      -79586.715       -1438.757           0.252  
> 2023 05 18 00 01 29.1688020  0  7                     
G02  24266746.356      241884.349        2909.947           0.239  
G03  22343534.633      -37036.983        -508.111           0.255  
G04  23642602.747     -155016.585       -2132.395           0.244  
G05  22500175.690      150757.984        2026.945           0.255  
G06  20633580.841      -31153.044        -484.104           0.255  
G07  23421548.670      -83425.505       -1324.387           0.248  
G09  23119829.600      -79730.511       -1437.818           0.252  
> 2023 05 18 00 01 29.2688020  0  7                     
G02  24266671.943      242175.395        2910.900           0.239  
G03  22343547.686      -37087.751        -507.932           0.255  
G04  23642657.591     -155229.848       -2132.809           0.244  
G05  22500124.114      150960.674        2028.810           0.255  
G06  20633593.275      -31201.437        -483.743           0.255  
G07  23421582.540      -83557.974       -1324.787           0.248  
G09  23119865.995      -79874.311       -1438.552           0.252  
> 2023 05 18 00 01 29.3688020  0  7                     
G02  24266597.923      242466.441        2910.083           0.239  
G03  22343560.977      -37138.528        -508.129           0.255  
G04  23642712.049     -155443.110       -2132.745           0.244  
G05  22500072.368      151163.345        2026.290           0.255  
G06  20633605.547      -31249.838        -483.942           0.255  
G07  23421615.948      -83690.442       -1324.706           0.248  
G09  23119902.541      -80018.108       -1438.005           0.251  
> 2023 05 18 00 01 29.4688020  0  7                     
G02  24266523.688      242757.497        2911.095           0.239  
G03  22343573.631      -37189.307        -508.069           0.255  
G04  23642766.062     -155656.369       -2132.219           0.244  
G05  22500020.792      151366.042        2025.564           0.255  
G06  20633617.741      -31298.241        -483.864           0.255  
G07  23421649.934      -83822.910       -1324.457           0.248  
G09  23119939.566      -80161.915       -1438.280           0.252  
> 2023 05 18 00 01 29.5688020  0  7                     
G02  24266449.739      243048.530        2907.609           0.239  
G03  22343586.819      -37240.056        -512.704           0.255  
G04  23642820.682     -155869.634       -2132.610           0.244  
G05  22499969.183      151568.737        2028.376           0.255  
G06  20633630.058      -31346.649        -484.065           0.255  
G07  23421683.655      -83955.389       -1324.432           0.248  
G09  23119976.565      -80305.719       -1438.049           0.252  
> 2023 05 18 00 01 29.6688020  0  7                     
G02  24266375.148      243339.584        2910.155           0.239  
G03  22343599.457      -37290.882        -507.971           0.255  
G04  23642875.035     -156082.896       -2132.261           0.244  
G05  22499917.518      151771.408        2026.611           0.255  
G06  20633642.607      -31395.063        -484.308           0.255  
G07  23421717.554      -84087.866       -1324.673           0.248  
G09  23120013.332      -80449.524       -1438.213           0.251  
> 2023 05 18 00 01 29.7688020  0  7                     
G02  24266301.282      243630.633        2910.443           0.239  
G03  22343612.556      -37341.626        -499.865           0.255  
G04  23642929.537     -156296.166       -2132.661           0.244  
G05  22499865.920      151973.584        1995.248           0.255  
G06  20633654.739      -31443.477        -484.242           0.255  
G07  23421751.129      -84220.350       -1324.743           0.248  
G09  23120049.477      -80593.329       -1438.451           0.252  
> 2023 05 18 00 01 29.8688020  0  7                     
G02  24266227.474      243921.680        2910.871           0.239  
G03  22343625.490      -37392.476        -508.395           0.255  
G04  23642983.390     -156509.434       -2132.665           0.244  
G05  22499814.017      152176.788        2028.230           0.255  
G06  20633667.167      -31491.895        -484.295           0.255  
G07  23421784.898      -84352.812       -1321.234           0.248  
G09  23120086.164      -80737.119       -1436.777           0.252  
> 2023 05 18 00 01 29.9688020  0  7                     
G02  24266153.117      244212.724        2910.340           0.239  
G03  22343638.456      -37443.282        -508.127           0.255  
G04  23643037.363     -156722.706       -2132.897           0.244  
G05  22499762.655      152379.444        2026.518           0.255  
G06  20633679.603      -31540.313        -484.200           0.255  
G07  23421818.942      -84485.322       -1324.730           0.248  
G09  23120122.366      -80880.938       -1438.289           0.252  
> 2023 05 18 00 01 30.0688020  0  7                     
G02  24266080.116      244503.775        2910.706           0.239  
G03  22343650.772      -37494.087        -508.050           0.255  
G04  23643091.383     -156935.977       -2132.697           0.244  
G05  22499710.923      152582.115        2024.488           0.255  
G06  20633692.067      -31588.740        -484.140           0.255  
G07  23421852.684      -84617.814       -1325.027           0.248  
G09  23120159.504      -81024.738       -1438.490           0.251  
> 2023 05 18 00 01 30.1688020  0  7                     
G02  24266004.765      244794.701        2882.437           0.239  
G03  22343664.066      -37544.900        -508.046           0.255  
G04  23643146.090     -157149.247       -2133.199           0.244  
G05  22499658.992      152784.811        2027.964           0.255  
G06  20633704.549      -31637.163        -484.485           0.255  
G07  23421886.500      -84750.378       -1347.540           0.248  
G09  23120194.993      -81168.552       -1438.369           0.252  
> 2023 05 18 00 01 30.2688020  0  7                     
G02  24265930.391      245085.866        2910.570           0.239  
G03  22343677.022      -37595.713        -507.067           0.255  
G04  23643201.450     -157362.522       -2132.907           0.244  
G05  22499607.517      152987.460        2027.128           0.255  
G06  20633716.361      -31685.599        -484.331           0.255  
G07  23421920.161      -84882.670       -1294.503           0.248  
G09  23120233.706      -81312.355       -1439.791           0.251  
> 2023 05 18 00 01 30.3688020  0  7                     
G02  24265856.034      245376.913        2910.838           0.239  
G03  22343690.127      -37646.541        -507.992           0.255  
G04  23643255.619     -157576.038       -2160.160           0.244  
G05  22499555.838      153190.121        2024.301           0.255  
G06  20633728.707      -31734.029        -484.463           0.255  
G07  23421953.936      -85015.305       -1325.059           0.248  
G09  23120269.627      -81456.158       -1438.229           0.252  
> 2023 05 18 00 01 30.4688020  0  7                     
G02  24265781.798      245667.969        2911.747           0.239  
G03  22343703.150      -37697.365        -508.137           0.255  
G04  23643309.561     -157789.069       -2133.193           0.244  
G05  22499504.245      153392.814        2027.966           0.255  
G06  20633741.154      -31782.466        -484.440           0.255  
G07  23421987.472      -85147.806       -1325.127           0.248  
G09  23120306.416      -81599.974       -1438.600           0.252  
> 2023 05 18 00 01 30.5688020  0  7                     
G02  24265708.178      245959.012        2910.662           0.239  
G03  22343715.826      -37748.194        -508.062           0.255  
G04  23643363.951     -158002.337       -2132.330           0.244  
G05  22499452.675      153595.454        2026.803           0.255  
G06  20633753.645      -31830.910        -484.328           0.255  
G07  23422021.527      -85280.310       -1324.794           0.248  
G09  23120342.819      -81743.783       -1438.492           0.251  
> 2023 05 18 00 01 30.6688020  0  7                     
G02  24265633.964      246250.056        2910.704           0.239  
G03  22343728.941      -37799.032        -508.012           0.255  
G04  23643418.416     -158215.615       -2132.709           0.244  
G05  22499400.924      153797.650        2007.161           0.255  
G06  20633766.693      -31879.353        -484.514           0.255  
G07  23422055.278      -85412.814       -1324.298           0.248  
G09  23120376.892      -81887.603       -1438.879           0.252  
> 2023 05 18 00 01 30.7688020  0  7                     
G02  24265559.441      246541.104        2910.710           0.239  
G03  22343741.377      -37849.872        -507.722           0.255  
G04  23643472.922     -158428.886       -2132.438           0.244  
G05  22499349.452      154000.794        2027.786           0.255  
G06  20633778.373      -31927.805        -484.639           0.255  
G07  23422088.957      -85545.335       -1325.203           0.248  
G09  23120416.604      -82031.413       -1439.039           0.252  
> 2023 05 18 00 01 30.8688020  0  7                     
G02  24265484.803      246832.147        2910.747           0.239  
G03  22343755.052      -37900.717        -508.107           0.255  
G04  23643527.212     -158642.176       -2133.044           0.244  
G05  22499297.700      154203.429        2026.123           0.255  
G06  20633790.454      -31976.252        -484.499           0.255  
G07  23422122.257      -85677.846       -1325.393           0.248  
G09  23120453.208      -82175.214       -1437.563           0.251  
> 2023 05 18 00 01 30.9688020  0  7                     
G02  24265411.285      247123.197        2910.041           0.239  
G03  22343767.834      -37951.459        -496.610           0.255  
G04  23643581.286     -158855.443       -2118.067           0.244  
G05  22499245.735      154406.958        2057.205           0.255  
G06  20633804.032      -32024.711        -484.496           0.255  
G07  23422156.428      -85810.459       -1315.514           0.248  
G09  23120485.713      -82319.022       -1437.200           0.251  
> 2023 05 18 00 01 31.0688020  0  7                     
G02  24265337.143      247414.241        2910.560           0.239  
G03  22343780.747      -38002.522        -527.190           0.255  
G04  23643635.655     -159068.738       -2133.246           0.244  
G05  22499194.244      154608.754        2028.025           0.255  
G06  20633815.785      -32073.168        -484.875           0.255  
G07  23422190.323      -85942.884       -1330.936           0.248  
G09  23120525.708      -82462.337       -1338.499           0.251  
> 2023 05 18 00 01 31.1688020  0  7                     
G02  24265263.691      247705.287        2910.142           0.239  
G03  22343793.691      -38053.275        -508.376           0.255  
G04  23643690.925     -159281.933       -2123.788           0.244  
G05  22499142.734      154811.377        2026.026           0.255  
G06  20633826.510      -32121.631        -484.856           0.255  
G07  23422224.004      -86075.411       -1325.405           0.248  
G09  23120565.219      -82606.737       -1418.093           0.251  
> 2023 05 18 00 01 31.2688020  0  7                     
G02  24265188.837      247996.333        2910.805           0.239  
G03  22343806.803      -38104.137        -508.554           0.255  
G04  23643745.380     -159495.307       -2133.363           0.244  
G05  22499091.194      155014.038        2025.138           0.255  
G06  20633840.179      -32170.096        -484.600           0.255  
G07  23422257.860      -86207.940       -1325.641           0.248  
G09  23120597.931      -82750.471       -1437.676           0.251  
> 2023 05 18 00 01 31.3688020  0  7                     
G02  24265115.350      248287.380        2910.172           0.239  
G03  22343819.603      -38155.006        -508.909           0.255  
G04  23643798.981     -159708.590       -2132.984           0.244  
G05  22499039.310      155216.692        2028.478           0.255  
G06  20633852.099      -32218.567        -484.960           0.255  
G07  23422291.739      -86340.409       -1328.670           0.248  
G09  23120636.648      -82894.093       -1442.919           0.251  
> 2023 05 18 00 01 31.4688020  0  7                     
G02  24265040.951      248578.424        2910.367           0.239  
G03  22343832.784      -38205.875        -508.201           0.255  
G04  23643852.517     -159921.878       -2133.047           0.244  
G05  22498988.243      155419.317        2025.585           0.255  
G06  20633864.841      -32267.043        -484.885           0.255  
G07  23422325.109      -86473.000       -1326.086           0.248  
G09  23120671.663      -83038.093       -1438.618           0.251  
> 2023 05 18 00 01 31.5688020  0  7                     
G02  24264966.299      248869.469        2909.586           0.239  
G03  22343845.879      -38256.750        -508.318           0.255  
G04  23643906.970     -160135.160       -2133.063           0.244  
G05  22498936.473      155621.977        2026.102           0.255  
G06  20633877.351      -32315.512        -485.126           0.255  
G07  23422358.979      -86605.524       -1324.938           0.248  
G09  23120708.111      -83181.927       -1436.707           0.251  
> 2023 05 18 00 01 31.6688020  0  7                     
G02  24264891.915      249160.525        2910.956           0.239  
G03  22343858.557      -38307.632        -508.661           0.255  
G04  23643961.724     -160348.448       -2132.946           0.244  
G05  22498884.671      155824.615        2028.590           0.255  
G06  20633889.857      -32363.997        -485.410           0.255  
G07  23422392.861      -86738.062       -1325.547           0.248  
G09  23120745.436      -83325.734       -1437.529           0.251  
> 2023 05 18 00 01 31.7688020  0  7                     
G02  24264817.972      249451.516        2886.382           0.239  
G03  22343871.515      -38358.434        -497.532           0.255  
G04  23644016.343     -160561.745       -2132.817           0.244  
G05  22498832.993      156027.234        2024.789           0.255  
G06  20633902.035      -32412.474        -484.686           0.255  
G07  23422426.682      -86870.506       -1303.908           0.248  
G09  23120781.780      -83469.694       -1400.661           0.251  
> 2023 05 18 00 01 31.8688020  0  7                     
G02  24264742.784      249742.595        2910.353           0.240  
G03  22343884.588      -38409.407        -508.849           0.255  
G04  23644071.315     -160775.033       -2132.987           0.244  
G05  22498781.396      156229.553        1935.337           0.255  
G06  20633914.293      -32460.961        -484.810           0.255  
G07  23422459.781      -87003.147       -1325.338           0.248  
G09  23120818.085      -83613.371       -1436.893           0.251  
> 2023 05 18 00 01 31.9688020  0  7                     
G02  24264669.573      250033.641        2910.913           0.239  
G03  22343897.855      -38460.297        -509.308           0.255  
G04  23644125.043     -160988.320       -2133.260           0.244  
G05  22498729.735      156432.510        2027.207           0.255  
G06  20633926.364      -32509.450        -484.912           0.255  
G07  23422493.830      -87135.700       -1325.564           0.248  
G09  23120855.531      -83757.199       -1438.170           0.251  
> 2023 05 18 00 01 32.0688020  0  7                     
G02  24264595.499      250324.676        2911.052           0.239  
G03  22343910.682      -38511.193        -508.874           0.255  
G04  23644179.271     -161201.614       -2133.565           0.244  
G05  22498678.192      156634.677        2020.797           0.255  
G06  20633938.930      -32557.941        -484.683           0.255  
G07  23422527.685      -87268.297       -1324.795           0.248  
G09  23120892.839      -83901.190       -1479.772           0.251  
> 2023 05 18 00 01 32.1688020  0  7                     
G02  24264521.035      250615.719        2910.742           0.239  
G03  22343923.508      -38562.109        -509.531           0.255  
G04  23644233.852     -161414.908       -2132.995           0.244  
G05  22498626.418      156837.781        2027.938           0.255  
G06  20633951.112      -32606.435        -484.411           0.255  
G07  23422561.563      -87400.801       -1325.680           0.248  
G09  23120929.274      -84044.842       -1437.968           0.252  
> 2023 05 18 00 01 32.2688020  0  7                     
G02  24264447.173      250906.757        2910.354           0.239  
G03  22343936.271      -38613.018        -509.320           0.255  
G04  23644288.027     -161628.198       -2132.656           0.244  
G05  22498574.740      157040.379        2025.879           0.255  
G06  20633963.544      -32654.938        -485.131           0.255  
G07  23422595.549      -87533.213       -1306.547           0.248  
G09  23120965.802      -84188.835       -1477.327           0.252  
> 2023 05 18 00 01 32.3688020  0  7                     
G02  24264373.129      251197.801        2910.695           0.239  
G03  22343949.035      -38663.921        -509.197           0.255  
G04  23644342.047     -161841.491       -2132.413           0.244  
G05  22498523.122      157243.016        2025.062           0.255  
G06  20633975.601      -32703.442        -484.819           0.255  
G07  23422629.927      -87665.909       -1325.417           0.248  
G09  23121003.290      -84332.499       -1438.603           0.252  
> 2023 05 18 00 01 32.4688020  0  7                     
G02  24264297.523      251488.838        2912.005           0.239  
G03  22343962.477      -38714.840        -509.229           0.255  
G04  23644396.796     -162054.791       -2134.131           0.244  
G05  22498471.704      157445.641        2028.272           0.255  
G06  20633986.717      -32751.948        -485.095           0.255  
G07  23422663.048      -87798.466       -1324.900           0.248  
G09  23121042.607      -84476.320       -1437.671           0.251  
> 2023 05 18 00 01 32.5688020  0  7                     
G02  24264223.858      251779.883        2910.851           0.239  
G03  22343975.610      -38765.640        -513.287           0.255  
G04  23644451.288     -162268.082       -2138.482           0.244  
G05  22498420.054      157648.282        2124.190           0.255  
G06  20633999.951      -32800.463        -485.123           0.255  
G07  23422696.970      -87930.894       -1300.583           0.248  
G09  23121077.064      -84620.629       -1519.890           0.251  
> 2023 05 18 00 01 32.6688020  0  7                     
G02  24264150.119      252070.920        2910.760           0.239  
G03  22343988.368      -38816.706        -535.303           0.255  
G04  23644505.466     -162481.360       -2127.608           0.244  
G05  22498368.326      157850.888        2027.343           0.255  
G06  20634012.974      -32848.970        -484.884           0.255  
G07  23422730.628      -88063.509       -1324.252           0.248  
G09  23121113.157      -84763.967       -1438.810           0.251  
> 2023 05 18 00 01 32.7688020  0  7                     
G02  24264076.761      252361.965        2911.132           0.239  
G03  22344001.354      -38867.622        -510.285           0.255  
G04  23644559.406     -162694.680       -2133.580           0.244  
G05  22498316.588      158053.479        2026.503           0.255  
G06  20634025.409      -32897.484        -484.442           0.255  
G07  23422764.328      -88196.172       -1325.750           0.248  
G09  23121149.654      -84907.789       -1438.744           0.251  
> 2023 05 18 00 01 32.8688020  0  7                     
G02  24264001.720      252653.004        2910.653           0.239  
G03  22344014.162      -38918.552        -509.288           0.255  
G04  23644614.112     -162907.977       -2133.396           0.244  
G05  22498265.168      158256.088        2023.600           0.255  
G06  20634037.726      -32946.003        -485.266           0.255  
G07  23422798.280      -88328.752       -1335.050           0.248  
G09  23121185.342      -85051.617       -1438.094           0.252  
> 2023 05 18 00 01 32.9688020  0  7                     
G02  24263928.590      252944.040        2910.009           0.239  
G03  22344027.207      -38969.582        -515.517           0.255  
G04  23644667.633     -163121.278       -2133.218           0.244  
G05  22498213.184      158458.716        2027.497           0.255  
G06  20634050.201      -32994.528        -485.487           0.255  
G07  23422832.322      -88461.317       -1325.380           0.248  
G09  23121221.997      -85195.446       -1437.907           0.252  
> 2023 05 18 00 01 33.0688020  0  7                     
G02  24263853.672      253235.090        2912.019           0.239  
G03  22344040.710      -39020.435        -508.952           0.255  
G04  23644722.678     -163334.578       -2134.140           0.244  
G05  22498161.802      158661.300        2024.995           0.255  
G06  20634061.622      -33043.056        -485.429           0.255  
G07  23422865.823      -88593.905       -1325.690           0.248  
G09  23121261.616      -85339.277       -1438.594           0.251  
> 2023 05 18 00 01 33.1688020  0  7                     
G02  24263779.529      253526.128        2911.217           0.239  
G03  22344052.912      -39071.381        -509.203           0.255  
G04  23644777.112     -163547.873       -2132.789           0.244  
G05  22498110.230      158863.932        2026.173           0.255  
G06  20634074.464      -33091.587        -485.670           0.255  
G07  23422899.387      -88726.481       -1325.191           0.248  
G09  23121296.388      -85483.107       -1437.752           0.251  
> 2023 05 18 00 01 33.2688020  0  7                     
G02  24263705.386      253817.163        2910.223           0.239  
G03  22344066.212      -39122.333        -509.243           0.255  
G04  23644831.639     -163761.179       -2132.936           0.244  
G05  22498058.540      159066.521        2027.225           0.255  
G06  20634087.182      -33140.126        -485.785           0.255  
G07  23422933.020      -88859.067       -1325.509           0.248  
G09  23121332.448      -85626.935       -1438.078           0.251  
> 2023 05 18 00 01 33.3688020  0  7                     
G02  24263630.968      254108.192        2910.503           0.239  
G03  22344079.311      -39173.300        -510.662           0.255  
G04  23644886.070     -163974.487       -2133.502           0.244  
G05  22498006.993      159269.102        2023.474           0.255  
G06  20634099.568      -33188.655        -484.944           0.255  
G07  23422967.158      -88991.652       -1325.624           0.248  
G09  23121369.409      -85770.767       -1438.438           0.252  
> 2023 05 18 00 01 33.4688020  0  7                     
G02  24263557.016      254399.166        2884.683           0.239  
G03  22344092.154      -39224.285        -520.463           0.255  
G04  23644939.681     -164187.789       -2132.677           0.244  
G05  22497955.232      159471.726        2027.785           0.255  
G06  20634112.093      -33237.198        -485.323           0.255  
G07  23423001.130      -89124.239       -1325.739           0.248  
G09  23121405.828      -85914.594       -1438.275           0.251  
> 2023 05 18 00 01 33.5688020  0  7                     
G02  24263482.901      254690.273        2910.642           0.239  
G03  22344104.839      -39275.220        -510.009           0.255  
G04  23644994.631     -164401.098       -2133.650           0.244  
G05  22497903.761      159674.290        2024.612           0.255  
G06  20634124.508      -33285.739        -485.244           0.255  
G07  23423035.119      -89256.837       -1326.258           0.248  
G09  23121441.469      -86058.423       -1438.224           0.251  
> 2023 05 18 00 01 33.6688020  0  7                     
G02  24263407.804      254981.307        2908.552           0.239  
G03  22344117.899      -39326.190        -509.406           0.255  
G04  23645049.204     -164614.400       -2131.979           0.244  
G05  22497851.675      159876.917        2026.833           0.255  
G06  20634136.957      -33334.287        -485.632           0.255  
G07  23423069.065      -89389.363       -1331.827           0.248  
G09  23121478.426      -86201.942       -1415.292           0.251  
> 2023 05 18 00 01 33.7688020  0  7                     
G02  24263334.490      255272.351        2909.554           0.239  
G03  22344130.910      -39377.161        -509.372           0.255  
G04  23645103.369     -164827.714       -2132.711           0.244  
G05  22497800.102      160079.491        2026.602           0.255  
G06  20634149.322      -33382.846        -485.648           0.255  
G07  23423102.433      -89522.033       -1326.697           0.248  
G09  23121515.133      -86346.095       -1438.902           0.251  
> 2023 05 18 00 01 33.8688020  0  7                     
G02  24263260.113      255563.397        2910.649           0.239  
G03  22344144.237      -39428.133        -509.264           0.255  
G04  23645157.662     -165041.024       -2133.154           0.244  
G05  22497748.658      160281.128        1921.681           0.255  
G06  20634161.491      -33431.399        -485.754           0.255  
G07  23423136.294      -89654.634       -1326.360           0.248  
G09  23121552.293      -86489.937       -1439.140           0.251  
> 2023 05 18 00 01 33.9688020  0  7                     
G02  24263186.462      255854.437        2910.670           0.239  
G03  22344157.383      -39479.131        -510.780           0.255  
G04  23645211.906     -165254.336       -2133.175           0.244  
G05  22497697.123      160484.679        2027.806           0.255  
G06  20634173.625      -33479.951        -484.764           0.255  
G07  23423169.897      -89787.239       -1326.433           0.248  
G09  23121588.861      -86633.771       -1438.643           0.251  
> 2023 05 18 00 01 34.0688020  0  7                     
G02  24263111.746      256145.475        2909.938           0.239  
G03  22344169.640      -39530.112        -509.248           0.255  
G04  23645266.340     -165467.645       -2132.781           0.244  
G05  22497645.354      160687.248        2024.261           0.255  
G06  20634186.244      -33528.514        -485.647           0.255  
G07  23423203.653      -89919.843       -1326.316           0.248  
G09  23121626.026      -86777.607       -1438.336           0.252  
> 2023 05 18 00 01 34.1688020  0  7                     
G02  24263036.438      256436.066        2863.703           0.239  
G03  22344182.622      -39581.109        -509.470           0.255  
G04  23645321.041     -165680.953       -2132.375           0.245  
G05  22497593.924      160889.935        1966.889           0.255  
G06  20634199.314      -33577.082        -485.833           0.255  
G07  23423237.369      -90052.549       -1361.406           0.248  
G09  23121661.483      -86921.921       -1484.753           0.252  
> 2023 05 18 00 01 34.2688020  0  7                     
G02  24262964.231      256727.547        2911.250           0.239  
G03  22344196.046      -39632.195        -519.930           0.255  
G04  23645376.217     -165894.263       -2133.538           0.244  
G05  22497542.061      161093.042        2057.632           0.255  
G06  20634211.673      -33625.644        -485.863           0.255  
G07  23423270.294      -90185.298       -1358.429           0.248  
G09  23121697.216      -87065.298       -1438.672           0.251  
> 2023 05 18 00 01 34.3688020  0  7                     
G02  24262891.342      257018.597        2910.774           0.239  
G03  22344208.843      -39683.076        -495.195           0.255  
G04  23645429.311     -166107.196       -2112.891           0.244  
G05  22497490.681      161294.227        1915.105           0.255  
G06  20634223.850      -33674.216        -485.469           0.255  
G07  23423303.523      -90318.086       -1375.570           0.248  
G09  23121734.552      -87209.118       -1439.022           0.251  
> 2023 05 18 00 01 34.4688020  0  7                     
G02  24262815.466      257309.633        2910.472           0.239  
G03  22344223.308      -39734.110        -509.821           0.255  
G04  23645483.113     -166320.901       -2134.387           0.244  
G05  22497439.257      161497.577        2027.349           0.255  
G06  20634234.714      -33722.795        -485.753           0.255  
G07  23423339.106      -90450.302       -1326.530           0.248  
G09  23121771.104      -87352.952       -1437.911           0.252  
> 2023 05 18 00 01 34.5688020  0  7                     
G02  24262741.709      257600.681        2910.743           0.239  
G03  22344235.682      -39785.131        -510.823           0.255  
G04  23645537.276     -166534.216       -2133.226           0.244  
G05  22497387.665      161700.142        2023.703           0.255  
G06  20634248.170      -33771.370        -485.634           0.255  
G07  23423373.718      -90582.922       -1326.269           0.248  
G09  23121807.065      -87496.771       -1442.659           0.252  
> 2023 05 18 00 01 34.6688020  0  7                     
G02  24262667.499      257891.712        2910.331           0.239  
G03  22344248.522      -39836.143        -510.693           0.255  
G04  23645592.605     -166747.539       -2133.313           0.244  
G05  22497335.756      161902.731        2027.308           0.255  
G06  20634259.179      -33819.954        -485.744           0.255  
G07  23423407.516      -90715.550       -1326.591           0.248  
G09  23121847.677      -87640.639       -1438.577           0.252  
> 2023 05 18 00 01 34.7688020  0  7                     
G02  24262593.332      258182.765        2910.103           0.239  
G03  22344261.089      -39887.158        -509.811           0.255  
G04  23645647.019     -166960.860       -2133.345           0.244  
G05  22497283.947      162105.278        2024.680           0.255  
G06  20634272.271      -33868.540        -486.223           0.255  
G07  23423441.288      -90848.175       -1326.212           0.248  
G09  23121882.462      -87784.482       -1438.799           0.252  
> 2023 05 18 00 01 34.8688020  0  7                     
G02  24262518.559      258473.797        2910.392           0.239  
G03  22344274.306      -39938.186        -510.006           0.255  
G04  23645701.526     -167174.168       -2132.614           0.244  
G05  22497232.549      162307.875        2026.804           0.255  
G06  20634285.238      -33917.129        -486.365           0.255  
G07  23423475.670      -90980.804       -1325.903           0.248  
G09  23121916.032      -87928.327       -1438.678           0.251  
> 2023 05 18 00 01 34.9688020  0  7                     
G02  24262444.796      258764.555        2890.143           0.239  
G03  22344287.649      -39989.711        -536.968           0.255  
G04  23645755.749     -167387.378       -2089.651           0.244  
G05  22497180.982      162510.671        2097.160           0.255  
G06  20634297.651      -33965.719        -485.961           0.255  
G07  23423508.559      -91113.439       -1326.237           0.248  
G09  23121954.615      -88072.315       -1474.404           0.251  
> 2023 05 18 00 01 35.0688020  0  7                     
G02  24262369.736      259055.914        2932.860           0.239  
G03  22344300.173      -40040.503        -517.266           0.255  
G04  23645809.971     -167600.831       -2132.535           0.244  
G05  22497129.624      162712.989        2024.654           0.255  
G06  20634309.671      -34014.312        -486.149           0.255  
G07  23423541.668      -91246.068       -1305.616           0.248  
G09  23121992.119      -88216.645       -1537.649           0.251  
> 2023 05 18 00 01 35.1688020  0  7                     
G02  24262296.551      259346.931        2910.706           0.239  
G03  22344312.765      -40091.295        -510.127           0.255  
G04  23645864.262     -167814.153       -2132.665           0.244  
G05  22497077.666      162916.250        2093.608           0.255  
G06  20634322.544      -34062.909        -486.216           0.255  
G07  23423575.266      -91378.702       -1328.448           0.248  
G09  23122029.072      -88359.717       -1427.688           0.251  
> 2023 05 18 00 01 35.2688020  0  7                     
G02  24262224.395      259637.964        2910.695           0.239  
G03  22344327.071      -40142.334        -510.669           0.255  
G04  23645918.160     -168027.491       -2133.424           0.244  
G05  22497025.318      163118.099        2022.786           0.255  
G06  20634334.424      -34111.514        -486.182           0.255  
G07  23423608.870      -91511.368       -1317.061           0.248  
G09  23122064.702      -88503.523       -1406.169           0.252  
> 2023 05 18 00 01 35.3688020  0  7                     
G02  24262148.641      259929.007        2909.932           0.239  
G03  22344339.987      -40193.382        -510.519           0.255  
G04  23645972.551     -168240.811       -2132.762           0.244  
G05  22496974.357      163320.673        2027.427           0.255  
G06  20634347.032      -34160.118        -485.759           0.255  
G07  23423642.865      -91644.006       -1327.114           0.248  
G09  23122101.238      -88647.532       -1439.070           0.251  
