     3.03           OBSERVATION DATA    M: Mixed            RINEX VERSION / TYPE
GNSS-SDRLIB v1.1                        20230710 093931 UTC PGM / RUN BY / DATE 
                                                            MARKER NAME         
                                                            MARKER NUMBER       
                                                            MARKER TYPE         
                                                            OBSERVER / AGENCY   
GNSS-SDRLIB         GNSS-SDRLIB         1.1                 REC # / TYPE / VERS 
                                                            ANT # / TYPE        
        0.0000        0.0000        0.0000                  APPROX POSITION XYZ 
        0.0000        0.0000        0.0000                  ANTENNA: DELTA H/E/N
G    4 C1C L1C D1C S1C                                      SYS / # / OBS TYPES 
R    4 C1C L1C D1C S1C                                      SYS / # / OBS TYPES 
E    4 C1C L1C D1C S1C                                      SYS / # / OBS TYPES 
J    4 C1C L1C D1C S1C                                      SYS / # / OBS TYPES 
S    4 C1C L1C D1C S1C                                      SYS / # / OBS TYPES 
C    4 C1C L1C D1C S1C                                      SYS / # / OBS TYPES 
  1970    01    01    00    00   00.0000000     GPS         TIME OF FIRST OBS   
  1970    01    01    00    00   00.0000000     GPS         TIME OF LAST OBS    
G L1C  0.00000                                              SYS / PHASE SHIFT   
R L1C  0.00000                                              SYS / PHASE SHIFT   
E L1C  0.00000                                              SYS / PHASE SHIFT   
J L1C  0.00000                                              SYS / PHASE SHIFT   
S L1C  0.00000                                              SYS / PHASE SHIFT   
C L1C  0.00000                                              SYS / PHASE SHIFT   
  0                                                         GLONASS SLOT / FRQ #
 C1C    0.000 C1P    0.000 C2C    0.000 C2P    0.000        GLONASS COD/PHS/BIS 
                                                            END OF HEADER       
> 2023 05 18 00 00 36.0688020  0  3                     
G02  22336826.875      -12312.722        -483.746           0.255  
G04  22527681.496       48701.584        2039.323           0.255  
G05  20627155.022       -7393.716        -465.753           0.255  
> 2023 05 18 00 00 36.0688020  0  5                     
G02  22336826.875      -12312.722        -483.746           0.255  
G03  23613783.522      -46768.557       -2128.251           0.244  
G04  22527681.496       48701.584        2039.323           0.255  
G05  20627155.022       -7393.716        -465.753           0.255  
G07  23100397.122       -8665.417       -1434.850           0.252  
> 2023 05 18 00 00 36.0688020  0  6                     
G01  24306131.437       95987.909        2911.706           0.239  
G02  22336826.875      -12312.722        -483.746           0.255  
G03  23613783.522      -46768.557       -2128.251           0.244  
G04  22527681.496       48701.584        2039.323           0.255  
G05  20627155.022       -7393.716        -465.753           0.255  
G07  23100397.122       -8665.417       -1434.850           0.252  
> 2023 05 18 00 00 36.0688020  0  7                     
G01  24306131.437       95987.909        2911.706           0.239  
G02  22336826.875      -12312.722        -483.746           0.255  
G03  23613783.522      -46768.557       -2128.251           0.244  
G04  22527681.496       48701.584        2039.323           0.255  
G05  20627155.022       -7393.716        -465.753           0.255  
G06  23403729.680      -16526.423       -1337.326           0.248  
G07  23100397.122       -8665.417       -1434.850           0.252  
> 2023 05 18 00 00 36.1688020  0  7                     
G01  24306059.517       96279.002        2912.262           0.239  
G02  22336839.096      -12362.489        -605.309           0.255  
G03  23613838.994      -46981.251       -2126.671           0.244  
G04  22527629.721       48905.941        2141.331           0.255  
G05  20627166.896       -7440.294        -467.500           0.255  
G06  23403761.823      -16657.287       -1309.770           0.248  
G07  23100433.681       -8808.324       -1433.764           0.251  
> 2023 05 18 00 00 36.2688020  0  7                     
G01  24305984.028       96570.090        2911.441           0.239  
G02  22336851.357      -12409.492        -483.170           0.255  
G03  23613893.552      -47193.949       -2126.286           0.244  
G04  22527578.075       49109.227        2047.520           0.255  
G05  20627178.452       -7486.858        -467.089           0.255  
G06  23403795.766      -16788.295       -1284.571           0.248  
G07  23100471.917       -8952.003       -1460.110           0.251  
> 2023 05 18 00 00 36.3688020  0  7                     
G01  24305909.765       96861.187        2912.697           0.239  
G02  22336863.716      -12457.897        -488.801           0.255  
G03  23613947.443      -47406.646       -2127.049           0.244  
G04  22527526.291       49313.157        2037.200           0.255  
G05  20627190.820       -7533.429        -463.278           0.255  
G06  23403828.872      -16919.116       -1308.109           0.248  
G07  23100507.137       -9095.162       -1433.825           0.252  
> 2023 05 18 00 00 36.4688020  0  7                     
G01  24305835.618       97152.270        2911.342           0.239  
G02  22336876.046      -12506.232        -488.723           0.255  
G03  23614001.273      -47619.347       -2127.352           0.244  
G04  22527474.249       49517.020        2038.526           0.255  
G05  20627202.722       -7580.045        -463.944           0.255  
G06  23403862.382      -17050.038       -1309.044           0.248  
G07  23100544.034       -9238.566       -1433.021           0.251  
> 2023 05 18 00 00 36.5688020  0  7                     
G01  24305761.210       97443.356        2910.232           0.239  
G02  22336888.555      -12554.577        -482.000           0.255  
G03  23614054.456      -47832.044       -2126.502           0.244  
G04  22527422.239       49720.876        2039.040           0.255  
G05  20627214.824       -7626.652        -467.456           0.255  
G06  23403895.474      -17180.967       -1309.018           0.248  
G07  23100580.810       -9381.989       -1433.272           0.251  
> 2023 05 18 00 00 36.6688020  0  7                     
G01  24305684.667       97734.448        2910.693           0.239  
G02  22336901.343      -12603.011        -479.561           0.255  
G03  23614109.835      -48044.755       -2127.558           0.244  
G04  22527370.726       49924.729        2039.024           0.255  
G05  20627226.157       -7673.221        -468.378           0.255  
G06  23403929.610      -17311.888       -1309.611           0.248  
G07  23100616.094       -9525.415       -1434.734           0.252  
> 2023 05 18 00 00 36.7688020  0  7                     
G01  24305612.444       98025.533        2912.172           0.239  
G02  22336913.447      -12651.455        -483.650           0.255  
G03  23614163.789      -48257.445       -2127.323           0.244  
G04  22527318.578       50128.574        2038.652           0.255  
G05  20627238.280       -7719.794        -466.643           0.255  
G06  23403962.899      -17442.824       -1310.006           0.248  
G07  23100651.835       -9668.831       -1434.660           0.251  
> 2023 05 18 00 00 36.8688020  0  7                     
G01  24305541.566       98316.619        2911.559           0.239  
G02  22336926.260      -12699.343        -457.613           0.255  
G03  23614217.908      -48470.157       -2134.052           0.244  
G04  22527266.507       50332.423        2039.373           0.255  
G05  20627250.327       -7766.371        -463.772           0.255  
G06  23403994.379      -17573.763       -1309.171           0.248  
G07  23100688.685       -9812.262       -1434.890           0.251  
> 2023 05 18 00 00 36.9688020  0  7                     
G01  24305465.373       98607.719        2911.076           0.239  
G02  22336937.829      -12748.241        -487.613           0.255  
G03  23614272.224      -48682.849       -2126.800           0.244  
G04  22527213.853       50536.265        2037.553           0.255  
G05  20627262.189       -7813.000        -464.839           0.255  
G06  23404027.855      -17704.704       -1302.587           0.248  
G07  23100726.914       -9955.678       -1432.557           0.252  
> 2023 05 18 00 00 37.0688020  0  7                     
G01  24305391.862       98898.806        2911.365           0.239  
G02  22336950.361      -12796.606        -483.251           0.255  
G03  23614326.210      -48895.551       -2127.024           0.244  
G04  22527162.539       50740.105        2036.986           0.255  
G05  20627273.817       -7859.638        -467.482           0.255  
G06  23404062.022      -17835.488       -1286.298           0.248  
G07  23100763.534      -10099.371       -1441.290           0.252  
> 2023 05 18 00 00 37.1688020  0  7                     
G01  24305317.964       99189.894        2911.239           0.239  
G02  22336962.488      -12845.057        -479.193           0.255  
G03  23614380.108      -49108.255       -2127.365           0.244  
G04  22527109.644       50943.957        2039.539           0.255  
G05  20627286.035       -7906.225        -468.068           0.255  
G06  23404095.587      -17966.583       -1309.787           0.248  
G07  23100799.530      -10242.520       -1435.180           0.251  
> 2023 05 18 00 00 37.2688020  0  7                     
G01  24305242.270       99480.986        2910.987           0.239  
G02  22336975.208      -12893.523        -480.304           0.255  
G03  23614434.529      -49320.960       -2127.740           0.244  
G04  22527058.214       51147.791        2038.294           0.255  
G05  20627296.970       -7952.812        -467.315           0.255  
G06  23404129.272      -18097.526       -1309.149           0.248  
G07  23100837.303      -10385.937       -1435.092           0.252  
> 2023 05 18 00 00 37.3688020  0  7                     
G01  24305165.102       99772.069        2910.461           0.239  
G02  22336987.223      -12941.991        -488.485           0.255  
G03  23614488.644      -49533.661       -2126.314           0.244  
G04  22527006.171       51351.506        2061.541           0.255  
G05  20627309.994       -7999.406        -463.642           0.255  
G06  23404161.620      -18228.421       -1336.924           0.248  
G07  23100872.777      -10529.373       -1435.650           0.252  
> 2023 05 18 00 00 37.4688020  0  7                     
G01  24305092.388      100063.176        2914.904           0.239  
G02  22337000.830      -12990.368        -484.117           0.255  
G03  23614542.282      -49746.372       -2128.177           0.244  
G04  22526955.085       51555.442        2039.229           0.255  
G05  20627321.301       -8046.062        -466.654           0.255  
G06  23404194.982      -18359.439       -1310.211           0.248  
G07  23100908.958      -10672.779       -1434.768           0.250  
> 2023 05 18 00 00 37.5688020  0  7                     
G01  24305019.837      100354.249        2911.205           0.239  
G02  22337011.549      -13036.358        -260.104           0.255  
G03  23614596.703      -49958.904       -2117.271           0.244  
G04  22526902.561       51759.810        2108.428           0.255  
G05  20627333.351       -8092.692        -465.430           0.255  
G06  23404229.039      -18490.297       -1294.965           0.248  
G07  23100945.442      -10816.556       -1635.738           0.251  
> 2023 05 18 00 00 37.6688020  0  7                     
G01  24304945.971      100645.322        2909.291           0.239  
G02  22337022.650      -13087.195        -481.526           0.255  
G03  23614650.140      -50171.780       -2126.484           0.244  
G04  22526851.929       51963.104        2037.365           0.255  
G05  20627346.446       -8139.329        -467.379           0.255  
G06  23404263.523      -18621.349       -1309.812           0.248  
G07  23100980.552      -10959.631       -1435.498           0.250  
> 2023 05 18 00 00 37.7688020  0  7                     
G01  24304870.365      100936.431        2911.409           0.238  
G02  22337036.418      -13135.679        -480.530           0.255  
G03  23614706.488      -50384.497       -2126.448           0.244  
G04  22526799.344       52166.938        2039.102           0.255  
G05  20627357.280       -8185.938        -468.323           0.255  
G06  23404297.097      -18752.312       -1309.475           0.248  
G07  23101017.689      -11103.060       -1433.579           0.251  
> 2023 05 18 00 00 37.8688020  0  7                     
G01  24304796.565      101227.488        2908.474           0.238  
G02  22337049.774      -13184.109        -482.680           0.255  
G03  23614759.874      -50597.234       -2123.214           0.244  
G04  22526748.326       52370.759        2037.978           0.255  
G05  20627368.638       -8232.571        -467.004           0.255  
G06  23404329.030      -18883.367       -1344.136           0.248  
G07  23101055.138      -11247.065       -1429.267           0.252  
> 2023 05 18 00 00 37.9688020  0  7                     
G01  24304720.737      101518.593        2907.778           0.239  
G02  22337061.428      -13232.564        -481.213           0.255  
G03  23614813.639      -50809.927       -2126.512           0.244  
G04  22526694.919       52574.581        2037.981           0.255  
G05  20627380.665       -8279.215        -467.852           0.255  
G06  23404362.664      -19014.249       -1310.340           0.248  
G07  23101092.540      -11389.920       -1434.429           0.252  
> 2023 05 18 00 00 38.0688020  0  7                     
G01  24304648.473      101809.713        2910.867           0.239  
G02  22337072.922      -13281.038        -481.843           0.255  
G03  23614868.264      -51022.645       -2128.076           0.244  
G04  22526643.177       52778.397        2038.015           0.255  
G05  20627393.057       -8325.847        -468.445           0.255  
G06  23404396.085      -19145.215       -1310.138           0.248  
G07  23101128.835      -11533.357       -1435.290           0.252  
> 2023 05 18 00 00 38.1688020  0  7                     
G01  24304576.502      102100.797        2912.224           0.238  
G02  22337086.389      -13329.489        -483.467           0.255  
G03  23614920.898      -51235.362       -2127.476           0.244  
G04  22526591.414       52982.229        2036.796           0.255  
G05  20627404.576       -8372.503        -466.784           0.255  
G06  23404429.477      -19276.190       -1309.917           0.248  
G07  23101164.939      -11676.770       -1435.502           0.251  
> 2023 05 18 00 00 38.2688020  0  7                     
G01  24304499.084      102391.861        2909.155           0.239  
G02  22337098.113      -13377.986        -482.889           0.255  
G03  23614975.741      -51448.073       -2127.024           0.244  
G04  22526539.236       53186.042        2037.594           0.255  
G05  20627416.864       -8419.132        -468.298           0.255  
G06  23404463.728      -19407.166       -1309.939           0.248  
G07  23101199.434      -11820.199       -1433.741           0.252  
> 2023 05 18 00 00 38.3688020  0  7                     
G01  24304425.058      102682.966        2911.091           0.239  
G02  22337110.543      -13427.922        -544.119           0.255  
G03  23615030.249      -51660.856       -2158.059           0.244  
G04  22526487.456       53389.344        1900.763           0.255  
G05  20627428.599       -8465.780        -466.519           0.255  
G06  23404495.746      -19537.955       -1302.725           0.248  
G07  23101237.994      -11963.629       -1433.083           0.251  
> 2023 05 18 00 00 38.4688020  0  7                     
G01  24304352.459      102974.048        2909.568           0.239  
G02  22337123.221      -13474.970        -485.769           0.255  
G03  23615084.370      -51873.515       -2128.408           0.244  
G04  22526436.327       53594.063        2102.864           0.255  
G05  20627440.079       -8512.419        -465.005           0.255  
G06  23404529.497      -19669.331       -1321.790           0.248  
G07  23101275.738      -12106.774       -1405.022           0.251  
> 2023 05 18 00 00 38.5688020  0  7                     
G01  24304280.622      103265.137        2910.404           0.239  
G02  22337136.535      -13523.175        -456.835           0.255  
G03  23615139.018      -52086.241       -2115.198           0.244  
G04  22526383.296       53797.833        2121.433           0.255  
G05  20627451.399       -8559.092        -465.783           0.255  
G06  23404563.547      -19800.000       -1309.607           0.248  
G07  23101310.972      -12250.263       -1445.597           0.252  
> 2023 05 18 00 00 38.6688020  0  7                     
G01  24304206.192      103556.233        2912.694           0.239  
G02  22337148.425      -13571.903        -485.304           0.255  
G03  23615193.213      -52298.934       -2126.017           0.244  
G04  22526333.218       54001.264        2035.500           0.255  
G05  20627463.393       -8605.758        -465.474           0.255  
G06  23404597.151      -19931.100       -1310.214           0.248  
G07  23101348.713      -12393.935       -1435.284           0.251  
> 2023 05 18 00 00 38.7688020  0  7                     
G01  24304128.162      103847.324        2912.573           0.239  
G02  22337160.396      -13620.396        -485.086           0.255  
G03  23615248.464      -52511.650       -2126.374           0.244  
G04  22526280.313       54205.082        2037.310           0.255  
G05  20627475.208       -8652.416        -466.275           0.255  
G06  23404629.779      -20062.094       -1309.999           0.248  
G07  23101385.353      -12537.372       -1434.213           0.250  
> 2023 05 18 00 00 38.8688020  0  7                     
G01  24304054.758      104138.393        2909.193           0.239  
G02  22337173.173      -13668.904        -485.938           0.255  
G03  23615301.924      -52724.390       -2127.204           0.244  
G04  22526227.176       54408.884        2038.106           0.255  
G05  20627487.689       -8699.078        -466.356           0.255  
G06  23404663.968      -20193.088       -1310.019           0.248  
G07  23101419.498      -12680.817       -1434.056           0.252  
> 2023 05 18 00 00 38.9688020  0  7                     
G01  24303978.714      104429.328        2861.472           0.239  
G02  22337184.775      -13716.906        -450.676           0.255  
G03  23615357.327      -52936.937       -2093.605           0.244  
G04  22526175.093       54611.997        1801.557           0.255  
G05  20627499.680       -8745.746        -465.833           0.255  
G06  23404696.516      -20323.970       -1286.511           0.248  
G07  23101458.321      -12824.219       -1471.331           0.251  
> 2023 05 18 00 00 39.0688020  0  7                     
G01  24303907.325      104720.582        2909.562           0.239  
G02  22337196.994      -13765.933        -488.101           0.255  
G03  23615407.691      -53149.840       -2126.050           0.244  
G04  22526123.818       54816.498        2037.947           0.255  
G05  20627511.967       -8792.405        -464.851           0.255  
G06  23404730.677      -20455.121       -1288.810           0.248  
G07  23101494.070      -12968.325       -1492.691           0.251  
> 2023 05 18 00 00 39.1688020  0  7                     
G01  24303831.250      105011.689        2897.775           0.239  
G02  22337209.549      -13815.073        -469.405           0.255  
G03  23615462.920      -53362.568       -2127.201           0.244  
G04  22526071.544       55019.946        1974.949           0.255  
G05  20627524.006       -8839.079        -465.839           0.255  
G06  23404764.190      -20586.087       -1309.902           0.248  
G07  23101529.486      -13111.074       -1467.570           0.252  
> 2023 05 18 00 00 39.2688020  0  7                     
G01  24303756.952      105302.772        2910.914           0.240  
G02  22337221.281      -13862.903        -484.114           0.255  
G03  23615518.375      -53575.295       -2127.659           0.244  
G04  22526020.180       55224.074        2037.171           0.255  
G05  20627535.367       -8885.788        -467.160           0.255  
G06  23404797.054      -20717.099       -1310.248           0.248  
G07  23101567.409      -13254.559       -1435.492           0.251  
> 2023 05 18 00 00 39.3688020  0  7                     
G01  24303680.619      105593.858        2911.388           0.239  
G02  22337233.449      -13911.439        -484.733           0.255  
G03  23615573.490      -53788.014       -2126.340           0.244  
G04  22525969.253       55427.871        2038.380           0.255  
G05  20627547.623       -8932.460        -467.399           0.255  
G06  23404830.077      -20848.096       -1309.201           0.248  
G07  23101604.029      -13398.007       -1434.698           0.251  
> 2023 05 18 00 00 39.4688020  0  7                     
G01  24303607.365      105884.946        2910.801           0.239  
G02  22337246.536      -13959.976        -485.212           0.255  
G03  23615627.415      -54000.757       -2127.736           0.244  
G04  22525916.518       55631.664        2038.813           0.255  
G05  20627559.388       -8979.141        -467.143           0.255  
G06  23404863.558      -20979.071       -1309.022           0.248  
G07  23101640.149      -13541.441       -1434.835           0.251  
> 2023 05 18 00 00 39.5688020  0  7                     
G01  24303533.480      106176.026        2910.490           0.239  
G02  22337259.801      -14008.477        -485.881           0.255  
G03  23615681.435      -54213.485       -2127.643           0.244  
G04  22525863.750       55835.454        2038.676           0.255  
G05  20627570.929       -9025.845        -467.129           0.255  
G06  23404896.916      -21110.132       -1310.664           0.248  
G07  23101675.542      -13684.887       -1434.389           0.252  
> 2023 05 18 00 00 39.6688020  0  7                     
G01  24303461.542      106467.117        2910.422           0.239  
G02  22337271.269      -14057.009        -484.227           0.255  
G03  23615734.540      -54426.216       -2128.157           0.244  
G04  22525812.156       56039.229        2036.680           0.255  
G05  20627582.732       -9072.542        -466.945           0.255  
G06  23404930.907      -21241.143       -1310.163           0.248  
G07  23101713.505      -13828.319       -1434.034           0.252  
> 2023 05 18 00 00 39.7688020  0  7                     
G01  24303387.783      106758.199        2910.233           0.239  
G02  22337284.169      -14105.574        -485.436           0.255  
G03  23615790.245      -54638.942       -2127.447           0.244  
G04  22525759.749       56243.016        2038.146           0.255  
G05  20627594.428       -9119.227        -466.819           0.255  
G06  23404963.777      -21372.161       -1310.365           0.248  
G07  23101750.327      -13971.758       -1434.264           0.251  
> 2023 05 18 00 00 39.8688020  0  7                     
G01  24303312.538      107049.303        2911.788           0.239  
G02  22337296.085      -14154.107        -484.474           0.255  
G03  23615843.970      -54851.683       -2127.836           0.244  
G04  22525708.015       56446.805        2039.169           0.255  
G05  20627606.203       -9165.927        -467.903           0.255  
G06  23404996.937      -21503.186       -1310.082           0.248  
G07  23101787.216      -14115.206       -1434.458           0.251  
> 2023 05 18 00 00 39.9688020  0  7                     
G01  24303239.035      107339.716        2765.570           0.239  
G02  22337309.623      -14203.425        -651.865           0.255  
G03  23615898.660      -55064.408       -2128.070           0.244  
G04  22525655.898       56650.576        2038.822           0.255  
G05  20627618.436       -9212.636        -467.585           0.255  
G06  23405030.300      -21634.081       -1280.433           0.248  
G07  23101822.256      -14258.650       -1473.336           0.251  
> 2023 05 18 00 00 40.0688020  0  7                     
G01  24303163.822      107631.475        2910.970           0.239  
G02  22337321.353      -14251.187        -483.504           0.255  
G03  23615952.444      -55277.217       -2112.913           0.244  
G04  22525604.145       56854.357        2038.518           0.255  
G05  20627630.605       -9259.343        -467.849           0.255  
G06  23405063.796      -21765.240       -1309.773           0.248  
G07  23101859.165      -14402.101       -1434.695           0.252  
> 2023 05 18 00 00 40.1688020  0  7                     
G01  24303089.807      107922.556        2910.222           0.240  
G02  22337333.252      -14299.761        -485.894           0.255  
G03  23616007.698      -55489.881       -2126.786           0.244  
G04  22525552.539       57058.115        2036.669           0.255  
G05  20627642.770       -9306.050        -466.646           0.255  
G06  23405096.485      -21896.268       -1309.668           0.248  
G07  23101896.525      -14545.544       -1434.802           0.251  
> 2023 05 18 00 00 40.2688020  0  7                     
G01  24303016.705      108213.666        2910.769           0.239  
G02  22337344.180      -14348.321        -485.646           0.255  
G03  23616060.919      -55702.278       -2095.004           0.244  
G04  22525500.362       57261.894        2038.486           0.255  
G05  20627654.595       -9352.765        -465.896           0.255  
G06  23405129.890      -22027.312       -1310.575           0.248  
G07  23101933.344      -14688.982       -1436.390           0.251  
> 2023 05 18 00 00 40.3688020  0  7                     
G01  24302942.234      108504.743        2911.027           0.239  
G02  22337356.711      -14396.891        -489.132           0.255  
G03  23616114.562      -55915.360       -2127.998           0.244  
G04  22525447.794       57465.670        2038.252           0.255  
G05  20627666.993       -9399.487        -465.669           0.255  
G06  23405164.178      -22158.346       -1311.050           0.248  
G07  23101968.682      -14832.425       -1433.818           0.251  
> 2023 05 18 00 00 40.4688020  0  7                     
G01  24302868.977      108795.846        2912.453           0.239  
G02  22337369.644      -14445.426        -488.524           0.255  
G03  23616169.326      -56128.097       -2127.305           0.244  
G04  22525396.942       57669.441        2039.568           0.255  
G05  20627678.493       -9446.220        -465.988           0.255  
G06  23405196.988      -22289.386       -1309.984           0.248  
G07  23102005.807      -14975.873       -1433.723           0.252  
> 2023 05 18 00 00 40.5688020  0  7                     
G01  24302796.075      109086.922        2911.101           0.239  
G02  22337382.587      -14493.994        -486.221           0.255  
G03  23616223.392      -56340.843       -2127.309           0.244  
G04  22525346.446       57872.915        1987.817           0.255  
G05  20627690.884       -9492.949        -467.187           0.255  
G06  23405231.403      -22420.431       -1309.885           0.248  
G07  23102040.848      -15119.320       -1435.065           0.251  
> 2023 05 18 00 00 40.6688020  0  7                     
G01  24302720.779      109378.020        2911.483           0.239  
G02  22337394.370      -14542.575        -483.716           0.255  
G03  23616277.435      -56553.582       -2126.384           0.244  
G04  22525293.045       58076.966        2037.257           0.255  
G05  20627702.219       -9539.674        -468.070           0.255  
G06  23405263.575      -22551.477       -1309.959           0.248  
G07  23102079.911      -15262.760       -1435.021           0.252  
> 2023 05 18 00 00 40.7688020  0  7                     
G01  24302645.713      109669.101        2910.121           0.239  
G02  22337407.038      -14591.179        -482.368           0.255  
G03  23616331.312      -56766.332       -2127.384           0.244  
G04  22525240.258       58281.125        2109.954           0.255  
G05  20627714.419       -9586.402        -469.200           0.255  
G06  23405296.741      -22682.526       -1310.147           0.248  
G07  23102116.610      -15405.943       -1413.072           0.251  
> 2023 05 18 00 00 40.8688020  0  7                     
G01  24302571.307      109960.185        2910.955           0.239  
G02  22337418.934      -14640.309        -574.349           0.255  
G03  23616386.609      -56979.072       -2130.266           0.244  
G04  22525190.131       58484.487        2038.424           0.255  
G05  20627725.196       -9633.137        -468.156           0.255  
G06  23405331.153      -22813.582       -1310.422           0.248  
G07  23102154.497      -15549.660       -1435.538           0.251  
> 2023 05 18 00 00 40.9688020  0  7                     
G01  24302499.671      110251.284        2910.809           0.239  
G02  22337430.650      -14688.395        -488.960           0.255  
G03  23616441.233      -57191.819       -2127.091           0.244  
G04  22525136.350       58688.249        2037.366           0.255  
G05  20627738.149       -9679.847        -464.945           0.255  
G06  23405365.051      -22944.674       -1309.802           0.248  
G07  23102187.419      -15693.122       -1436.327           0.252  
> 2023 05 18 00 00 41.0688020  0  7                     
G01  24302423.649      110542.367        2911.752           0.239  
G02  22337444.299      -14736.793        -471.096           0.255  
G03  23616493.036      -57404.870       -2152.527           0.244  
G04  22525085.112       58892.183        2009.873           0.255  
G05  20627749.505       -9726.608        -465.994           0.255  
G06  23405397.563      -23075.703       -1310.859           0.248  
G07  23102227.471      -15836.565       -1434.410           0.252  
> 2023 05 18 00 00 41.1688020  0  7                     
G01  24302349.006      110833.451        2911.186           0.239  
G02  22337455.563      -14785.543        -487.275           0.255  
G03  23616547.911      -57617.313       -2127.237           0.244  
G04  22525033.180       59095.761        2038.031           0.255  
G05  20627762.454       -9773.369        -466.724           0.255  
G06  23405431.369      -23206.760       -1311.489           0.248  
G07  23102261.675      -15980.010       -1435.122           0.251  
> 2023 05 18 00 00 41.2688020  0  7                     
G01  24302276.142      111124.534        2910.179           0.239  
G02  22337469.324      -14834.143        -487.402           0.255  
G03  23616603.066      -57830.064       -2128.068           0.244  
G04  22524981.788       59299.506        2038.589           0.255  
G05  20627774.061       -9820.121        -467.937           0.255  
G06  23405463.262      -23337.824       -1310.561           0.248  
G07  23102298.790      -16123.457       -1434.285           0.252  
> 2023 05 18 00 00 41.3688020  0  7                     
G01  24302201.888      111415.630        2910.612           0.239  
G02  22337481.029      -14882.773        -489.303           0.255  
G03  23616658.002      -58042.812       -2127.658           0.244  
G04  22524929.150       59503.244        2038.399           0.255  
G05  20627785.662       -9866.859        -465.830           0.255  
G06  23405497.274      -23468.892       -1311.085           0.248  
G07  23102334.760      -16266.907       -1432.786           0.251  
> 2023 05 18 00 00 41.4688020  0  7                     
G01  24302126.311      111706.723        2910.754           0.239  
G02  22337493.000      -14931.379        -485.336           0.255  
G03  23616711.393      -58255.440       -2079.091           0.244  
G04  22524876.386       59706.665        2004.354           0.255  
G05  20627797.798       -9913.616        -468.589           0.255  
G06  23405530.287      -23600.233       -1327.602           0.247  
G07  23102373.144      -16410.366       -1432.131           0.252  
> 2023 05 18 00 00 41.5688020  0  7                     
G01  24302051.594      111997.829        2911.141           0.239  
G02  22337506.700      -14980.015        -486.068           0.255  
G03  23616765.001      -58468.310       -2127.212           0.244  
G04  22524825.134       59910.744        2038.080           0.255  
G05  20627809.020       -9960.369        -467.727           0.255  
G06  23405565.283      -23731.102       -1330.153           0.248  
G07  23102408.546      -16553.358       -1355.687           0.251  
> 2023 05 18 00 00 41.6688020  0  7                     
G01  24301977.676      112288.895        2909.737           0.239  
G02  22337519.196      -15028.639        -489.159           0.255  
G03  23616819.668      -58681.064       -2127.840           0.244  
G04  22524772.038       60114.484        2038.284           0.255  
G05  20627820.865      -10007.134        -467.700           0.255  
G06  23405598.405      -23862.121       -1310.936           0.248  
G07  23102443.645      -16697.271       -1432.832           0.252  
> 2023 05 18 00 00 41.7688020  0  7                     
G01  24301903.549      112579.987        2910.456           0.239  
G02  22337531.327      -15077.263        -491.296           0.255  
G03  23616873.540      -58893.813       -2126.140           0.244  
G04  22524721.966       60318.218        2036.127           0.255  
G05  20627833.264      -10053.897        -465.750           0.255  
G06  23405631.477      -23993.194       -1310.253           0.248  
G07  23102480.729      -16840.747       -1433.477           0.252  
> 2023 05 18 00 00 41.8688020  0  7                     
G01  24301829.730      112871.085        2911.147           0.239  
G02  22337543.951      -15125.853        -489.903           0.255  
G03  23616927.403      -59106.564       -2126.813           0.244  
G04  22524669.571       60521.963        2037.987           0.255  
G05  20627844.866      -10100.694        -466.283           0.255  
G06  23405665.000      -24124.271       -1309.976           0.248  
G07  23102518.333      -16984.123       -1409.497           0.252  
> 2023 05 18 00 00 41.9688020  0  7                     
G01  24301755.318      113162.164        2911.294           0.239  
G02  22337556.409      -15174.451        -484.400           0.255  
G03  23616982.154      -59319.332       -2127.291           0.244  
G04  22524618.410       60725.698        2037.502           0.255  
G05  20627856.495      -10147.480        -468.730           0.255  
G06  23405697.866      -24255.359       -1310.877           0.248  
G07  23102554.849      -17127.669       -1435.220           0.251  
> 2023 05 18 00 00 42.0688020  0  7                     
G01  24301678.976      113453.261        2912.229           0.239  
G02  22337568.342      -15223.123        -483.596           0.255  
G03  23617037.174      -59532.086       -2126.558           0.244  
G04  22524566.465       60929.434        2037.983           0.255  
G05  20627869.211      -10194.247        -469.737           0.255  
G06  23405731.803      -24386.450       -1311.143           0.248  
G07  23102589.826      -17271.123       -1434.155           0.251  
> 2023 05 18 00 00 42.1688020  0  7                     
G01  24301605.982      113744.357        2911.019           0.239  
G02  22337581.640      -15271.796        -482.782           0.255  
G03  23617091.480      -59744.844       -2127.333           0.244  
G04  22524515.354       61133.153        2035.579           0.255  
G05  20627880.641      -10241.011        -470.555           0.255  
G06  23405764.787      -24517.537       -1310.814           0.248  
G07  23102626.746      -17414.564       -1433.410           0.252  
> 2023 05 18 00 00 42.2688020  0  7                     
G01  24301532.825      114035.448        2911.646           0.239  
G02  22337592.005      -15321.543        -552.235           0.255  
G03  23617145.229      -59957.605       -2127.254           0.244  
G04  22524462.047       61336.901        2038.800           0.255  
G05  20627893.156      -10287.776        -469.379           0.255  
G06  23405799.179      -24648.689       -1354.744           0.248  
G07  23102663.577      -17558.043       -1433.927           0.251  
> 2023 05 18 00 00 42.3688020  0  7                     
G01  24301458.963      114326.515        2909.914           0.239  
G02  22337605.853      -15369.137        -488.879           0.255  
G03  23617199.216      -60170.363       -2127.139           0.244  
G04  22524410.286       61540.622        2037.662           0.255  
G05  20627904.899      -10334.561        -466.619           0.255  
G06  23405832.378      -24779.727       -1311.497           0.248  
G07  23102700.345      -17701.495       -1433.973           0.251  
> 2023 05 18 00 00 42.4688020  0  7                     
G01  24301384.848      114617.623        2911.348           0.239  
G02  22337617.737      -15417.796        -492.407           0.255  
G03  23617253.428      -60383.137       -2128.255           0.244  
G04  22524357.725       61744.342        2037.655           0.255  
G05  20627916.675      -10381.350        -464.512           0.255  
G06  23405865.025      -24910.829       -1311.576           0.248  
G07  23102737.051      -17844.961       -1434.890           0.251  
> 2023 05 18 00 00 42.5688020  0  7                     
G01  24301310.103      114908.702        2911.704           0.239  
G02  22337630.421      -15466.416        -491.662           0.255  
G03  23617307.829      -60595.895       -2128.240           0.244  
G04  22524306.545       61948.059        2036.292           0.255  
G05  20627928.406      -10428.169        -465.623           0.255  
G06  23405898.603      -25041.924       -1310.380           0.248  
G07  23102773.851      -17988.695       -1457.117           0.252  
> 2023 05 18 00 00 42.6688020  0  7                     
G01  24301234.451      115199.779        2912.099           0.239  
G02  22337643.017      -15515.069        -488.114           0.255  
G03  23617359.918      -60808.655       -2127.745           0.244  
G04  22524254.478       62151.792        2038.706           0.255  
G05  20627940.247      -10474.969        -466.188           0.255  
G06  23405932.869      -25173.243       -1349.333           0.248  
G07  23102810.584      -18131.891       -1435.943           0.251  
> 2023 05 18 00 00 42.7688020  0  7                     
G01  24301160.680      115490.876        2910.978           0.239  
G02  22337655.532      -15563.726        -483.601           0.255  
G03  23617415.580      -61021.414       -2127.861           0.244  
G04  22524203.587       62355.493        2037.310           0.255  
G05  20627952.425      -10521.783        -468.951           0.255  
G06  23405964.854      -25304.139       -1310.841           0.248  
G07  23102847.293      -18275.341       -1435.821           0.252  
> 2023 05 18 00 00 42.8688020  0  7                     
G01  24301086.523      115781.962        2910.363           0.239  
G02  22337668.425      -15612.410        -481.630           0.255  
G03  23617470.332      -61234.188       -2128.319           0.244  
G04  22524150.637       62559.213        2036.142           0.255  
G05  20627964.314      -10568.578        -470.745           0.255  
G06  23405998.201      -25435.248       -1311.300           0.248  
G07  23102882.491      -18418.813       -1433.829           0.251  
> 2023 05 18 00 00 42.9688020  0  7                     
G01  24301013.471      116073.055        2910.259           0.239  
G02  22337680.625      -15662.399        -665.023           0.255  
G03  23617525.349      -61447.145       -2169.710           0.244  
G04  22524098.413       62763.218        2041.174           0.255  
G05  20627975.821      -10615.366        -469.254           0.255  
G06  23406032.911      -25566.374       -1322.012           0.248  
G07  23102918.533      -18562.148       -1404.187           0.251  
> 2023 05 18 00 00 43.0688020  0  7                     
G01  24300940.008      116364.138        2910.971           0.239  
G02  22337692.832      -15709.860        -487.502           0.255  
G03  23617578.416      -61659.724       -2127.954           0.244  
G04  22524046.734       62966.639        2037.417           0.255  
G05  20627987.919      -10662.152        -467.371           0.255  
G06  23406065.941      -25697.480       -1310.887           0.248  
G07  23102956.416      -18705.743       -1434.807           0.251  
> 2023 05 18 00 00 43.1688020  0  7                     
G01  24300865.658      116655.340        2906.785           0.239  
G02  22337704.510      -15758.547        -490.692           0.255  
G03  23617633.244      -61872.427       -2132.935           0.244  
G04  22523995.224       63170.045        1997.906           0.255  
G05  20627999.687      -10708.969        -466.504           0.255  
G06  23406099.500      -25828.529       -1305.231           0.248  
G07  23102993.974      -18849.310       -1427.311           0.252  
> 2023 05 18 00 00 43.2688020  0  7                     
G01  24300790.004      116946.309        2908.823           0.239  
G02  22337717.942      -15807.213        -492.899           0.255  
G03  23617688.423      -62085.266       -2127.977           0.244  
G04  22523942.950       63374.058        2037.499           0.255  
G05  20628011.360      -10755.806        -465.514           0.255  
G06  23406132.929      -25959.731       -1311.590           0.248  
G07  23103028.468      -18992.671       -1434.692           0.251  
> 2023 05 18 00 00 43.3688020  0  7                     
G01  24300716.572      117237.408        2911.545           0.239  
G02  22337730.667      -15855.886        -491.301           0.255  
G03  23617741.591      -62297.908       -2091.653           0.244  
G04  22523891.326       63577.763        2037.786           0.255  
G05  20628023.223      -10802.639        -465.923           0.255  
G06  23406166.099      -26090.854       -1311.299           0.248  
G07  23103066.646      -19135.842       -1434.167           0.251  
> 2023 05 18 00 00 43.4688020  0  7                     
G01  24300643.459      117528.502        2911.169           0.239  
G02  22337742.373      -15903.941        -403.406           0.255  
G03  23617795.778      -62510.813       -2128.344           0.244  
G04  22523839.147       63781.599        2084.774           0.255  
G05  20628036.273      -10849.478        -468.159           0.255  
G06  23406199.282      -26221.845       -1312.420           0.248  
G07  23103102.202      -19279.580       -1441.843           0.251  
> 2023 05 18 00 00 43.5688020  0  7                     
G01  24300568.142      117819.578        2911.702           0.240  
G02  22337754.773      -15953.264        -484.900           0.255  
G03  23617850.202      -62723.581       -2128.419           0.244  
G04  22523786.732       63985.160        2035.788           0.255  
G05  20628047.646      -10896.299        -468.738           0.255  
G06  23406231.994      -26353.117       -1311.425           0.248  
G07  23103139.236      -19423.091       -1436.465           0.251  
> 2023 05 18 00 00 43.6688020  0  7                     
G01  24300494.738      118110.693        2911.688           0.239  
G02  22337767.598      -16001.999        -484.999           0.255  
G03  23617903.005      -62936.360       -2127.253           0.244  
G04  22523735.441       64188.864        2037.108           0.255  
G05  20628059.356      -10943.130        -469.069           0.255  
G06  23406266.812      -26484.251       -1311.362           0.248  
G07  23103175.889      -19566.551       -1435.830           0.251  
> 2023 05 18 00 00 43.7688020  0  7                     
G01  24300418.810      118401.774        2911.395           0.240  
G02  22337779.882      -16050.731        -488.527           0.255  
G03  23617957.782      -63149.135       -2128.081           0.244  
G04  22523683.085       64392.550        2037.705           0.255  
G05  20628071.549      -10989.956        -468.044           0.255  
G06  23406298.833      -26615.397       -1311.644           0.248  
G07  23103212.858      -19710.000       -1431.606           0.251  
> 2023 05 18 00 00 43.8688020  0  7                     
G01  24300346.326      118692.856        2911.669           0.239  
G02  22337792.525      -16099.467        -486.472           0.255  
G03  23618012.532      -63361.905       -2128.028           0.244  
G04  22523631.652       64595.541        1942.332           0.255  
G05  20628083.230      -11036.788        -469.776           0.255  
G06  23406332.823      -26746.716       -1337.591           0.248  
G07  23103248.131      -19853.137       -1378.819           0.252  
> 2023 05 18 00 00 43.9688020  0  7                     
G01  24300272.510      118983.941        2910.779           0.239  
G02  22337804.106      -16148.176        -486.259           0.255  
G03  23618066.956      -63574.691       -2128.286           0.244  
G04  22523581.176       64799.940        2037.388           0.255  
G05  20628096.380      -11083.637        -468.449           0.255  
G06  23406366.494      -26877.678       -1311.194           0.248  
G07  23103284.355      -19996.973       -1438.890           0.251  
> 2023 05 18 00 00 44.0688020  0  7                     
G01  24300195.991      119275.032        2910.610           0.239  
G02  22337817.469      -16197.583        -573.842           0.255  
G03  23618122.624      -63787.341       -2083.708           0.244  
G04  22523528.431       65003.628        2037.530           0.255  
G05  20628106.240      -11130.492        -469.930           0.255  
G06  23406399.540      -27008.823       -1311.343           0.248  
G07  23103324.354      -20140.431       -1436.717           0.251  
> 2023 05 18 00 00 44.1688020  0  7                     
G01  24300124.296      119566.111        2910.109           0.239  
G02  22337829.584      -16244.955        -423.705           0.255  
G03  23618174.502      -64000.251       -2128.185           0.244  
G04  22523476.626       65207.315        2036.860           0.255  
G05  20628119.144      -11177.333        -468.782           0.255  
G06  23406433.444      -27139.983       -1311.614           0.248  
G07  23103357.848      -20283.885       -1431.166           0.251  
> 2023 05 18 00 00 44.2688020  0  7                     
G01  24300049.768      119857.218        2910.452           0.239  
G02  22337841.061      -16294.409        -488.473           0.255  
G03  23618229.323      -64213.108       -2122.766           0.244  
G04  22523424.507       65411.002        2036.779           0.255  
G05  20628131.141      -11224.178        -468.468           0.255  
G06  23406467.228      -27271.134       -1312.236           0.248  
G07  23103394.635      -20427.370       -1432.541           0.251  
> 2023 05 18 00 00 44.3688020  0  7                     
G01  24299974.911      120148.294        2910.905           0.239  
G02  22337855.061      -16343.138        -487.074           0.255  
G03  23618283.509      -64425.798       -2126.737           0.244  
G04  22523373.142       65614.681        2036.981           0.255  
G05  20628143.370      -11271.034        -468.384           0.255  
G06  23406501.484      -27402.286       -1311.677           0.248  
G07  23103430.774      -20570.866       -1436.919           0.251  
> 2023 05 18 00 00 44.4688020  0  7                     
G01  24299900.622      120439.387        2911.249           0.239  
G02  22337866.965      -16391.930        -491.954           0.255  
G03  23618337.371      -64638.600       -2128.680           0.244  
G04  22523320.310       65818.359        2036.095           0.255  
G05  20628155.962      -11317.874        -465.408           0.255  
G06  23406535.117      -27533.447       -1311.548           0.248  
G07  23103463.708      -20714.339       -1436.016           0.252  
> 2023 05 18 00 00 44.5688020  0  7                     
G01  24299827.257      120729.715        2845.626           0.239  
G02  22337880.388      -16440.646        -488.748           0.255  
G03  23618391.822      -64851.387       -2129.248           0.244  
G04  22523267.999       66022.041        2036.828           0.255  
G05  20628166.471      -11364.760        -467.737           0.255  
G06  23406567.328      -27664.605       -1311.871           0.248  
G07  23103503.474      -20857.351       -1416.669           0.251  
> 2023 05 18 00 00 44.6688020  0  7                     
G01  24299753.572      121021.583        2927.618           0.239  
G02  22337891.167      -16489.336        -555.576           0.255  
G03  23618446.204      -65063.814       -2074.892           0.244  
G04  22523216.266       66225.721        2037.661           0.255  
G05  20628179.237      -11411.635        -467.646           0.255  
G06  23406600.438      -27795.770       -1311.910           0.248  
G07  23103541.512      -21001.289       -1434.555           0.251  
> 2023 05 18 00 00 44.7688020  0  7                     
G01  24299678.946      121312.490        2849.598           0.239  
G02  22337903.688      -16538.252        -552.037           0.255  
G03  23618499.569      -65276.950       -2127.322           0.244  
G04  22523164.237       66429.943        2100.158           0.255  
G05  20628190.574      -11458.496        -467.547           0.255  
G06  23406633.858      -27926.689       -1291.484           0.248  
G07  23103579.298      -21144.777       -1435.885           0.251  
> 2023 05 18 00 00 44.8688020  0  7                     
G01  24299603.895      121603.738        2910.197           0.239  
G02  22337915.426      -16586.949        -489.102           0.255  
G03  23618553.337      -65489.729       -2127.148           0.244  
G04  22523112.616       66632.883        1989.639           0.255  
G05  20628203.054      -11505.361        -468.367           0.255  
G06  23406666.799      -28058.065       -1321.212           0.248  
G07  23103614.970      -21288.249       -1433.664           0.251  
> 2023 05 18 00 00 44.9688020  0  7                     
G01  24299528.757      121894.845        2911.896           0.239  
G02  22337928.342      -16635.730        -492.304           0.255  
G03  23618607.411      -65702.540       -2129.380           0.243  
G04  22523061.119       66836.738        2037.078           0.255  
G05  20628214.829      -11552.229        -467.190           0.255  
G06  23406700.209      -28189.286       -1312.571           0.248  
G07  23103651.530      -21431.723       -1432.756           0.252  
> 2023 05 18 00 00 45.0688020  0  7                     
G01  24299455.805      122185.918        2910.208           0.239  
G02  22337940.556      -16684.009        -423.467           0.255  
G03  23618662.556      -65915.330       -2129.247           0.243  
G04  22523010.039       67040.101        2024.094           0.255  
G05  20628226.367      -11599.127        -466.959           0.255  
G06  23406734.308      -28320.404       -1306.861           0.248  
G07  23103689.320      -21575.344       -1406.642           0.251  
> 2023 05 18 00 00 45.1688020  0  7                     
G01  24299382.271      122477.003        2910.767           0.239  
G02  22337953.567      -16733.236        -488.819           0.255  
G03  23618717.143      -66128.113       -2128.603           0.244  
G04  22522956.813       67244.057        2035.647           0.255  
G05  20628238.480      -11646.018        -468.433           0.255  
G06  23406767.380      -28451.631       -1312.088           0.248  
G07  23103724.532      -21718.685       -1433.691           0.251  
> 2023 05 18 00 00 45.2688020  0  7                     
G01  24299306.985      122768.094        2911.399           0.239  
G02  22337964.254      -16782.018        -486.786           0.255  
G03  23618772.239      -66340.904       -2127.813           0.244  
G04  22522904.429       67447.722        2036.996           0.255  
G05  20628251.178      -11692.907        -469.796           0.255  
G06  23406800.673      -28582.816       -1312.421           0.248  
G07  23103762.475      -21862.162       -1435.091           0.252  
> 2023 05 18 00 00 45.3688020  0  7                     
G01  24299233.813      123059.158        2910.759           0.239  
G02  22337978.184      -16830.834        -488.800           0.255  
G03  23618825.747      -66553.698       -2127.375           0.244  
G04  22522852.452       67651.386        2036.682           0.255  
G05  20628262.813      -11739.786        -469.453           0.255  
G06  23406835.274      -28713.999       -1312.053           0.248  
G07  23103796.949      -22005.636       -1434.795           0.251  
> 2023 05 18 00 00 45.4688020  0  7                     
G01  24299160.139      123350.253        2910.771           0.240  
G02  22337990.749      -16879.552        -444.325           0.255  
G03  23618878.905      -66766.308       -2081.382           0.244  
G04  22522800.991       67855.048        2037.281           0.255  
G05  20628272.496      -11786.694        -470.720           0.255  
G06  23406867.939      -28845.073       -1315.758           0.248  
G07  23103840.355      -22149.129       -1434.791           0.251  
> 2023 05 18 00 00 45.5688020  0  7                     
G01  24299084.617      123641.321        2911.880           0.239  
G02  22338003.087      -16928.439        -491.330           0.255  
G03  23618933.551      -66979.663       -2172.606           0.244  
G04  22522749.864       68058.710        2038.047           0.255  
G05  20628286.593      -11833.573        -467.496           0.255  
G06  23406901.987      -28976.377       -1312.696           0.248  
G07  23103869.375      -22292.623       -1410.170           0.251  
> 2023 05 18 00 00 45.6688020  0  7                     
G01  24299010.882      123932.403        2910.317           0.239  
G02  22338016.236      -16977.234        -486.822           0.255  
G03  23618988.066      -67192.087       -2127.773           0.244  
G04  22522697.584       68262.355        2036.135           0.255  
G05  20628298.940      -11880.475        -470.487           0.255  
G06  23406935.211      -29107.571       -1312.027           0.248  
G07  23103904.940      -22436.088       -1433.732           0.252  
> 2023 05 18 00 00 45.7688020  0  7                     
G01  24298937.026      124223.490        2910.761           0.239  
G02  22338029.766      -17026.020        -488.483           0.255  
G03  23619043.780      -67404.876       -2127.889           0.244  
G04  22522645.399       68466.010        2036.135           0.255  
G05  20628311.029      -11927.401        -469.605           0.255  
G06  23406968.472      -29238.768       -1312.377           0.248  
G07  23103939.183      -22579.561       -1432.970           0.251  
> 2023 05 18 00 00 45.8688020  0  7                     
G01  24298861.574      124514.578        2910.202           0.239  
G02  22338041.297      -17074.844        -489.027           0.255  
G03  23619098.473      -67617.689       -2128.129           0.244  
G04  22522593.337       68669.663        2037.193           0.255  
G05  20628321.816      -11974.289        -468.818           0.255  
G06  23407001.671      -29369.967       -1312.175           0.248  
G07  23103980.357      -22723.076       -1436.097           0.251  
> 2023 05 18 00 00 45.9688020  0  7                     
G01  24298787.051      124805.656        2911.135           0.239  
G02  22338054.265      -17123.659        -489.557           0.255  
G03  23619150.667      -67830.487       -2128.184           0.244  
G04  22522542.082       68873.311        2036.689           0.255  
G05  20628333.559      -12021.210        -469.104           0.255  
G06  23407035.808      -29501.164       -1311.608           0.248  
G07  23104017.517      -22866.535       -1434.333           0.251  
> 2023 05 18 00 00 46.0688020  0  7                     
G01  24298713.802      125096.749        2911.261           0.239  
G02  22338065.214      -17172.484        -488.030           0.255  
G03  23619205.429      -68043.284       -2127.554           0.244  
G04  22522489.382       69076.954        2036.883           0.255  
G05  20628346.413      -12068.110        -469.556           0.255  
G06  23407068.783      -29632.374       -1312.209           0.248  
G07  23104054.364      -23010.055       -1436.318           0.251  
> 2023 05 18 00 00 46.1688020  0  7                     
G01  24298638.950      125387.829        2911.870           0.239  
G02  22338076.942      -17221.314        -486.756           0.255  
G03  23619259.795      -68256.107       -2128.454           0.244  
G04  22522437.540       69280.588        2036.003           0.255  
G05  20628358.316      -12115.031        -470.512           0.255  
G06  23407102.698      -29763.580       -1311.579           0.248  
G07  23104091.508      -23153.527       -1434.493           0.252  
> 2023 05 18 00 00 46.2688020  0  7                     
G01  24298566.417      125678.898        2911.971           0.239  
G02  22338088.591      -17270.928        -617.628           0.255  
G03  23619313.882      -68468.938       -2125.210           0.244  
G04  22522386.334       69483.554        1939.231           0.255  
G05  20628370.609      -12161.956        -469.744           0.255  
G06  23407135.366      -29894.741       -1317.780           0.248  
G07  23104127.271      -23297.396       -1412.201           0.251  
> 2023 05 18 00 00 46.3688020  0  7                     
G01  24298492.140      125970.188        2925.811           0.239  
G02  22338102.068      -17318.998        -488.354           0.255  
G03  23619368.150      -68681.662       -2138.950           0.244  
G04  22522334.075       69687.871        2036.453           0.255  
G05  20628382.938      -12208.870        -469.850           0.255  
G06  23407167.419      -30026.008       -1312.395           0.248  
G07  23104162.539      -23440.505       -1432.890           0.251  
> 2023 05 18 00 00 46.4688020  0  7                     
G01  24298418.250      126261.069        2911.903           0.240  
G02  22338115.500      -17368.065        -502.039           0.255  
G03  23619422.735      -68894.508       -2128.727           0.244  
G04  22522282.426       69891.343        2045.424           0.255  
G05  20628394.030      -12255.806        -468.796           0.255  
G06  23407201.043      -30157.223       -1311.940           0.248  
G07  23104200.715      -23583.991       -1434.494           0.251  
> 2023 05 18 00 00 46.5688020  0  7                     
G01  24298343.706      126552.138        2911.244           0.239  
G02  22338127.151      -17416.652        -485.467           0.255  
G03  23619476.598      -69107.310       -2128.933           0.244  
G04  22522229.870       70095.135        2034.692           0.255  
G05  20628406.253      -12302.748        -470.868           0.255  
G06  23407236.278      -30288.454       -1312.337           0.248  
G07  23104235.683      -23727.467       -1433.437           0.251  
> 2023 05 18 00 00 46.6688020  0  7                     
G01  24298268.205      126843.231        2911.189           0.239  
G02  22338138.270      -17465.515        -491.385           0.255  
G03  23619531.132      -69320.117       -2127.041           0.244  
G04  22522177.779       70298.782        2037.369           0.255  
G05  20628418.151      -12349.685        -467.962           0.255  
G06  23407269.357      -30419.689       -1313.065           0.248  
G07  23104273.281      -23870.968       -1435.530           0.251  
> 2023 05 18 00 00 46.7688020  0  7                     
G01  24298194.885      127134.320        2911.946           0.239  
G02  22338151.432      -17514.367        -488.482           0.255  
G03  23619586.209      -69532.933       -2128.385           0.244  
G04  22522126.176       70502.404        2035.432           0.255  
G05  20628431.024      -12396.612        -469.385           0.255  
G06  23407303.931      -30550.901       -1312.073           0.248  
G07  23104306.595      -24014.473       -1436.028           0.252  
> 2023 05 18 00 00 46.8688020  0  7                     
G01  24298121.032      127425.401        2910.869           0.239  
G02  22338166.100      -17563.252        -488.564           0.255  
G03  23619639.496      -69745.742       -2127.644           0.244  
G04  22522074.260       70706.033        2035.466           0.255  
G05  20628441.169      -12443.544        -468.709           0.255  
G06  23407337.135      -30682.138       -1312.347           0.248  
G07  23104345.064      -24157.953       -1435.084           0.251  
> 2023 05 18 00 00 46.9688020  0  7                     
G01  24298046.699      127716.473        2909.765           0.239  
G02  22338177.876      -17612.101        -489.245           0.255  
G03  23619693.816      -69958.549       -2127.626           0.244  
G04  22522022.851       70909.661        2036.119           0.255  
G05  20628453.279      -12490.491        -469.129           0.255  
G06  23407370.103      -30813.364       -1312.450           0.248  
G07  23104382.590      -24301.455       -1434.722           0.251  
> 2023 05 18 00 00 47.0688020  0  7                     
G01  24297972.690      128007.563        2909.675           0.239  
G02  22338190.082      -17660.982        -491.887           0.255  
G03  23619748.970      -70171.356       -2127.202           0.244  
G04  22521970.773       71112.668        1933.007           0.255  
G05  20628465.372      -12537.434        -467.866           0.255  
G06  23407403.083      -30944.612       -1313.481           0.248  
G07  23104419.180      -24444.841       -1428.821           0.252  
> 2023 05 18 00 00 47.1688020  0  7                     
G01  24297898.441      128298.658        2911.309           0.239  
G02  22338201.605      -17709.826        -491.849           0.255  
G03  23619800.978      -70384.173       -2129.039           0.244  
G04  22521919.744       71316.904        2036.323           0.255  
G05  20628477.711      -12584.401        -468.048           0.255  
G06  23407436.859      -31075.850       -1312.204           0.248  
G07  23104455.819      -24588.432       -1435.086           0.251  
> 2023 05 18 00 00 47.2688020  0  7                     
G01  24297824.469      128589.737        2911.637           0.239  
G02  22338214.209      -17758.687        -489.491           0.255  
G03  23619855.060      -70596.985       -2128.228           0.244  
G04  22521867.081       71520.437        2039.967           0.255  
G05  20628490.255      -12631.361        -469.278           0.255  
G06  23407470.237      -31207.083       -1312.033           0.248  
G07  23104491.902      -24732.062       -1469.668           0.251  
> 2023 05 18 00 00 47.3688020  0  7                     
G01  24297750.224      128880.825        2911.592           0.239  
G02  22338226.799      -17807.574        -490.297           0.255  
G03  23619910.246      -70809.811       -2129.018           0.244  
G04  22521814.411       71724.073        1979.811           0.255  
G05  20628502.553      -12678.324        -468.736           0.255  
G06  23407503.074      -31338.277       -1277.087           0.248  
G07  23104526.742      -24875.420       -1434.820           0.251  
> 2023 05 18 00 00 47.4688020  0  7                     
G01  24297675.145      129171.903        2910.168           0.239  
G02  22338239.746      -17856.435        -488.960           0.255  
G03  23619964.891      -71022.623       -2128.483           0.244  
G04  22521763.075       71927.766        2036.843           0.255  
G05  20628514.438      -12725.289        -468.976           0.255  
G06  23407536.233      -31469.579       -1312.968           0.248  
G07  23104562.941      -25018.933       -1435.422           0.251  
> 2023 05 18 00 00 47.5688020  0  7                     
G01  24297601.413      129462.978        2910.603           0.239  
G02  22338252.636      -17905.313        -487.804           0.255  
G03  23620018.205      -71235.433       -2127.869           0.244  
G04  22521711.853       72131.371        2036.141           0.255  
G05  20628525.575      -12772.264        -470.452           0.255  
G06  23407569.999      -31600.820       -1311.615           0.248  
G07  23104601.323      -25162.429       -1435.764           0.252  
> 2023 05 18 00 00 47.6688020  0  7                     
G01  24297527.469      129754.069        2911.259           0.239  
G02  22338265.423      -17954.241        -489.629           0.255  
G03  23620072.931      -71448.256       -2128.539           0.244  
G04  22521659.752       72334.982        2036.281           0.255  
G05  20628537.368      -12819.214        -469.433           0.255  
G06  23407603.204      -31732.071       -1312.436           0.248  
G07  23104637.994      -25305.926       -1435.513           0.251  
> 2023 05 18 00 00 47.7688020  0  7                     
G01  24297453.242      130045.374        2996.795           0.239  
G02  22338278.228      -18002.695        -377.943           0.255  
G03  23620127.317      -71660.961       -2123.816           0.244  
G04  22521607.849       72538.588        2036.569           0.255  
G05  20628549.299      -12866.171        -467.042           0.255  
G06  23407636.384      -31863.324       -1311.439           0.248  
G07  23104674.705      -25449.419       -1435.361           0.252  
> 2023 05 18 00 00 47.8688020  0  7                     
G01  24297379.978      130336.208        2911.393           0.239  
G02  22338288.795      -18052.034        -487.248           0.255  
G03  23620180.470      -71873.893       -2128.580           0.244  
G04  22521555.644       72741.971        1993.615           0.255  
G05  20628562.232      -12913.171        -470.440           0.255  
G06  23407669.859      -31994.385       -1294.360           0.248  
G07  23104710.417      -25593.011       -1468.765           0.251  
> 2023 05 18 00 00 47.9688020  0  7                     
G01  24297306.205      130627.291        2910.699           0.239  
G02  22338303.707      -18100.943        -492.582           0.255  
G03  23620235.737      -72086.716       -2128.302           0.244  
G04  22521504.334       72945.799        2036.268           0.255  
G05  20628573.735      -12960.151        -468.142           0.255  
G06  23407703.002      -32125.844       -1313.214           0.248  
G07  23104745.833      -25736.429       -1435.876           0.251  
> 2023 05 18 00 00 48.0688020  0  7                     
G01  24297232.048      130918.384        2911.267           0.239  
G02  22338313.785      -18149.863        -490.856           0.255  
G03  23620289.159      -72299.357       -2108.994           0.244  
G04  22521452.271       73149.395        2035.047           0.255  
G05  20628585.928      -13007.133        -468.995           0.255  
G06  23407737.722      -32257.108       -1312.553           0.248  
G07  23104784.493      -25879.922       -1435.426           0.251  
> 2023 05 18 00 00 48.1688020  0  7                     
G01  24297157.851      131209.469        2911.262           0.239  
G02  22338327.451      -18198.784        -489.503           0.255  
G03  23620344.276      -72512.362       -2128.680           0.244  
G04  22521399.413       73352.996        2035.878           0.255  
G05  20628597.753      -13054.122        -470.973           0.255  
G06  23407771.479      -32388.520       -1314.610           0.248  
G07  23104819.376      -26023.396       -1432.569           0.252  
> 2023 05 18 00 00 48.2688020  0  7                     
G01  24297082.871      131500.550        2911.036           0.239  
G02  22338338.745      -18247.707        -489.921           0.255  
G03  23620398.407      -72725.621       -2182.720           0.244  
G04  22521347.858       73556.594        2036.027           0.255  
G05  20628609.900      -13101.097        -470.711           0.255  
G06  23407804.866      -32519.648       -1312.106           0.248  
G07  23104857.754      -26166.937       -1434.037           0.251  
> 2023 05 18 00 00 48.3688020  0  7                     
G01  24297008.426      131791.638        2910.852           0.239  
G02  22338351.740      -18296.656        -492.306           0.255  
G03  23620452.624      -72938.018       -2128.149           0.244  
G04  22521296.241       73760.185        2034.771           0.255  
G05  20628621.672      -13148.080        -467.957           0.255  
G06  23407837.767      -32650.913       -1312.003           0.248  
G07  23104893.921      -26310.437       -1435.496           0.251  
> 2023 05 18 00 00 48.4688020  0  7                     
G01  24296934.283      132082.720        2910.786           0.239  
G02  22338364.296      -18345.582        -493.159           0.255  
G03  23620506.808      -73150.848       -2127.586           0.244  
G04  22521244.628       73963.789        2036.540           0.255  
G05  20628633.455      -13195.083        -468.038           0.255  
G06  23407871.407      -32782.196       -1313.626           0.248  
G07  23104930.616      -26453.940       -1434.488           0.252  
> 2023 05 18 00 00 48.5688020  0  7                     
G01  24296859.948      132373.807        2911.818           0.239  
G02  22338376.850      -18394.507        -494.186           0.255  
G03  23620560.873      -73363.674       -2127.897           0.244  
G04  22521192.758       74167.371        2035.565           0.255  
G05  20628645.687      -13242.091        -467.349           0.255  
G06  23407904.713      -32913.483       -1313.292           0.248  
G07  23104967.269      -26597.442       -1435.035           0.251  
> 2023 05 18 00 00 48.6688020  0  7                     
G01  24296784.593      132664.886        2911.356           0.239  
G02  22338389.348      -18443.425        -493.867           0.255  
G03  23620615.069      -73576.508       -2128.098           0.244  
G04  22521141.139       74371.244        2037.099           0.255  
G05  20628657.331      -13289.100        -467.478           0.255  
G06  23407938.527      -33044.764       -1312.885           0.248  
G07  23105003.613      -26740.704       -1470.877           0.251  
> 2023 05 18 00 00 48.7688020  0  7                     
G01  24296710.141      132955.971        2911.025           0.239  
G02  22338401.166      -18492.355        -491.973           0.255  
G03  23620669.633      -73789.332       -2128.247           0.244  
G04  22521089.581       74574.547        2036.260           0.255  
G05  20628669.276      -13336.121        -468.545           0.255  
G06  23407971.450      -33176.041       -1312.388           0.248  
G07  23105042.419      -26884.456       -1436.606           0.252  
> 2023 05 18 00 00 48.8688020  0  7                     
G01  24296637.229      133247.046        2910.359           0.239  
G02  22338413.792      -18541.284        -489.891           0.255  
G03  23620722.544      -74002.205       -2127.240           0.244  
G04  22521036.924       74778.100        2025.450           0.255  
G05  20628681.299      -13383.142        -470.050           0.255  
G06  23408004.438      -33307.330       -1313.314           0.248  
G07  23105080.483      -27028.320       -1478.630           0.251  
> 2023 05 18 00 00 48.9688020  0  7                     
G01  24296563.065      133538.132        2909.676           0.239  
G02  22338427.150      -18590.216        -488.368           0.255  
G03  23620777.641      -74214.910       -2121.124           0.244  
G04  22520984.500       74982.178        2132.137           0.255  
G05  20628694.290      -13430.166        -471.074           0.255  
G06  23408037.795      -33438.624       -1313.313           0.248  
G07  23105112.307      -27171.464       -1434.974           0.251  
> 2023 05 18 00 00 49.0688020  0  7                     
G01  24296489.152      133829.221        2910.964           0.239  
G02  22338438.832      -18638.652        -344.736           0.255  
G03  23620832.200      -74427.844       -2128.693           0.244  
G04  22520933.214       75185.293        2035.430           0.255  
G05  20628706.200      -13477.176        -471.305           0.255  
G06  23408072.367      -33569.921       -1313.504           0.248  
G07  23105148.435      -27314.974       -1434.867           0.251  
> 2023 05 18 00 00 49.1688020  0  7                     
G01  24296415.716      134120.302        2910.920           0.239  
G02  22338452.402      -18688.148        -486.244           0.255  
G03  23620885.263      -74640.678       -2128.338           0.244  
G04  22520881.326       75388.875        2037.080           0.255  
G05  20628718.931      -13524.199        -471.873           0.255  
G06  23408105.415      -33701.216       -1313.062           0.248  
G07  23105184.002      -27458.491       -1435.599           0.251  
> 2023 05 18 00 00 49.2688020  0  7                     
G01  24296339.430      134411.386        2911.838           0.239  
G02  22338465.600      -18737.140        -486.503           0.255  
G03  23620940.381      -74853.511       -2128.541           0.244  
G04  22520829.824       75592.442        2034.963           0.255  
G05  20628728.386      -13571.207        -471.304           0.255  
G06  23408139.170      -33832.509       -1312.751           0.248  
G07  23105223.724      -27602.001       -1435.253           0.251  
> 2023 05 18 00 00 49.3688020  0  7                     
G01  24296265.309      134702.477        2911.642           0.239  
G02  22338477.602      -18786.110        -485.584           0.255  
G03  23620994.892      -75066.416       -2116.097           0.244  
G04  22520777.697       75796.027        2036.349           0.255  
G05  20628740.666      -13618.234        -472.450           0.255  
G06  23408172.090      -33963.820       -1314.061           0.248  
G07  23105262.489      -27745.512       -1434.652           0.251  
> 2023 05 18 00 00 49.4688020  0  7                     
G01  24296191.657      134993.555        2912.217           0.239  
G02  22338489.478      -18836.385        -548.214           0.255  
G03  23621049.248      -75279.511       -2161.239           0.244  
G04  22520725.603       76000.639        2196.072           0.255  
G05  20628753.223      -13665.259        -472.220           0.255  
G06  23408205.590      -34095.280       -1321.454           0.248  
G07  23105297.989      -27889.015       -1434.387           0.251  
> 2023 05 18 00 00 49.5688020  0  7                     
G01  24296115.892      135284.626        2909.693           0.239  
G02  22338502.222      -18884.081        -485.930           0.255  
G03  23621103.868      -75492.013       -2127.381           0.244  
G04  22520674.896       76203.152        2034.476           0.255  
G05  20628765.127      -13712.289        -472.265           0.255  
G06  23408238.370      -34226.438       -1313.064           0.248  
G07  23105332.991      -28032.537       -1434.640           0.252  
> 2023 05 18 00 00 49.6688020  0  7                     
G01  24296043.303      135575.715        2910.834           0.239  
G02  22338514.088      -18933.071        -488.398           0.255  
G03  23621157.812      -75704.669       -2117.835           0.244  
G04  22520622.320       76406.733        2036.198           0.255  
G05  20628777.074      -13759.329        -471.152           0.255  
G06  23408272.279      -34357.750       -1313.153           0.248  
G07  23105369.400      -28176.041       -1435.915           0.251  
> 2023 05 18 00 00 49.7688020  0  7                     
G01  24295970.457      135866.811        2911.376           0.239  
G02  22338526.591      -18982.072        -489.026           0.255  
G03  23621211.976      -75917.700       -2128.139           0.244  
G04  22520569.966       76610.290        2035.542           0.255  
G05  20628788.821      -13806.361        -470.828           0.255  
G06  23408306.339      -34489.059       -1313.311           0.248  
G07  23105407.236      -28319.555       -1434.791           0.252  
> 2023 05 18 00 00 49.8688020  0  7                     
G01  24295896.715      136157.880        2908.456           0.239  
G02  22338538.412      -19031.078        -490.670           0.255  
G03  23621266.334      -76130.698       -2150.652           0.244  
G04  22520517.678       76813.866        2037.054           0.255  
G05  20628801.332      -13853.401        -470.028           0.255  
G06  23408339.771      -34620.379       -1313.429           0.248  
G07  23105443.291      -28463.062       -1433.934           0.251  
> 2023 05 18 00 00 49.9688020  0  7                     
G01  24295821.948      136448.975        2911.110           0.239  
G02  22338550.228      -19080.084        -491.816           0.255  
G03  23621321.555      -76343.401       -2129.027           0.244  
G04  22520466.044       77017.412        2035.415           0.255  
G05  20628813.536      -13900.443        -469.266           0.255  
G06  23408372.719      -34751.698       -1313.043           0.248  
G07  23105479.349      -28606.591       -1435.077           0.251  
> 2023 05 18 00 00 50.0688020  0  7                     
G01  24295747.871      136740.048        2909.882           0.239  
G02  22338563.001      -19129.085        -493.516           0.255  
G03  23621374.955      -76556.240       -2128.738           0.244  
G04  22520413.730       77220.970        2035.398           0.255  
G05  20628825.897      -13947.492        -467.893           0.255  
G06  23408406.243      -34883.024       -1313.312           0.248  
G07  23105515.917      -28750.109       -1435.800           0.251  
> 2023 05 18 00 00 50.1688020  0  7                     
G01  24295673.007      137031.127        2911.265           0.239  
G02  22338576.038      -19178.094        -495.642           0.255  
G03  23621428.645      -76769.087       -2128.460           0.244  
G04  22520362.277       77424.525        2036.071           0.255  
G05  20628837.358      -13994.553        -467.464           0.255  
G06  23408439.969      -35014.342       -1312.928           0.248  
G07  23105552.955      -28893.624       -1434.882           0.252  
> 2023 05 18 00 00 50.2688020  0  7                     
G01  24295599.438      137322.209        2910.118           0.239  
G02  22338588.591      -19227.089        -496.317           0.255  
G03  23621483.150      -76981.947       -2129.818           0.244  
G04  22520310.737       77628.082        2035.503           0.255  
G05  20628849.206      -14041.626        -468.282           0.255  
G06  23408473.428      -35145.668       -1313.015           0.248  
G07  23105589.301      -29037.131       -1433.753           0.251  
> 2023 05 18 00 00 50.3688020  0  7                     
G01  24295525.253      137613.826        2962.362           0.239  
G02  22338601.430      -19276.467        -656.660           0.255  
G03  23621537.002      -77195.294       -2171.828           0.244  
G04  22520259.030       77832.565        2115.706           0.255  
G05  20628861.493      -14088.694        -467.762           0.255  
G06  23408507.012      -35277.060       -1318.054           0.248  
G07  23105625.457      -29180.374       -1421.689           0.251  
> 2023 05 18 00 00 50.4688020  0  7                     
G01  24295451.562      137904.377        2911.153           0.239  
G02  22338613.175      -19325.100        -494.364           0.255  
G03  23621592.279      -77407.739       -2156.331           0.244  
G04  22520207.011       78035.175        2033.963           0.255  
G05  20628873.360      -14135.764        -468.744           0.255  
G06  23408540.141      -35408.339       -1313.935           0.248  
G07  23105662.664      -29324.174       -1434.458           0.251  
> 2023 05 18 00 00 50.5688020  0  7                     
G01  24295376.814      138195.457        2910.901           0.239  
G02  22338626.079      -19374.109        -492.138           0.255  
G03  23621646.167      -77620.485       -2128.263           0.244  
G04  22520155.047       78238.733        2036.064           0.255  
G05  20628885.512      -14182.838        -469.164           0.255  
G06  23408573.935      -35539.676       -1313.273           0.248  
G07  23105697.927      -29467.698       -1436.319           0.251  
> 2023 05 18 00 00 50.6688020  0  7                     
G01  24295301.815      138486.537        2909.920           0.239  
G02  22338639.396      -19423.126        -492.020           0.255  
G03  23621699.852      -77833.504       -2172.375           0.244  
G04  22520103.410       78442.275        2035.239           0.255  
G05  20628897.054      -14229.920        -470.961           0.255  
G06  23408607.750      -35671.041       -1289.388           0.248  
G07  23105734.455      -29611.202       -1432.336           0.251  
> 2023 05 18 00 00 50.7688020  0  7                     
G01  24295227.845      138777.622        2910.523           0.239  
G02  22338651.856      -19472.159        -491.425           0.255  
G03  23621754.187      -78046.188       -2127.978           0.244  
G04  22520051.656       78645.823        2036.531           0.255  
G05  20628909.095      -14276.995        -470.307           0.255  
G06  23408641.200      -35802.360       -1312.922           0.248  
G07  23105771.424      -29754.734       -1436.017           0.251  
> 2023 05 18 00 00 50.8688020  0  7                     
G01  24295155.261      139068.705        2910.329           0.239  
G02  22338664.358      -19521.201        -490.679           0.255  
G03  23621808.897      -78259.050       -2128.844           0.244  
G04  22519999.343       78849.348        2034.676           0.255  
G05  20628920.740      -14324.064        -470.081           0.255  
G06  23408674.300      -35933.708       -1312.825           0.248  
G07  23105808.336      -29898.276       -1436.631           0.251  
> 2023 05 18 00 00 50.9688020  0  7                     
G01  24295079.428      139359.768        2909.682           0.239  
G02  22338676.468      -19570.233        -489.410           0.255  
G03  23621862.927      -78472.045       -2155.702           0.244  
G04  22519947.409       79053.283        2104.521           0.255  
G05  20628932.832      -14371.154        -471.083           0.255  
G06  23408708.032      -36065.061       -1313.822           0.248  
G07  23105845.614      -30042.040       -1512.952           0.251  
> 2023 05 18 00 00 51.0688020  0  7                     
G01  24295005.787      139650.853        2909.881           0.239  
G02  22338688.540      -19619.279        -487.737           0.255  
G03  23621916.928      -78684.752       -2128.423           0.244  
G04  22519895.969       79256.428        2035.885           0.255  
G05  20628945.250      -14418.244        -471.707           0.255  
G06  23408741.686      -36196.416       -1313.989           0.248  
G07  23105883.037      -30185.311       -1435.542           0.251  
> 2023 05 18 00 00 51.1688020  0  7                     
G01  24294931.316      139941.734        2887.060           0.239  
G02  22338702.033      -19668.348        -368.349           0.255  
G03  23621971.907      -78897.816       -2155.940           0.244  
G04  22519844.057       79459.965        2035.886           0.255  
G05  20628957.292      -14465.340        -472.522           0.255  
G06  23408774.874      -36327.834       -1313.193           0.248  
G07  23105918.447      -30328.994       -1459.187           0.252  
> 2023 05 18 00 00 51.2688020  0  7                     
G01  24294857.742      140233.029        2911.324           0.239  
G02  22338714.649      -19717.373        -485.715           0.255  
G03  23622026.000      -79110.466       -2128.368           0.244  
G04  22519792.067       79663.494        2035.542           0.255  
G05  20628969.458      -14512.438        -473.664           0.255  
G06  23408808.463      -36459.124       -1312.779           0.248  
G07  23105955.282      -30472.343       -1435.036           0.251  
> 2023 05 18 00 00 51.3688020  0  7                     
G01  24294782.556      140524.117        2911.481           0.239  
G02  22338726.761      -19766.434        -484.570           0.255  
G03  23622080.069      -79323.327       -2128.439           0.244  
G04  22519740.207       79867.028        2035.429           0.255  
G05  20628981.510      -14559.530        -474.192           0.255  
G06  23408841.654      -36590.487       -1313.540           0.248  
G07  23105991.184      -30616.170       -1464.088           0.252  
> 2023 05 18 00 00 51.4688020  0  7                     
G01  24294708.908      140815.200        2911.180           0.239  
G02  22338738.902      -19815.503        -483.681           0.255  
G03  23622134.092      -79536.190       -2129.029           0.244  
G04  22519688.384       80070.547        2035.493           0.255  
G05  20628993.538      -14606.629        -474.630           0.255  
G06  23408875.176      -36721.848       -1313.623           0.248  
G07  23106028.528      -30759.400       -1435.892           0.251  
> 2023 05 18 00 00 51.5688020  0  7                     
G01  24294634.071      141106.285        2911.946           0.239  
G02  22338752.236      -19864.594        -484.049           0.255  
G03  23622189.040      -79749.061       -2129.316           0.244  
G04  22519636.899       80274.069        2034.536           0.255  
G05  20629005.242      -14653.718        -474.280           0.255  
G06  23408908.830      -36853.223       -1314.323           0.248  
G07  23106065.528      -30902.932       -1435.469           0.252  
> 2023 05 18 00 00 51.6688020  0  7                     
G01  24294561.028      141397.368        2911.398           0.239  
G02  22338764.136      -19913.681        -486.473           0.255  
G03  23622243.306      -79961.922       -2129.985           0.244  
G04  22519585.042       80477.597        2036.354           0.255  
G05  20629017.803      -14700.821        -472.708           0.255  
G06  23408941.789      -36984.594       -1313.502           0.248  
G07  23106101.888      -31046.457       -1436.683           0.252  
> 2023 05 18 00 00 51.7688020  0  7                     
G01  24294486.211      141688.452        2912.051           0.239  
G02  22338775.994      -19962.772        -487.833           0.255  
G03  23622297.485      -80174.777       -2128.534           0.244  
G04  22519532.895       80681.113        2034.688           0.255  
G05  20629029.567      -14747.930        -472.545           0.255  
G06  23408975.660      -37115.970       -1314.469           0.248  
G07  23106138.313      -31189.981       -1434.627           0.251  
> 2023 05 18 00 00 51.8688020  0  7                     
G01  24294411.843      141980.042        2947.123           0.239  
G02  22338788.232      -20013.036        -550.131           0.255  
G03  23622351.190      -80387.963       -2184.610           0.244  
G04  22519480.692       80885.233        2112.882           0.255  
G05  20629041.511      -14795.038        -472.889           0.255  
G06  23409009.333      -37247.144       -1272.934           0.248  
G07  23106174.388      -31333.517       -1436.116           0.251  
> 2023 05 18 00 00 51.9688020  0  7                     
G01  24294337.743      142270.716        2934.736           0.239  
G02  22338800.631      -20060.955        -487.815           0.255  
G03  23622405.185      -80600.506       -2128.516           0.244  
G04  22519428.687       81088.098        1998.321           0.255  
G05  20629053.749      -14842.158        -472.587           0.255  
G06  23409042.680      -37378.715       -1313.156           0.248  
G07  23106210.204      -31476.744       -1407.852           0.251  
> 2023 05 18 00 00 52.0688020  0  7                     
G01  24294263.624      142561.693        2910.567           0.239  
G02  22338813.210      -20110.052        -488.875           0.255  
G03  23622459.705      -80813.408       -2137.653           0.244  
G04  22519376.800       81291.670        2036.339           0.255  
G05  20629065.663      -14889.274        -472.081           0.255  
G06  23409075.911      -37510.140       -1315.703           0.248  
G07  23106246.735      -31620.579       -1436.000           0.251  
> 2023 05 18 00 00 52.1688020  0  7                     
G01  24294189.635      142852.778        2910.675           0.239  
G02  22338826.164      -20160.305        -611.457           0.255  
G03  23622513.590      -81026.249       -2128.654           0.244  
G04  22519325.225       81495.226        2008.081           0.255  
G05  20629077.541      -14936.398        -471.354           0.255  
G06  23409109.424      -37641.487       -1313.832           0.248  
G07  23106284.199      -31764.109       -1435.967           0.251  
> 2023 05 18 00 00 52.2688020  0  7                     
G01  24294116.990      143143.870        2912.349           0.240  
G02  22338839.003      -20208.249        -489.177           0.255  
G03  23622568.075      -81239.124       -2128.851           0.244  
G04  22519273.391       81698.764        2084.186           0.255  
G05  20629089.110      -14983.525        -472.443           0.255  
G06  23409142.989      -37772.874       -1313.797           0.248  
G07  23106320.751      -31907.633       -1435.193           0.251  
> 2023 05 18 00 00 52.3688020  0  7                     
G01  24294041.199      143434.957        2912.599           0.239  
G02  22338850.510      -20257.371        -490.961           0.255  
G03  23622621.981      -81451.989       -2128.734           0.244  
G04  22519221.622       81902.189        2034.047           0.255  
G05  20629101.860      -15030.652        -471.750           0.255  
G06  23409176.624      -37904.266       -1313.623           0.248  
G07  23106357.628      -32051.157       -1434.580           0.252  
> 2023 05 18 00 00 52.4688020  0  7                     
G01  24293967.007      143726.033        2910.905           0.239  
G02  22338863.223      -20306.489        -491.757           0.255  
G03  23622676.515      -81664.867       -2129.337           0.244  
G04  22519168.964       82105.701        2035.782           0.255  
G05  20629113.460      -15077.775        -470.632           0.255  
G06  23409210.036      -38035.661       -1313.828           0.248  
G07  23106394.109      -32194.695       -1434.689           0.251  
> 2023 05 18 00 00 52.5688020  0  7                     
G01  24293892.278      144017.122        2911.644           0.239  
G02  22338876.411      -20355.595        -493.134           0.255  
G03  23622731.463      -81877.732       -2128.104           0.244  
G04  22519118.144       82309.199        2033.801           0.255  
G05  20629125.085      -15124.919        -471.107           0.255  
G06  23409243.894      -38167.055       -1313.864           0.248  
G07  23106430.426      -32338.241       -1435.166           0.252  
> 2023 05 18 00 00 52.6688020  0  7                     
G01  24293819.444      144308.203        2911.613           0.239  
G02  22338888.626      -20404.726        -494.317           0.255  
G03  23622785.786      -82090.614       -2144.724           0.244  
G04  22519065.926       82512.708        2035.895           0.255  
G05  20629137.479      -15172.060        -470.566           0.255  
G06  23409276.768      -38298.608       -1335.995           0.248  
G07  23106467.021      -32482.023       -1481.644           0.252  
> 2023 05 18 00 00 52.7688020  0  7                     
G01  24293743.585      144599.289        2911.360           0.240  
G02  22338900.571      -20454.211        -600.720           0.255  
G03  23622839.770      -82303.474       -2128.542           0.244  
G04  22519015.013       82716.193        2033.558           0.255  
G05  20629149.204      -15219.209        -470.764           0.255  
G06  23409310.277      -38429.859       -1313.894           0.248  
G07  23106504.887      -32625.165       -1411.535           0.251  
> 2023 05 18 00 00 52.8688020  0  7                     
G01  24293670.390      144890.348        2909.462           0.239  
G02  22338913.392      -20502.971        -493.758           0.255  
G03  23622892.386      -82516.094       -2073.014           0.244  
G04  22518962.704       82919.704        2035.654           0.255  
G05  20629161.476      -15266.355        -470.384           0.255  
G06  23409343.555      -38561.250       -1313.692           0.248  
G07  23106540.888      -32768.872       -1396.204           0.251  
> 2023 05 18 00 00 52.9688020  0  7                     
G01  24293595.620      145181.438        2911.199           0.239  
G02  22338926.292      -20552.112        -495.298           0.255  
G03  23622947.754      -82729.122       -2121.011           0.244  
G04  22518910.515       83122.940        1998.499           0.255  
G05  20629173.810      -15313.500        -468.831           0.255  
G06  23409377.000      -38692.668       -1314.406           0.248  
G07  23106576.898      -32912.387       -1436.269           0.252  
> 2023 05 18 00 00 53.0688020  0  7                     
G01  24293520.209      145472.534        2911.880           0.239  
G02  22338939.470      -20601.236        -494.748           0.255  
G03  23623001.099      -82942.038       -2103.729           0.244  
G04  22518858.634       83326.797        2116.550           0.255  
G05  20629185.269      -15360.661        -469.883           0.255  
G06  23409410.441      -38823.903       -1300.131           0.248  
G07  23106613.032      -33055.918       -1434.356           0.251  
> 2023 05 18 00 00 53.1688020  0  7                     
G01  24293446.791      145763.588        2911.524           0.239  
G02  22338951.141      -20650.375        -493.948           0.255  
G03  23623056.915      -83154.996       -2129.822           0.244  
G04  22518806.586       83530.163        2033.525           0.255  
G05  20629197.694      -15407.823        -470.294           0.255  
G06  23409444.590      -38955.488       -1313.943           0.248  
G07  23106649.080      -33199.451       -1435.569           0.251  
> 2023 05 18 00 00 53.2688020  0  7                     
G01  24293373.113      146054.667        2911.125           0.239  
G02  22338963.335      -20699.507        -494.044           0.255  
G03  23623111.164      -83367.866       -2129.018           0.244  
G04  22518755.104       83733.658        2035.630           0.255  
G05  20629209.600      -15454.992        -470.520           0.255  
G06  23409477.767      -39086.909       -1314.822           0.248  
G07  23106686.452      -33342.978       -1434.958           0.251  
> 2023 05 18 00 00 53.3688020  0  7                     
G01  24293298.432      146345.743        2910.425           0.239  
G02  22338976.576      -20748.665        -494.631           0.255  
G03  23623165.069      -83580.760       -2129.718           0.244  
G04  22518702.776       83937.131        2033.174           0.255  
G05  20629221.853      -15502.158        -470.355           0.255  
G06  23409511.138      -39218.326       -1314.552           0.248  
G07  23106722.604      -33486.540       -1436.002           0.251  
> 2023 05 18 00 00 53.4688020  0  7                     
G01  24293225.342      146636.830        2910.943           0.239  
G02  22338988.783      -20797.826        -495.342           0.255  
G03  23623219.261      -83793.753       -2129.489           0.244  
G04  22518651.114       84140.685        2080.210           0.255  
G05  20629233.607      -15549.325        -470.099           0.255  
G06  23409544.769      -39349.729       -1285.549           0.248  
G07  23106759.598      -33630.300       -1479.264           0.252  
> 2023 05 18 00 00 53.5688020  0  7                     
G01  24293150.340      146927.905        2910.393           0.239  
G02  22339001.671      -20847.719        -628.211           0.255  
G03  23623273.652      -84006.516       -2128.995           0.244  
G04  22518599.125       84344.105        2034.135           0.255  
G05  20629245.164      -15596.493        -468.633           0.255  
G06  23409578.724      -39481.169       -1313.220           0.248  
G07  23106797.403      -33773.701       -1418.311           0.252  
> 2023 05 18 00 00 53.6688020  0  7                     
G01  24293077.457      147218.979        2909.559           0.239  
G02  22339014.030      -20896.147        -496.047           0.255  
G03  23623327.010      -84219.348       -2113.906           0.244  
G04  22518547.482       84547.582        2034.855           0.255  
G05  20629257.338      -15643.669        -469.821           0.255  
G06  23409611.740      -39612.600       -1314.352           0.248  
G07  23106832.324      -33917.171       -1434.954           0.252  
> 2023 05 18 00 00 53.7688020  0  7                     
G01  24293003.259      147510.056        2910.042           0.239  
G02  22339026.471      -20945.329        -497.454           0.255  
G03  23623381.506      -84432.278       -2128.645           0.244  
G04  22518495.633       84751.066        2034.120           0.255  
G05  20629269.398      -15690.847        -468.405           0.255  
G06  23409645.248      -39744.037       -1315.080           0.248  
G07  23106869.900      -34060.711       -1435.712           0.252  
> 2023 05 18 00 00 53.8688020  0  7                     
G01  24292928.109      147801.137        2910.575           0.239  
G02  22339039.234      -20994.502        -498.115           0.255  
G03  23623436.154      -84645.163       -2128.939           0.244  
G04  22518443.378       84954.538        2035.350           0.255  
G05  20629281.275      -15738.031        -468.213           0.255  
G06  23409678.843      -39875.569       -1321.095           0.248  
G07  23106906.944      -34204.244       -1435.085           0.251  
> 2023 05 18 00 00 53.9688020  0  7                     
G01  24292854.028      148092.218        2910.618           0.239  
G02  22339052.813      -21043.673        -497.316           0.255  
G03  23623490.432      -84858.049       -2129.065           0.244  
G04  22518391.938       85158.013        2034.575           0.255  
G05  20629292.709      -15785.222        -469.163           0.255  
G06  23409712.435      -40006.905       -1314.156           0.248  
G07  23106942.036      -34347.785       -1434.954           0.252  
> 2023 05 18 00 00 54.0688020  0  7                     
G01  24292780.251      148383.293        2911.280           0.239  
G02  22339064.442      -21092.849        -496.817           0.255  
G03  23623544.045      -85070.944       -2129.554           0.244  
G04  22518340.535       85361.474        2034.646           0.255  
G05  20629305.939      -15832.419        -469.514           0.255  
G06  23409745.364      -40138.348       -1314.852           0.248  
G07  23106979.033      -34491.330       -1435.440           0.251  
> 2023 05 18 00 00 54.1688020  0  7                     
G01  24292705.405      148674.013        2860.929           0.239  
G02  22339077.106      -21141.372        -500.183           0.255  
G03  23623597.949      -85284.056       -2149.780           0.244  
G04  22518288.742       85564.946        2034.599           0.255  
G05  20629317.184      -15879.612        -469.845           0.255  
G06  23409779.372      -40269.790       -1314.258           0.248  
G07  23107016.606      -34635.020       -1473.804           0.251  
> 2023 05 18 00 00 54.2688020  0  7                     
G01  24292632.070      148965.441        2910.623           0.239  
G02  22339089.045      -21191.219        -495.663           0.255  
G03  23623653.479      -85496.721       -2128.555           0.244  
G04  22518235.847       85768.412        2034.581           0.255  
G05  20629329.195      -15926.815        -470.912           0.255  
G06  23409813.429      -40401.238       -1314.400           0.248  
G07  23107052.186      -34778.425       -1435.258           0.251  
> 2023 05 18 00 00 54.3688020  0  7                     
G01  24292557.749      149256.525        2910.754           0.239  
G02  22339102.162      -21240.418        -495.215           0.255  
G03  23623707.294      -85709.423       -2090.064           0.244  
G04  22518184.437       85972.088        2099.079           0.255  
G05  20629341.440      -15974.008        -470.285           0.255  
G06  23409846.563      -40532.658       -1309.677           0.248  
G07  23107088.894      -34921.979       -1436.045           0.252  
> 2023 05 18 00 00 54.4688020  0  7                     
G01  24292483.343      149547.582        2910.553           0.239  
G02  22339114.746      -21289.624        -495.759           0.255  
G03  23623761.552      -85922.505       -2129.247           0.244  
G04  22518132.924       86175.333        2034.431           0.255  
G05  20629353.651      -16021.216        -470.389           0.255  
G06  23409879.893      -40664.140       -1314.458           0.248  
G07  23107124.860      -35065.520       -1435.353           0.251  
> 2023 05 18 00 00 54.5688020  0  7                     
G01  24292409.613      149838.663        2910.688           0.239  
G02  22339127.624      -21338.830        -495.688           0.255  
G03  23623815.998      -86135.422       -2135.036           0.244  
G04  22518080.835       86379.033        2119.368           0.255  
G05  20629365.626      -16068.419        -470.377           0.255  
G06  23409913.232      -40795.598       -1314.557           0.248  
G07  23107161.425      -35208.939       -1421.292           0.252  
> 2023 05 18 00 00 54.6688020  0  7                     
G01  24292335.881      150129.745        2911.991           0.239  
G02  22339139.772      -21388.028        -495.612           0.255  
G03  23623868.895      -86348.293       -2129.581           0.244  
G04  22518028.996       86582.242        2033.406           0.255  
G05  20629378.204      -16115.636        -470.753           0.255  
G06  23409946.939      -40927.156       -1330.035           0.248  
G07  23107197.149      -35352.867       -1449.420           0.252  
> 2023 05 18 00 00 54.7688020  0  7                     
G01  24292260.737      150420.825        2913.717           0.239  
G02  22339152.273      -21437.247        -496.200           0.255  
G03  23623924.678      -86561.189       -2128.628           0.244  
G04  22517977.665       86785.709        2035.310           0.255  
G05  20629389.904      -16162.840        -470.273           0.255  
G06  23409980.217      -41058.523       -1314.950           0.248  
G07  23107235.695      -35496.173       -1435.618           0.251  
> 2023 05 18 00 00 54.8688020  0  7                     
G01  24292186.329      150711.897        2910.255           0.239  
G02  22339164.017      -21486.470        -496.903           0.255  
G03  23623979.052      -86774.090       -2128.906           0.244  
G04  22517926.097       86989.155        2033.416           0.255  
G05  20629401.738      -16210.056        -469.731           0.255  
G06  23410013.570      -41189.980       -1314.370           0.248  
G07  23107272.518      -35639.722       -1435.900           0.252  
> 2023 05 18 00 00 54.9688020  0  7                     
G01  24292113.115      151002.976        2910.196           0.239  
G02  22339177.421      -21535.698        -496.412           0.255  
G03  23624033.745      -86986.991       -2128.389           0.244  
G04  22517873.308       87192.605        2034.892           0.255  
G05  20629414.125      -16257.278        -469.903           0.255  
G06  23410046.963      -41321.447       -1314.675           0.248  
G07  23107308.790      -35783.260       -1435.533           0.251  
> 2023 05 18 00 00 55.0688020  0  7                     
G01  24292040.857      151294.329        2918.857           0.238  
G02  22339189.253      -21584.251        -488.858           0.255  
G03  23624087.178      -87199.883       -2128.726           0.244  
G04  22517821.911       87395.343        1894.426           0.255  
G05  20629425.887      -16304.506        -470.857           0.255  
G06  23410080.931      -41452.982       -1331.019           0.248  
G07  23107344.854      -35926.726       -1410.981           0.251  
> 2023 05 18 00 00 55.1688020  0  7                     
G01  24291965.414      151585.125        2909.246           0.239  
G02  22339202.110      -21634.140        -495.682           0.255  
G03  23624141.258      -87412.781       -2129.105           0.244  
G04  22517769.811       87599.500        2035.404           0.255  
G05  20629437.764      -16351.740        -471.347           0.255  
G06  23410114.513      -41584.385       -1314.938           0.248  
G07  23107381.627      -36070.365       -1434.810           0.252  
> 2023 05 18 00 00 55.2688020  0  7                     
G01  24291890.801      151876.211        2911.734           0.239  
G02  22339215.187      -21683.380        -495.247           0.255  
G03  23624195.569      -87625.681       -2129.338           0.244  
G04  22517717.849       87802.946        2035.278           0.255  
G05  20629449.648      -16398.963        -470.766           0.255  
G06  23410148.098      -41715.864       -1314.547           0.248  
G07  23107418.397      -36213.930       -1435.615           0.251  
> 2023 05 18 00 00 55.3688020  0  7                     
G01  24291816.623      152167.284        2912.216           0.239  
G02  22339226.608      -21732.631        -496.322           0.255  
G03  23624251.013      -87838.593       -2129.863           0.244  
G04  22517666.139       88006.375        2033.944           0.255  
G05  20629462.263      -16446.197        -470.393           0.255  
G06  23410181.248      -41847.414       -1315.163           0.248  
G07  23107454.831      -36357.415       -1416.829           0.252  
> 2023 05 18 00 00 55.4688020  0  7                     
G01  24291737.700      152458.354        2911.991           0.239  
G02  22339238.812      -21781.873        -496.145           0.255  
G03  23624303.739      -88051.482       -2128.463           0.244  
G04  22517614.951       88209.831        2035.924           0.255  
G05  20629474.458      -16493.433        -470.588           0.255  
G06  23410214.099      -41978.826       -1315.302           0.248  
G07  23107491.610      -36501.044       -1435.417           0.252  
> 2023 05 18 00 00 55.5688020  0  7                     
G01  24291668.048      152749.436        2912.059           0.239  
G02  22339252.215      -21831.118        -494.739           0.255  
G03  23624357.934      -88264.392       -2129.347           0.244  
G04  22517562.401       88413.249        2033.221           0.255  
G05  20629486.156      -16540.677        -471.472           0.255  
G06  23410248.033      -42110.304       -1315.280           0.248  
G07  23107527.763      -36644.597       -1435.527           0.251  
> 2023 05 18 00 00 55.6688020  0  7                     
G01  24291594.528      153040.519        2910.652           0.239  
G02  22339264.165      -21880.376        -494.907           0.255  
G03  23624412.874      -88477.294       -2129.242           0.244  
G04  22517511.500       88616.689        2034.898           0.255  
G05  20629498.816      -16587.921        -471.401           0.255  
G06  23410281.927      -42241.791       -1314.903           0.248  
G07  23107564.418      -36788.160       -1435.850           0.251  
> 2023 05 18 00 00 55.7688020  0  7                     
G01  24291518.400      153331.586        2910.938           0.239  
G02  22339276.999      -21930.031        -561.424           0.255  
G03  23624465.975      -88690.203       -2144.914           0.244  
G04  22517459.177       88819.297        1893.667           0.255  
G05  20629510.960      -16635.172        -472.018           0.255  
G06  23410314.958      -42373.324       -1309.492           0.248  
G07  23107600.606      -36931.858       -1461.177           0.252  
> 2023 05 18 00 00 55.8688020  0  7                     
G01  24291446.474      153622.672        2911.563           0.239  
G02  22339289.828      -21978.907        -495.399           0.255  
G03  23624521.724      -88903.305       -2168.039           0.244  
G04  22517407.019       89023.548        2034.475           0.255  
G05  20629522.541      -16682.424        -471.321           0.255  
G06  23410349.082      -42504.770       -1314.687           0.248  
G07  23107637.097      -37075.264       -1435.966           0.251  
> 2023 05 18 00 00 55.9688020  0  7                     
G01  24291371.440      153913.744        2911.280           0.239  
G02  22339302.427      -22028.197        -498.428           0.255  
G03  23624575.499      -89116.018       -2129.033           0.244  
G04  22517355.369       89227.395        2090.583           0.255  
G05  20629534.468      -16729.666        -469.627           0.255  
G06  23410382.549      -42636.267       -1315.184           0.248  
G07  23107673.860      -37218.788       -1418.330           0.251  
> 2023 05 18 00 00 56.0688020  0  7                     
G01  24291297.031      154204.827        2911.566           0.239  
G02  22339314.895      -22077.477        -498.942           0.255  
G03  23624629.891      -89328.927       -2128.487           0.244  
G04  22517303.593       89430.395        2034.567           0.255  
G05  20629546.373      -16776.921        -469.168           0.255  
G06  23410416.133      -42767.767       -1315.295           0.248  
G07  23107710.616      -37362.394       -1435.921           0.251  
> 2023 05 18 00 00 56.1688020  0  7                     
G01  24291222.151      154495.893        2909.704           0.239  
G02  22339327.230      -22126.758        -498.303           0.255  
G03  23624683.992      -89541.835       -2128.763           0.244  
G04  22517251.320       89633.832        2035.732           0.255  
G05  20629558.236      -16824.179        -469.390           0.255  
G06  23410449.725      -42899.330       -1320.817           0.248  
G07  23107747.152      -37506.027       -1452.578           0.252  
> 2023 05 18 00 00 56.2688020  0  7                     
G01  24291148.350      154786.977        2910.327           0.239  
G02  22339339.966      -22176.032        -497.220           0.255  
G03  23624737.724      -89754.740       -2128.640           0.244  
G04  22517199.539       89837.330        2013.689           0.255  
G05  20629570.514      -16871.450        -470.134           0.255  
G06  23410483.011      -43030.855       -1318.556           0.248  
G07  23107783.183      -37649.696       -1455.089           0.251  
> 2023 05 18 00 00 56.3688020  0  7                     
G01  24291074.538      155078.067        2911.859           0.239  
G02  22339352.843      -22225.317        -496.900           0.255  
G03  23624792.319      -89967.656       -2128.784           0.244  
G04  22517147.680       90040.666        2034.642           0.255  
G05  20629582.496      -16918.716        -470.562           0.255  
G06  23410516.593      -43162.278       -1314.796           0.248  
G07  23107820.711      -37793.073       -1435.385           0.252  
> 2023 05 18 00 00 56.4688020  0  7                     
G01  24291000.144      155369.127        2910.003           0.239  
G02  22339365.433      -22274.618        -496.894           0.255  
G03  23624845.995      -90180.573       -2129.316           0.244  
G04  22517095.790       90244.083        2033.980           0.255  
G05  20629594.482      -16965.983        -470.178           0.255  
G06  23410550.107      -43293.797       -1315.534           0.248  
G07  23107856.906      -37936.634       -1435.717           0.252  
> 2023 05 18 00 00 56.5688020  0  7                     
G01  24290926.125      155660.204        2910.465           0.239  
G02  22339377.541      -22323.913        -496.142           0.255  
G03  23624900.681      -90393.393       -2129.579           0.244  
G04  22517044.155       90447.489        2034.080           0.255  
G05  20629606.702      -17013.262        -470.728           0.255  
G06  23410583.420      -43425.307       -1315.356           0.248  
G07  23107892.998      -38080.194       -1435.257           0.251  
> 2023 05 18 00 00 56.6688020  0  7                     
G01  24290852.192      155951.287        2911.585           0.239  
G02  22339389.741      -22373.754        -629.053           0.255  
G03  23624955.050      -90606.406       -2129.576           0.244  
G04  22516992.159       90650.911        2034.987           0.255  
G05  20629619.076      -17060.542        -471.254           0.255  
G06  23410617.096      -43556.718       -1286.607           0.248  
G07  23107930.028      -38223.632       -1392.710           0.251  
> 2023 05 18 00 00 56.7688020  0  7                     
G01  24290776.644      156242.365        2910.654           0.239  
G02  22339402.641      -22422.505        -494.868           0.255  
G03  23625009.384      -90819.319       -2130.000           0.244  
G04  22516940.539       90854.313        2033.328           0.255  
G05  20629630.929      -17107.830        -471.751           0.255  
G06  23410650.471      -43688.343       -1314.722           0.248  
G07  23107966.620      -38367.326       -1435.493           0.252  
> 2023 05 18 00 00 56.8688020  0  7                     
G01  24290703.606      156533.439        2910.800           0.239  
G02  22339415.278      -22471.813        -494.173           0.255  
G03  23625063.836      -91032.239       -2130.014           0.244  
G04  22516888.193       91057.724        2034.437           0.255  
G05  20629642.947      -17155.114        -471.834           0.255  
G06  23410683.953      -43819.866       -1315.217           0.248  
G07  23108003.212      -38510.894       -1435.481           0.252  
> 2023 05 18 00 00 56.9688020  0  7                     
G01  24290629.762      156824.524        2911.779           0.239  
G02  22339427.639      -22521.130        -493.884           0.255  
G03  23625117.555      -91245.342       -2141.799           0.244  
G04  22516836.583       91261.125        2032.991           0.255  
G05  20629655.202      -17202.408        -472.623           0.255  
G06  23410717.333      -43951.394       -1315.251           0.248  
G07  23108039.793      -38654.458       -1435.171           0.252  
> 2023 05 18 00 00 57.0688020  0  7                     
G01  24290554.935      157115.601        2910.874           0.239  
G02  22339440.569      -22570.444        -493.013           0.255  
G03  23625172.226      -91458.079       -2130.016           0.244  
G04  22516784.692       91464.533        2034.499           0.255  
G05  20629666.999      -17249.695        -472.611           0.255  
G06  23410750.834      -44082.928       -1315.340           0.248  
G07  23108076.357      -38798.029       -1435.640           0.252  
> 2023 05 18 00 00 57.1688020  0  7                     
G01  24290481.025      157406.666        2910.353           0.239  
G02  22339453.117      -22619.774        -491.985           0.255  
G03  23625226.815      -91671.001       -2129.730           0.244  
G04  22516732.880       91667.935        2034.009           0.255  
G05  20629679.030      -17296.987        -473.136           0.255  
G06  23410784.599      -44214.454       -1315.295           0.248  
G07  23108113.076      -38941.594       -1435.780           0.251  
> 2023 05 18 00 00 57.2688020  0  7                     
G01  24290406.421      157697.752        2912.237           0.239  
G02  22339465.296      -22669.097        -490.732           0.255  
G03  23625281.071      -91883.920       -2129.624           0.244  
G04  22516681.387       91871.330        2033.633           0.255  
G05  20629691.379      -17344.291        -473.795           0.255  
G06  23410817.941      -44345.992       -1315.091           0.248  
G07  23108150.042      -39085.159       -1435.172           0.252  
> 2023 05 18 00 00 57.3688020  0  7                     
G01  24290332.015      157988.835        2911.623           0.239  
G02  22339477.643      -22718.876        -368.756           0.255  
G03  23625335.385      -92096.673       -2075.460           0.244  
G04  22516629.391       92074.001        1879.715           0.255  
G05  20629703.874      -17391.597        -474.161           0.255  
G06  23410851.665      -44477.494       -1301.670           0.248  
G07  23108186.063      -39228.296       -1394.424           0.251  
> 2023 05 18 00 00 57.4688020  0  7                     
G01  24290258.164      158279.610        2834.933           0.239  
G02  22339490.849      -22767.908        -360.991           0.255  
G03  23625389.399      -92309.765       -2129.002           0.244  
G04  22516577.878       92278.561        2037.646           0.255  
G05  20629715.574      -17438.912        -474.135           0.255  
G06  23410884.979      -44609.062       -1314.708           0.248  
G07  23108222.517      -39372.329       -1415.671           0.251  
> 2023 05 18 00 00 57.5688020  0  7                     
G01  24290184.821      158570.966        2910.280           0.239  
G02  22339504.327      -22817.080        -490.123           0.255  
G03  23625443.053      -92522.691       -2129.238           0.244  
G04  22516525.972       92481.518        2033.858           0.255  
G05  20629727.354      -17486.226        -474.738           0.255  
G06  23410918.646      -44740.607       -1315.165           0.248  
G07  23108259.429      -39515.866       -1435.556           0.251  
> 2023 05 18 00 00 57.6688020  0  7                     
G01  24290110.192      158862.055        2911.122           0.239  
G02  22339516.109      -22866.415        -488.770           0.255  
G03  23625497.632      -92735.622       -2129.614           0.244  
G04  22516473.822       92685.209        2101.617           0.255  
G05  20629739.592      -17533.544        -475.520           0.255  
G06  23410952.255      -44872.038       -1288.527           0.248  
G07  23108296.412      -39659.072       -1352.375           0.252  
> 2023 05 18 00 00 57.7688020  0  7                     
G01  24290036.282      159153.122        2910.798           0.239  
G02  22339528.868      -22915.756        -488.668           0.255  
G03  23625551.753      -92948.546       -2129.143           0.244  
G04  22516421.853       92888.299        2032.727           0.255  
G05  20629751.783      -17580.862        -475.355           0.255  
G06  23410985.728      -45003.839       -1304.085           0.248  
G07  23108332.716      -39803.015       -1436.022           0.252  
> 2023 05 18 00 00 57.8688020  0  7                     
G01  24289961.869      159444.195        2910.412           0.239  
G02  22339541.955      -22965.559        -426.958           0.255  
G03  23625606.517      -93161.306       -2088.364           0.244  
G04  22516370.075       93091.688        2033.696           0.255  
G05  20629763.465      -17628.186        -475.075           0.255  
G06  23411019.146      -45135.286       -1313.710           0.248  
G07  23108368.404      -39947.054       -1533.692           0.251  
> 2023 05 18 00 00 57.9688020  0  7                     
G01  24289887.315      159735.272        2911.543           0.239  
G02  22339555.000      -23014.462        -489.871           0.255  
G03  23625660.377      -93374.403       -2129.890           0.244  
G04  22516318.156       93295.068        2033.292           0.255  
G05  20629775.385      -17675.514        -475.501           0.255  
G06  23411052.754      -45266.804       -1315.564           0.248  
G07  23108405.195      -40090.157       -1435.173           0.251  
> 2023 05 18 00 00 58.0688020  0  7                     
G01  24289812.344      160026.358        2910.286           0.239  
G02  22339567.516      -23063.825        -490.585           0.255  
G03  23625714.643      -93587.331       -2129.691           0.244  
G04  22516266.332       93498.455        2034.161           0.255  
G05  20629787.403      -17722.842        -475.322           0.255  
G06  23411086.357      -45398.357       -1315.733           0.248  
G07  23108442.108      -40233.732       -1435.419           0.252  
> 2023 05 18 00 00 58.1688020  0  7                     
G01  24289738.101      160317.426        2909.662           0.239  
G02  22339579.876      -23113.189        -490.941           0.255  
G03  23625769.076      -93800.267       -2129.376           0.244  
G04  22516214.475       93701.841        2034.157           0.255  
G05  20629799.392      -17770.174        -474.686           0.255  
G06  23411119.978      -45529.921       -1315.582           0.248  
G07  23108478.382      -40377.315       -1437.441           0.252  
> 2023 05 18 00 00 58.2688020  0  7                     
G01  24289663.558      160608.514        2911.353           0.239  
G02  22339592.190      -23162.554        -491.079           0.255  
G03  23625823.486      -94013.201       -2129.335           0.244  
G04  22516162.880       93905.205        2032.615           0.255  
G05  20629811.339      -17817.511        -474.622           0.255  
G06  23411153.405      -45661.487       -1315.782           0.248  
G07  23108515.847      -40520.880       -1436.586           0.251  
> 2023 05 18 00 00 58.3688020  0  7                     
G01  24289590.374      160899.590        2910.745           0.239  
G02  22339604.817      -23210.913        -280.590           0.255  
G03  23625877.545      -94226.128       -2129.182           0.244  
G04  22516110.934       94108.268        1985.590           0.255  
G05  20629823.654      -17864.862        -475.331           0.255  
G06  23411186.795      -45793.049       -1315.553           0.248  
G07  23108552.627      -40664.455       -1435.091           0.251  
> 2023 05 18 00 00 58.4688020  0  7                     
G01  24289515.868      161190.658        2909.434           0.239  
G02  22339617.946      -23261.293        -491.921           0.255  
G03  23625931.349      -94439.066       -2129.510           0.244  
G04  22516059.062       94311.964        2033.571           0.255  
G05  20629835.325      -17912.203        -474.762           0.255  
G06  23411220.306      -45924.613       -1315.602           0.248  
G07  23108588.574      -40808.036       -1435.500           0.252  
> 2023 05 18 00 00 58.5688020  0  7                     
G01  24289442.145      161481.732        2909.879           0.239  
G02  22339630.870      -23310.697        -493.714           0.255  
G03  23625986.014      -94651.996       -2129.195           0.244  
G04  22516007.227       94515.322        2032.838           0.255  
G05  20629847.173      -17959.538        -473.603           0.255  
G06  23411253.916      -46056.190       -1315.852           0.248  
G07  23108624.538      -40951.623       -1436.860           0.252  
> 2023 05 18 00 00 58.6688020  0  7                     
G01  24289367.791      161772.822        2911.046           0.239  
G02  22339642.946      -23360.103        -495.010           0.255  
G03  23626040.646      -94864.935       -2129.205           0.244  
G04  22515955.469       94718.709        2035.204           0.255  
G05  20629859.182      -18006.877        -473.122           0.255  
G06  23411287.608      -46187.762       -1315.506           0.248  
G07  23108661.969      -41095.198       -1436.600           0.251  
> 2023 05 18 00 00 58.7688020  0  7                     
G01  24289294.388      162063.910        2911.083           0.239  
G02  22339655.221      -23409.506        -496.444           0.255  
G03  23626094.703      -95077.877       -2129.155           0.244  
G04  22515903.786       94922.072        2033.306           0.255  
G05  20629871.756      -18054.226        -472.569           0.255  
G06  23411320.972      -46319.347       -1316.076           0.248  
G07  23108698.925      -41238.776       -1436.063           0.252  
> 2023 05 18 00 00 58.8688020  0  7                     
G01  24289220.042      162354.973        2908.802           0.239  
G02  22339667.795      -23458.916        -497.593           0.255  
G03  23626148.870      -95290.812       -2128.953           0.244  
G04  22515851.937       95125.426        2033.054           0.255  
G05  20629883.902      -18101.579        -471.881           0.255  
G06  23411354.527      -46450.924       -1315.722           0.248  
G07  23108734.897      -41382.357       -1435.951           0.252  
> 2023 05 18 00 00 58.9688020  0  7                     
G01  24289146.573      162646.056        2910.792           0.239  
G02  22339680.251      -23508.326        -497.805           0.255  
G03  23626203.124      -95503.753       -2129.113           0.244  
G04  22515800.023       95328.797        2034.038           0.255  
G05  20629895.589      -18148.930        -471.445           0.255  
G06  23411387.881      -46582.506       -1315.439           0.248  
G07  23108771.646      -41525.934       -1436.267           0.251  
> 2023 05 18 00 00 59.0688020  0  7                     
G01  24289071.943      162937.133        2910.567           0.239  
G02  22339692.439      -23557.747        -498.252           0.255  
G03  23626257.219      -95716.694       -2129.081           0.244  
G04  22515748.195       95532.150        2032.469           0.255  
G05  20629907.784      -18196.289        -471.603           0.255  
G06  23411421.438      -46714.092       -1315.640           0.248  
G07  23108807.652      -41669.517       -1436.152           0.251  
> 2023 05 18 00 00 59.1688020  0  7                     
G01  24288997.550      163228.203        2909.845           0.239  
G02  22339704.345      -23607.169        -497.994           0.255  
G03  23626311.535      -95929.640       -2129.550           0.244  
G04  22515696.498       95735.511        2033.901           0.255  
G05  20629920.108      -18243.648        -471.632           0.255  
G06  23411455.008      -46845.684       -1315.546           0.248  
G07  23108845.499      -41813.099       -1435.941           0.251  
> 2023 05 18 00 00 59.2688020  0  7                     
G01  24288923.913      163519.277        2909.822           0.239  
G02  22339716.748      -23656.593        -497.402           0.255  
G03  23626366.112      -96142.586       -2129.436           0.244  
G04  22515644.550       95938.873        2034.196           0.255  
G05  20629932.534      -18291.014        -471.773           0.255  
G06  23411488.529      -46977.277       -1315.970           0.248  
G07  23108881.799      -41956.688       -1436.288           0.251  
> 2023 05 18 00 00 59.3688020  0  7                     
G01  24288848.948      163810.356        2910.253           0.239  
G02  22339729.533      -23706.012        -496.354           0.255  
G03  23626420.014      -96355.532       -2129.460           0.244  
G04  22515592.930       96142.212        2032.295           0.255  
G05  20629944.733      -18338.381        -472.006           0.255  
G06  23411521.934      -47108.880       -1316.270           0.248  
G07  23108917.735      -42100.273       -1436.726           0.251  
> 2023 05 18 00 00 59.4688020  0  7                     
G01  24288775.760      164101.450        2911.551           0.239  
G02  22339742.649      -23755.441        -495.730           0.255  
G03  23626474.620      -96568.474       -2129.072           0.244  
G04  22515540.973       96345.574        2034.869           0.255  
G05  20629956.580      -18385.755        -472.218           0.255  
G06  23411555.396      -47240.476       -1315.657           0.248  
G07  23108954.135      -42243.858       -1436.859           0.251  
> 2023 05 18 00 00 59.5688020  0  7                     
G01  24288700.115      164392.519        2910.688           0.239  
G02  22339755.026      -23804.882        -494.870           0.255  
G03  23626529.084      -96781.423       -2129.686           0.244  
G04  22515489.468       96548.927        2033.937           0.255  
G05  20629968.547      -18433.127        -473.108           0.255  
G06  23411589.238      -47372.078       -1315.851           0.248  
G07  23108990.798      -42387.439       -1436.513           0.251  
> 2023 05 18 00 00 59.6688020  0  7                     
G01  24288626.710      164683.588        2910.256           0.239  
G02  22339766.360      -23854.314        -493.228           0.255  
G03  23626582.737      -96994.364       -2129.077           0.244  
G04  22515437.311       96752.259        2032.413           0.255  
G05  20629980.976      -18480.510        -474.174           0.255  
G06  23411622.705      -47503.680       -1315.883           0.248  
G07  23109028.210      -42531.023       -1435.897           0.252  
> 2023 05 18 00 00 59.7688020  0  7                     
G01  24288552.091      164974.673        2911.852           0.239  
G02  22339779.745      -23903.735        -492.591           0.255  
G03  23626637.280      -97207.312       -2128.980           0.244  
G04  22515385.550       96955.613        2034.441           0.255  
G05  20629993.411      -18527.907        -474.616           0.255  
G06  23411656.022      -47635.291       -1315.947           0.248  
G07  23109064.740      -42674.612       -1436.309           0.252  
> 2023 05 18 00 00 59.8688020  0  7                     
G01  24288477.999      165265.751        2910.490           0.239  
G02  22339793.227      -23953.165        -491.703           0.255  
G03  23626691.488      -97420.267       -2129.167           0.244  
G04  22515333.615       97158.961        2034.060           0.255  
G05  20630005.346      -18575.302        -474.891           0.255  
G06  23411689.555      -47766.901       -1315.963           0.248  
G07  23109101.040      -42818.195       -1436.431           0.252  
> 2023 05 18 00 00 59.9688020  0  7                     
G01  24288402.822      165556.838        2912.564           0.240  
G02  22339807.123      -24002.598        -489.870           0.255  
G03  23626746.013      -97633.194       -2116.766           0.244  
G04  22515281.957       97362.290        2032.591           0.255  
G05  20630016.865      -18622.704        -476.085           0.255  
G06  23411723.029      -47898.514       -1316.083           0.248  
G07  23109137.545      -42961.777       -1436.124           0.252  
> 2023 05 18 00 01 00.1688020  0  7                     
G01  24288257.941      166138.985        2910.887           0.239  
G02  22339831.359      -24101.514        -492.214           0.255  
G03  23626854.944      -98059.127       -2130.214           0.244  
G04  22515178.203       97768.964        2032.969           0.255  
G05  20630041.290      -18717.498        -474.891           0.255  
G06  23411790.298      -48161.747       -1315.967           0.248  
G07  23109209.741      -43248.972       -1436.864           0.251  
> 2023 05 18 00 01 00.2688020  0  7                     
G01  24288183.051      166430.059        2911.945           0.238  
G02  22339845.916      -24150.977        -493.337           0.255  
G03  23626909.364      -98272.065       -2129.328           0.244  
G04  22515126.268       97972.296        2032.681           0.255  
G05  20630052.168      -18764.899        -474.523           0.255  
G06  23411823.918      -48293.373       -1316.442           0.248  
G07  23109246.922      -43392.559       -1436.217           0.252  
> 2023 05 18 00 01 00.3688020  0  7                     
G01  24288107.644      166721.136        2911.469           0.239  
G02  22339858.027      -24200.425        -493.192           0.255  
G03  23626963.488      -98485.029       -2129.762           0.244  
G04  22515074.892       98175.635        2033.840           0.255  
G05  20630064.633      -18812.314        -474.573           0.255  
G06  23411857.371      -48424.993       -1316.075           0.248  
G07  23109283.766      -43536.148       -1437.168           0.252  
> 2023 05 18 00 01 00.4688020  0  7                     
G01  24288032.224      167012.204        2909.340           0.239  
G02  22339870.062      -24249.899        -494.229           0.255  
G03  23627017.274      -98697.991       -2130.217           0.244  
G04  22515022.767       98378.963        2033.448           0.255  
G05  20630076.813      -18859.727        -474.364           0.255  
G06  23411891.056      -48556.620       -1315.672           0.248  
G07  23109320.150      -43679.735       -1436.674           0.251  
> 2023 05 18 00 01 00.5688020  0  7                     
G01  24287959.048      167303.289        2910.454           0.239  
G02  22339882.022      -24299.381        -495.613           0.255  
G03  23627071.594      -98910.945       -2129.506           0.244  
G04  22514971.419       98582.280        2032.534           0.255  
G05  20630089.009      -18907.138        -473.847           0.255  
G06  23411924.637      -48688.249       -1315.522           0.248  
G07  23109356.922      -43823.319       -1435.631           0.251  
> 2023 05 18 00 01 00.6688020  0  7                     
G01  24287882.755      167594.364        2910.648           0.239  
G02  22339893.631      -24348.874        -496.833           0.255  
G03  23627126.545      -99123.903       -2129.610           0.244  
G04  22514918.792       98785.609        2033.388           0.255  
G05  20630101.255      -18954.549        -473.398           0.255  
G06  23411958.846      -48819.888       -1315.846           0.248  
G07  23109395.262      -43966.911       -1435.151           0.251  
> 2023 05 18 00 01 00.7688020  0  7                     
G01  24287809.969      167885.440        2911.675           0.239  
G02  22339906.161      -24398.371        -498.066           0.255  
G03  23627179.545      -99336.859       -2129.843           0.244  
G04  22514867.664       98988.935        2033.434           0.255  
G05  20630113.233      -19001.963        -472.701           0.255  
G06  23411992.202      -48951.522       -1316.393           0.248  
G07  23109432.194      -44110.507       -1436.272           0.252  
> 2023 05 18 00 01 00.8688020  0  7                     
G01  24287733.879      168176.502        2911.282           0.239  
G02  22339918.738      -24447.874        -499.317           0.255  
G03  23627234.224      -99549.824       -2129.410           0.244  
G04  22514815.892       99192.249        2032.337           0.255  
G05  20630125.051      -19049.377        -471.663           0.255  
G06  23412025.448      -49083.163       -1316.560           0.248  
G07  23109468.563      -44254.095       -1436.287           0.251  
> 2023 05 18 00 01 00.9688020  0  7                     
G01  24287662.866      168467.572        2911.372           0.239  
G02  22339930.498      -24497.368        -497.617           0.255  
G03  23627287.691      -99762.786       -2130.031           0.244  
G04  22514763.987       99395.573        2033.777           0.255  
G05  20630138.215      -19096.800        -472.327           0.255  
G06  23412058.775      -49214.805       -1316.273           0.248  
G07  23109502.694      -44397.698       -1436.984           0.251  
> 2023 05 18 00 01 01.0688020  0  7                     
G01  24287588.484      168758.648        2912.110           0.239  
G02  22339944.135      -24546.866        -496.205           0.255  
G03  23627342.350      -99975.749       -2129.760           0.244  
G04  22514711.881       99598.889        2033.840           0.255  
G05  20630149.518      -19144.230        -473.181           0.255  
G06  23412092.658      -49346.451       -1317.004           0.248  
G07  23109540.052      -44541.304       -1436.604           0.251  
> 2023 05 18 00 01 01.1688020  0  7                     
G01  24287514.698      169049.721        2911.001           0.240  
G02  22339958.095      -24596.374        -496.074           0.255  
G03  23627397.191     -100188.718       -2129.653           0.244  
G04  22514659.620       99802.193        2031.194           0.255  
G05  20630161.105      -19191.662        -473.916           0.255  
G06  23412125.896      -49478.094       -1316.480           0.248  
G07  23109578.190      -44684.892       -1435.788           0.251  
> 2023 05 18 00 01 01.2688020  0  7                     
G01  24287440.255      169340.779        2910.618           0.239  
G02  22339969.393      -24645.880        -494.501           0.255  
G03  23627451.434     -100401.667       -2128.807           0.244  
G04  22514608.255      100005.516        2033.442           0.255  
G05  20630174.080      -19239.099        -474.466           0.255  
G06  23412159.630      -49609.748       -1316.622           0.248  
G07  23109614.508      -44828.494       -1435.845           0.251  
> 2023 05 18 00 01 01.3688020  0  7                     
G01  24287364.531      169631.843        2909.209           0.239  
G02  22339982.336      -24695.846        -516.868           0.255  
G03  23627505.750     -100614.593       -2138.547           0.244  
G04  22514556.761      100208.831        2034.172           0.255  
G05  20630186.546      -19286.545        -475.182           0.255  
G06  23412192.868      -49741.403       -1317.323           0.248  
G07  23109649.303      -44972.090       -1435.711           0.252  
> 2023 05 18 00 01 01.4688020  0  7                     
G01  24287291.019      169922.924        2910.875           0.238  
G02  22339994.901      -24744.898        -493.847           0.255  
G03  23627560.850     -100827.608       -2128.876           0.244  
G04  22514504.695      100412.130        2031.800           0.255  
G05  20630198.863      -19333.994        -474.778           0.255  
G06  23412226.563      -49873.058       -1316.611           0.248  
G07  23109685.366      -45115.683       -1436.074           0.251  
> 2023 05 18 00 01 01.5688020  0  7                     
G01  24287217.261      170214.009        2911.417           0.240  
G02  22340007.962      -24794.405        -492.244           0.255  
G03  23627614.710     -101040.578       -2128.950           0.244  
G04  22514453.445      100615.432        2033.109           0.255  
G05  20630210.716      -19381.448        -475.796           0.255  
G06  23412259.863      -50004.683       -1318.180           0.248  
G07  23109723.116      -45259.393       -1477.883           0.251  
> 2023 05 18 00 01 01.6688020  0  7                     
G01  24287143.222      170505.075        2910.540           0.239  
G02  22340020.894      -24843.915        -492.159           0.255  
G03  23627668.351     -101253.553       -2129.866           0.244  
G04  22514401.241      100818.736        2034.417           0.255  
G05  20630222.315      -19428.907        -476.322           0.255  
G06  23412293.567      -50136.384       -1316.811           0.248  
G07  23109759.909      -45402.884       -1435.590           0.252  
> 2023 05 18 00 01 01.7688020  0  7                     
G01  24287068.068      170796.149        2911.234           0.239  
G02  22340032.247      -24893.437        -492.973           0.255  
G03  23627722.987     -101466.520       -2129.620           0.244  
G04  22514349.760      101022.032        2033.039           0.255  
G05  20630234.331      -19476.365        -475.923           0.255  
G06  23412326.993      -50268.044       -1316.456           0.248  
G07  23109798.388      -45546.485       -1435.794           0.251  
> 2023 05 18 00 01 01.8688020  0  7                     
G01  24286995.115      171087.212        2909.339           0.239  
G02  22340045.678      -24942.985        -495.059           0.255  
G03  23627775.899     -101679.490       -2129.809           0.244  
G04  22514298.847      101225.323        2033.442           0.255  
G05  20630245.293      -19523.816        -474.568           0.255  
G06  23412361.334      -50399.712       -1316.701           0.248  
G07  23109835.526      -45690.097       -1437.276           0.251  
> 2023 05 18 00 01 01.9688020  0  7                     
G01  24286920.671      171378.279        2910.506           0.239  
G02  22340058.207      -24992.527        -496.961           0.255  
G03  23627830.508     -101892.459       -2129.625           0.244  
G04  22514246.831      101428.628        2034.100           0.255  
G05  20630257.739      -19571.279        -474.552           0.255  
G06  23412394.765      -50531.378       -1316.159           0.248  
G07  23109869.807      -45833.699       -1436.766           0.251  
> 2023 05 18 00 01 02.0688020  0  7                     
G01  24286846.487      171669.339        2910.921           0.239  
G02  22340070.668      -25042.087        -499.292           0.255  
G03  23627885.480     -102105.432       -2129.361           0.244  
G04  22514194.520      101631.924        2033.377           0.255  
G05  20630269.980      -19618.740        -473.194           0.255  
G06  23412428.264      -50663.061       -1316.403           0.248  
G07  23109905.902      -45977.300       -1437.002           0.251  
> 2023 05 18 00 01 02.1688020  0  7                     
G01  24286772.038      171960.418        2911.877           0.239  
G02  22340082.937      -25091.648        -498.626           0.255  
G03  23627939.390     -102318.413       -2129.982           0.244  
G04  22514142.308      101835.200        2031.995           0.255  
G05  20630282.523      -19666.198        -472.976           0.255  
G06  23412461.288      -50794.747       -1317.095           0.248  
G07  23109942.890      -46120.902       -1436.720           0.252  
> 2023 05 18 00 01 02.2688020  0  7                     
G01  24286697.599      172251.434        2880.579           0.239  
G02  22340095.355      -25141.272        -605.380           0.255  
G03  23627993.912     -102531.271       -2095.666           0.244  
G04  22514090.156      102038.493        2033.248           0.255  
G05  20630295.126      -19713.664        -472.881           0.255  
G06  23412494.849      -50926.433       -1317.037           0.248  
G07  23109979.589      -46264.503       -1436.309           0.252  
> 2023 05 18 00 01 02.3688020  0  7                     
G01  24286625.632      172542.566        2911.403           0.239  
G02  22340109.140      -25190.783        -498.502           0.255  
G03  23628047.985     -102744.364       -2130.031           0.244  
G04  22514037.525      102241.794        2033.819           0.255  
G05  20630306.175      -19761.130        -473.005           0.255  
G06  23412528.945      -51058.116       -1316.299           0.248  
G07  23110018.479      -46408.104       -1436.245           0.252  
> 2023 05 18 00 01 02.4688020  0  7                     
G01  24286550.447      172833.642        2910.636           0.239  
G02  22340122.447      -25240.327        -496.368           0.255  
G03  23628103.186     -102957.344       -2129.496           0.244  
G04  22513986.171      102445.066        2032.218           0.255  
G05  20630318.498      -19808.617        -474.598           0.255  
G06  23412562.483      -51189.798       -1316.286           0.248  
G07  23110053.609      -46551.698       -1435.264           0.252  
> 2023 05 18 00 01 02.5688020  0  7                     
G01  24286475.188      173124.689        2910.271           0.239  
G02  22340134.324      -25289.895        -495.067           0.255  
G03  23628156.804     -103170.316       -2129.683           0.244  
G04  22513934.783      102648.351        2032.238           0.255  
G05  20630331.163      -19856.095        -474.723           0.255  
G06  23412595.735      -51321.486       -1316.319           0.248  
G07  23110089.404      -46695.319       -1436.408           0.251  
> 2023 05 18 00 01 02.6688020  0  7                     
G01  24286400.420      173415.767        2909.833           0.239  
G02  22340147.074      -25339.454        -493.620           0.255  
G03  23628211.316     -103383.294       -2129.373           0.244  
G04  22513882.819      102851.636        2033.949           0.255  
G05  20630343.377      -19903.590        -475.931           0.255  
G06  23412629.209      -51453.178       -1316.892           0.248  
G07  23110125.895      -46838.922       -1435.123           0.251  
> 2023 05 18 00 01 02.7688020  0  7                     
G01  24286326.761      173706.845        2910.311           0.239  
G02  22340159.729      -25389.012        -492.046           0.255  
G03  23628265.337     -103596.280       -2129.610           0.244  
G04  22513831.441      103054.913        2033.206           0.255  
G05  20630355.700      -19951.086        -476.897           0.255  
G06  23412662.815      -51584.875       -1317.921           0.248  
G07  23110161.584      -46982.532       -1434.102           0.251  
> 2023 05 18 00 01 02.8688020  0  7                     
G01  24286253.136      173997.916        2910.419           0.239  
G02  22340172.857      -25438.583        -492.673           0.255  
G03  23628319.434     -103809.269       -2129.241           0.244  
G04  22513779.703      103258.179        2030.739           0.255  
G05  20630367.418      -19998.582        -477.119           0.255  
G06  23412696.271      -51716.567       -1318.028           0.248  
G07  23110198.116      -47126.147       -1434.493           0.251  
> 2023 05 18 00 01 02.9688020  0  7                     
G01  24286177.272      174288.991        2911.135           0.239  
G02  22340183.534      -25488.159        -493.280           0.255  
G03  23628373.341     -104022.255       -2129.760           0.244  
G04  22513727.605      103461.453        2032.857           0.255  
G05  20630379.449      -20046.086        -476.713           0.255  
G06  23412730.411      -51848.264       -1317.598           0.248  
G07  23110235.622      -47269.754       -1435.025           0.251  
> 2023 05 18 00 01 03.0688020  0  7                     
G01  24286105.178      174580.069        2911.255           0.240  
G02  22340196.222      -25537.769        -495.476           0.255  
G03  23628429.214     -104235.233       -2129.885           0.244  
G04  22513676.127      103664.734        2033.865           0.255  
G05  20630392.188      -20093.574        -475.406           0.255  
G06  23412763.647      -51979.970       -1317.003           0.248  
G07  23110269.686      -47413.365       -1435.363           0.252  
> 2023 05 18 00 01 03.1688020  0  7                     
G01  24286030.579      174871.132        2909.954           0.239  
G02  22340209.762      -25587.355        -496.798           0.255  
G03  23628482.720     -104448.219       -2129.571           0.244  
G04  22513624.499      103868.004        2032.485           0.255  
G05  20630403.395      -20141.080        -474.216           0.255  
G06  23412797.117      -52111.676       -1317.364           0.248  
G07  23110307.868      -47556.985       -1437.321           0.252  
> 2023 05 18 00 01 03.2688020  0  7                     
G01  24285956.438      175162.194        2909.581           0.239  
G02  22340222.084      -25636.967        -498.830           0.255  
G03  23628536.768     -104661.209       -2130.125           0.244  
G04  22513572.867      104071.262        2031.769           0.255  
G05  20630415.402      -20188.575        -473.091           0.255  
G06  23412830.577      -52243.383       -1316.975           0.248  
G07  23110345.145      -47700.589       -1437.283           0.251  
> 2023 05 18 00 01 03.3688020  0  7                     
G01  24285882.283      175453.244        2908.830           0.239  
G02  22340234.756      -25686.583        -498.849           0.255  
G03  23628590.662     -104874.200       -2129.901           0.244  
G04  22513520.647      104274.531        2032.794           0.255  
G05  20630427.632      -20236.079        -473.219           0.255  
G06  23412864.027      -52375.097       -1316.611           0.248  
G07  23110381.941      -47844.197       -1436.957           0.251  
> 2023 05 18 00 01 03.4688020  0  7                     
G01  24285807.865      175744.327        2910.819           0.239  
G02  22340247.010      -25736.212        -499.061           0.255  
G03  23628644.945     -105087.197       -2129.806           0.244  
G04  22513468.602      104477.804        2033.614           0.255  
G05  20630440.246      -20283.579        -473.172           0.255  
G06  23412897.681      -52507.230       -1352.076           0.248  
G07  23110418.658      -47987.810       -1436.579           0.252  
> 2023 05 18 00 01 03.5688020  0  7                     
G01  24285733.594      176035.406        2910.843           0.239  
G02  22340260.740      -25785.824        -497.616           0.255  
G03  23628699.847     -105300.185       -2129.949           0.244  
G04  22513416.233      104681.057        2032.363           0.255  
G05  20630451.870      -20331.095        -474.094           0.255  
G06  23412931.235      -52638.539       -1316.779           0.248  
G07  23110455.724      -48131.420       -1435.990           0.252  
> 2023 05 18 00 01 03.6688020  0  7                     
G01  24285658.370      176326.471        2908.837           0.239  
G02  22340273.303      -25835.423        -495.898           0.255  
G03  23628754.856     -105513.177       -2128.945           0.244  
G04  22513364.588      104884.318        2032.558           0.255  
G05  20630464.240      -20378.626        -475.268           0.255  
G06  23412964.752      -52770.259       -1317.826           0.248  
G07  23110493.081      -48275.037       -1435.837           0.251  
> 2023 05 18 00 01 03.7688020  0  7                     
G01  24285585.005      176617.544        2909.571           0.239  
G02  22340285.710      -25885.034        -494.441           0.255  
G03  23628808.537     -105726.167       -2129.363           0.244  
G04  22513313.206      105087.572        2033.216           0.255  
G05  20630476.329      -20426.154        -476.110           0.255  
G06  23412998.632      -52901.985       -1318.443           0.248  
G07  23110528.970      -48418.654       -1435.462           0.251  
> 2023 05 18 00 01 03.8688020  0  7                     
G01  24285510.339      176908.606        2909.746           0.239  
G02  22340298.641      -25934.860        -414.272           0.255  
G03  23628862.627     -105939.160       -2129.596           0.244  
G04  22513261.183      105290.829        2033.592           0.255  
G05  20630488.647      -20473.691        -476.813           0.255  
G06  23413031.939      -53033.706       -1317.785           0.248  
G07  23110564.751      -48562.272       -1435.600           0.251  
> 2023 05 18 00 01 03.9688020  0  7                     
G01  24285436.227      177199.685        2910.380           0.239  
G02  22340312.035      -25984.261        -493.159           0.255  
G03  23628916.666     -106152.153       -2129.320           0.244  
G04  22513209.221      105494.075        2031.747           0.255  
G05  20630500.349      -20521.226        -477.165           0.255  
G06  23413065.417      -53165.437       -1317.729           0.248  
G07  23110600.943      -48705.890       -1435.601           0.251  
> 2023 05 18 00 01 04.0688020  0  7                     
G01  24285363.462      177490.764        2911.198           0.239  
G02  22340325.548      -26033.960        -497.713           0.255  
G03  23628970.660     -106365.155       -2130.239           0.244  
G04  22513157.332      105697.316        2031.903           0.255  
G05  20630511.695      -20568.763        -476.587           0.255  
G06  23413099.629      -53297.167       -1317.324           0.248  
G07  23110638.628      -48849.503       -1435.516           0.251  
> 2023 05 18 00 01 04.1688020  0  7                     
G01  24285286.453      177781.812        2911.023           0.239  
G02  22340335.155      -26083.566        -496.989           0.255  
G03  23629024.234     -106578.153       -2131.075           0.244  
G04  22513107.338      105900.566        2032.318           0.255  
G05  20630526.467      -20616.274        -475.050           0.255  
G06  23413132.295      -53428.909       -1317.563           0.248  
G07  23110674.157      -48993.132       -1435.397           0.251  
> 2023 05 18 00 01 04.2688020  0  7                     
G01  24285214.088      178072.885        2910.811           0.239  
G02  22340347.653      -26133.201        -496.446           0.255  
G03  23629078.054     -106791.135       -2128.791           0.244  
G04  22513054.887      106103.830        2033.605           0.255  
G05  20630538.051      -20663.825        -474.747           0.255  
G06  23413166.135      -53560.645       -1317.292           0.248  
G07  23110711.497      -49136.528       -1454.738           0.251  
> 2023 05 18 00 01 04.3688020  0  7                     
G01  24285140.032      178363.954        2911.606           0.239  
G02  22340361.337      -26182.839        -494.654           0.255  
G03  23629133.290     -107004.148       -2130.516           0.244  
G04  22513003.196      106307.058        2031.216           0.255  
G05  20630549.288      -20711.372        -476.413           0.255  
G06  23413199.606      -53692.391       -1317.790           0.248  
G07  23110747.835      -49280.365       -1436.359           0.251  
> 2023 05 18 00 01 04.4688020  0  7                     
G01  24285065.761      178655.023        2910.723           0.239  
G02  22340377.204      -26232.511        -496.616           0.255  
G03  23629188.775     -107217.156       -2130.921           0.244  
G04  22512951.424      106510.297        2031.561           0.255  
G05  20630559.738      -20758.909        -476.023           0.255  
G06  23413233.114      -53824.133       -1317.431           0.248  
G07  23110782.602      -49423.967       -1434.419           0.250  
> 2023 05 18 00 01 04.5688020  0  7                     
G01  24284990.342      178946.157        2920.769           0.239  
G02  22340387.471      -26282.161        -497.059           0.255  
G03  23629242.999     -107430.307       -2160.289           0.243  
G04  22512899.425      106712.812        1910.228           0.255  
G05  20630572.565      -20806.466        -475.498           0.255  
G06  23413266.088      -53955.881       -1317.156           0.248  
G07  23110820.628      -49567.921       -1425.443           0.252  
> 2023 05 18 00 01 04.6688020  0  7                     
G01  24284918.188      179237.284        2970.436           0.239  
G02  22340399.990      -26331.813        -497.165           0.255  
G03  23629297.297     -107643.046       -2112.756           0.244  
G04  22512847.416      106916.641        2048.778           0.255  
G05  20630584.731      -20854.020        -475.149           0.255  
G06  23413300.548      -54087.635       -1316.937           0.248  
G07  23110857.503      -49711.035       -1434.220           0.251  
> 2023 05 18 00 01 04.7688020  0  7                     
G01  24284844.370      179528.053        2933.092           0.239  
G02  22340414.598      -26381.490        -498.570           0.255  
G03  23629351.201     -107856.153       -2129.166           0.244  
G04  22512795.453      107120.124        2093.462           0.255  
G05  20630596.844      -20901.570        -473.957           0.255  
G06  23413334.380      -54219.391       -1317.120           0.248  
G07  23110893.377      -49854.852       -1437.208           0.251  
> 2023 05 18 00 01 04.8688020  0  7                     
G01  24284770.944      179819.297        2910.672           0.239  
G02  22340422.930      -26431.162        -497.503           0.255  
G03  23629405.038     -108069.165       -2130.221           0.244  
G04  22512744.131      107323.242        2031.475           0.255  
G05  20630610.838      -20949.134        -475.026           0.255  
G06  23413368.076      -54351.106       -1327.422           0.248  
G07  23110928.278      -49998.464       -1436.003           0.251  
> 2023 05 18 00 01 04.9688020  0  7                     
G01  24284695.793      180110.389        2911.815           0.239  
G02  22340436.131      -26480.854        -497.839           0.255  
G03  23629459.387     -108282.174       -2130.521           0.244  
G04  22512692.029      107526.477        2032.582           0.255  
G05  20630622.787      -20996.689        -474.541           0.255  
G06  23413401.223      -54482.908       -1318.587           0.248  
G07  23110966.350      -50142.090       -1436.141           0.251  
> 2023 05 18 00 01 05.0688020  0  7                     
G01  24284622.147      180401.455        2911.168           0.239  
G02  22340452.285      -26530.531        -496.468           0.255  
G03  23629513.554     -108495.177       -2130.180           0.244  
G04  22512639.888      107729.711        2032.992           0.255  
G05  20630632.624      -21044.250        -475.426           0.255  
G06  23413435.039      -54614.661       -1318.218           0.248  
G07  23111004.349      -50285.761       -1465.550           0.251  
> 2023 05 18 00 01 05.1688020  0  7                     
G01  24284547.254      180692.515        2909.826           0.239  
G02  22340463.015      -26580.202        -498.814           0.255  
G03  23629568.125     -108708.183       -2129.804           0.244  
G04  22512588.623      107932.934        2032.756           0.255  
G05  20630645.470      -21091.834        -474.854           0.255  
G06  23413468.574      -54746.423       -1318.155           0.248  
G07  23111040.657      -50429.345       -1436.099           0.252  
> 2023 05 18 00 01 05.2688020  0  7                     
G01  24284473.837      180983.593        2910.682           0.239  
G02  22340473.891      -26629.900        -500.414           0.255  
G03  23629622.509     -108921.187       -2129.566           0.244  
G04  22512536.316      108136.149        2031.072           0.255  
G05  20630658.491      -21139.405        -474.038           0.255  
G06  23413501.838      -54878.187       -1317.265           0.248  
G07  23111076.247      -50572.976       -1436.474           0.252  
> 2023 05 18 00 01 05.3688020  0  7                     
G01  24284399.208      181274.675        2911.339           0.239  
G02  22340486.261      -26679.569        -496.719           0.255  
G03  23629676.984     -109134.196       -2129.458           0.244  
G04  22512484.045      108339.622        2033.126           0.255  
G05  20630671.495      -21186.996        -476.339           0.255  
G06  23413535.578      -55009.687       -1287.545           0.248  
G07  23111113.688      -50716.598       -1436.284           0.251  
> 2023 05 18 00 01 05.4688020  0  7                     
G01  24284326.209      181565.742        2911.010           0.239  
G02  22340503.016      -26729.439        -526.711           0.255  
G03  23629731.007     -109347.369       -2080.854           0.244  
G04  22512432.754      108542.591        2032.497           0.255  
G05  20630682.067      -21234.569        -476.097           0.255  
G06  23413568.534      -55141.667       -1303.565           0.248  
G07  23111148.250      -50860.473       -1454.488           0.252  
> 2023 05 18 00 01 05.5688020  0  7                     
G01  24284250.683      181856.607        2880.097           0.239  
G02  22340515.779      -26778.986        -496.968           0.255  
G03  23629785.923     -109560.228       -2130.105           0.244  
G04  22512380.862      108745.965        2037.154           0.255  
G05  20630693.125      -21282.150        -476.000           0.255  
G06  23413603.129      -55273.514       -1317.753           0.248  
G07  23111186.349      -51003.939       -1422.322           0.251  
> 2023 05 18 00 01 05.6688020  0  7                     
G01  24284176.869      182147.877        2908.575           0.239  
G02  22340527.086      -26828.692        -499.124           0.255  
G03  23629839.121     -109773.236       -2130.102           0.244  
G04  22512329.434      108949.027        2031.554           0.255  
G05  20630706.524      -21329.740        -475.100           0.255  
G06  23413636.521      -55405.293       -1317.716           0.248  
G07  23111222.782      -51147.642       -1450.073           0.252  
> 2023 05 18 00 01 05.7688020  0  7                     
G01  24284101.805      182438.963        2911.463           0.239  
G02  22340539.942      -26878.388        -495.912           0.255  
G03  23629894.781     -109986.245       -2130.424           0.244  
G04  22512277.576      109152.229        2031.814           0.255  
G05  20630718.476      -21377.337        -476.441           0.255  
G06  23413669.383      -55537.080       -1317.629           0.248  
G07  23111259.057      -51291.108       -1436.226           0.251  
> 2023 05 18 00 01 05.8688020  0  7                     
G01  24284028.300      182730.028        2910.012           0.239  
G02  22340549.511      -26927.932        -470.900           0.255  
G03  23629948.318     -110199.244       -2129.114           0.244  
G04  22512225.728      109355.442        2031.743           0.255  
G05  20630731.714      -21424.922        -475.572           0.255  
G06  23413703.585      -55668.824       -1294.804           0.248  
G07  23111297.256      -51434.741       -1435.801           0.252  
> 2023 05 18 00 01 05.9688020  0  7                     
G01  24283953.500      183021.093        2909.815           0.239  
G02  22340563.421      -26977.818        -497.475           0.255  
G03  23630002.958     -110412.264       -2128.209           0.244  
G04  22512173.773      109558.656        2032.679           0.255  
G05  20630743.590      -21472.526        -475.398           0.255  
G06  23413737.299      -55800.649       -1317.446           0.248  
G07  23111332.881      -51578.381       -1437.518           0.251  
> 2023 05 18 00 01 06.0688020  0  9                     
G01  24283881.039      183312.157        2910.792           0.239  
G02  22340578.319      -27027.561        -496.724           0.255  
G03  23630053.980     -110625.291       -2130.786           0.244  
G04  22512122.530      109761.867        2033.272           0.255  
G05  20630754.739      -21520.126        -476.156           0.255  
G06  23413770.412      -55932.449       -1317.761           0.248  
G07  23111369.031      -51722.008       -1437.299           0.251  
G08  21710943.236       81881.124        1964.230           0.255  
G10  21754003.920      -56894.559       -1910.500           0.255  
> 2023 05 18 00 01 06.0688020  0 10                     
G01  24283881.039      183312.020        2948.314           0.239  
G02  22340578.319      -27027.563        -512.687           0.255  
G03  23630053.980     -110625.239       -2135.722           0.244  
G04  22512122.530      109762.674        2154.991           0.255  
G05  20630754.739      -21520.126        -476.156           0.255  
G06  23413770.412      -55932.383       -1320.309           0.248  
G07  23111369.031      -51722.251       -1480.725           0.251  
G08  21710943.236       81881.121        2001.723           0.255  
G09  25253320.507      -57093.207       -1721.142           0.232  
G10  21754003.920      -56894.529       -1902.621           0.255  
> 2023 05 18 00 01 06.1688020  0 10                     
G01  24283805.590      183603.413        2934.533           0.239  
G02  22340589.985      -27077.290        -498.564           0.255  
G03  23630109.454     -110838.313       -2130.559           0.244  
G04  22512070.709      109965.062        2031.513           0.255  
G05  20630766.394      -21567.731        -475.838           0.255  
G06  23413804.602      -56064.154       -1325.416           0.248  
G07  23111407.502      -51865.829       -1445.569           0.251  
G08  21710893.782       82077.581        1999.001           0.255  
G09  25253366.078      -57269.726       -1733.708           0.232  
G10  21754052.361      -57085.589       -1910.580           0.255  
> 2023 05 18 00 01 06.2688020  0 10                     
G01  24283733.810      183894.311        2910.242           0.239  
G02  22340600.412      -27127.030        -497.913           0.255  
G03  23630164.633     -111051.012       -2107.180           0.244  
G04  22512018.826      110168.254        2031.041           0.255  
G05  20630779.660      -21615.337        -476.060           0.255  
G06  23413838.887      -56196.036       -1317.737           0.248  
G07  23111444.342      -52009.222       -1439.148           0.251  
G08  21710842.637       82274.402        2081.824           0.255  
G09  25253410.868      -57445.952       -1762.300           0.232  
G10  21754101.071      -57276.511       -1892.648           0.255  
> 2023 05 18 00 01 06.3688020  0 10                     
G01  24283657.274      184185.667        2932.657           0.239  
G02  22340614.030      -27176.772        -496.567           0.255  
G03  23630219.181     -111264.340       -2129.918           0.244  
G04  22511967.066      110371.459        2032.300           0.255  
G05  20630792.054      -21662.946        -476.343           0.255  
G06  23413871.793      -56327.876       -1310.371           0.248  
G07  23111480.191      -52152.913       -1436.829           0.251  
G08  21710793.066       82470.254        1963.227           0.255  
G09  25253455.943      -57622.168       -1761.977           0.232  
G10  21754149.796      -57467.666       -1910.892           0.255  
> 2023 05 18 00 01 06.4688020  0 10                     
G01  24283583.300      184476.451        2910.007           0.239  
G02  22340628.026      -27226.496        -494.316           0.255  
G03  23630273.674     -111477.359       -2130.021           0.244  
G04  22511915.300      110574.663        2032.792           0.255  
G05  20630803.772      -21710.568        -477.414           0.255  
G06  23413905.279      -56459.648       -1318.199           0.248  
G07  23111516.698      -52296.540       -1436.694           0.251  
G08  21710743.094       82666.636        1964.129           0.255  
G09  25253500.768      -57798.386       -1762.691           0.232  
G10  21754198.355      -57658.706       -1910.602           0.255  
> 2023 05 18 00 01 06.5688020  0 10                     
G01  24283508.797      184767.510        2908.621           0.239  
G02  22340641.600      -27275.997        -386.965           0.255  
G03  23630328.070     -111690.375       -2129.695           0.244  
G04  22511862.860      110777.863        2032.861           0.255  
G05  20630815.603      -21758.201        -477.880           0.255  
G06  23413938.752      -56591.456       -1318.293           0.248  
G07  23111552.478      -52440.170       -1435.611           0.251  
G08  21710693.458       82863.006        1964.960           0.255  
G09  25253545.983      -57974.595       -1762.119           0.232  
G10  21754247.273      -57849.783       -1923.876           0.255  
> 2023 05 18 00 01 06.6688020  0 10                     
G01  24283434.551      185058.587        2910.176           0.239  
G02  22340653.085      -27325.724        -443.742           0.255  
G03  23630381.247     -111903.398       -2129.454           0.244  
G04  22511811.314      110981.048        2031.247           0.255  
G05  20630828.210      -21805.816        -476.847           0.255  
G06  23413972.021      -56723.263       -1318.190           0.248  
G07  23111587.304      -52583.808       -1436.003           0.251  
G08  21710643.205       83059.410        1955.150           0.255  
G09  25253590.085      -58150.809       -1762.161           0.232  
G10  21754295.870      -58040.788       -1910.061           0.255  
> 2023 05 18 00 01 06.7688020  0 10                     
G01  24283358.986      185349.650        2909.140           0.239  
G02  22340665.126      -27375.754        -498.217           0.255  
G03  23630436.367     -112116.428       -2129.475           0.244  
G04  22511759.948      111184.232        2030.888           0.255  
G05  20630840.758      -21853.437        -476.380           0.255  
G06  23414005.059      -56855.070       -1317.931           0.248  
G07  23111623.353      -52727.454       -1436.078           0.251  
G08  21710593.913       83255.744        1965.578           0.255  
G09  25253635.696      -58327.019       -1761.324           0.232  
G10  21754344.589      -58231.837       -1910.694           0.255  
> 2023 05 18 00 01 06.8688020  0 10                     
G01  24283285.219      185640.727        2909.418           0.239  
G02  22340677.450      -27425.528        -500.039           0.255  
G03  23630488.661     -112329.451       -2129.227           0.244  
G04  22511708.700      111387.416        2031.624           0.255  
G05  20630853.300      -21901.064        -475.240           0.255  
G06  23414039.409      -56986.888       -1317.716           0.248  
G07  23111659.447      -52871.095       -1436.373           0.251  
G08  21710543.781       83452.092        1964.839           0.255  
G09  25253680.986      -58503.245       -1762.153           0.232  
G10  21754392.870      -58422.882       -1910.285           0.255  
> 2023 05 18 00 01 06.9688020  0 10                     
G01  24283209.996      185931.806        2910.412           0.239  
G02  22340689.054      -27475.313        -499.785           0.255  
G03  23630544.433     -112542.477       -2130.066           0.244  
G04  22511656.859      111590.609        2032.832           0.255  
G05  20630865.291      -21948.685        -474.968           0.255  
G06  23414072.366      -57118.710       -1318.296           0.248  
G07  23111698.113      -53014.726       -1436.208           0.251  
G08  21710493.580       83648.438        1962.547           0.255  
G09  25253725.894      -58679.464       -1761.669           0.232  
G10  21754441.881      -58613.937       -1911.411           0.255  
> 2023 05 18 00 01 07.0688020  0 10                     
G01  24283136.722      186222.894        2913.395           0.239  
G02  22340702.050      -27525.074        -498.225           0.255  
G03  23630598.881     -112755.504       -2129.481           0.244  
G04  22511604.902      111793.792        2033.024           0.255  
G05  20630877.420      -21996.326        -475.917           0.255  
G06  23414106.142      -57250.535       -1317.946           0.248  
G07  23111734.690      -53158.363       -1435.679           0.251  
G08  21710443.250       83844.802        1963.794           0.255  
G09  25253770.662      -58855.686       -1762.549           0.232  
G10  21754490.701      -58804.987       -1910.547           0.255  
> 2023 05 18 00 01 07.1688020  0 10                     
G01  24283065.148      186513.960        2910.913           0.240  
G02  22340715.659      -27574.832        -496.014           0.255  
G03  23630653.215     -112968.390       -2097.533           0.244  
G04  22511552.208      111996.974        2032.479           0.255  
G05  20630888.964      -22043.966        -476.790           0.255  
G06  23414140.085      -57382.357       -1318.399           0.248  
G07  23111773.364      -53302.022       -1436.373           0.251  
G08  21710392.693       84041.347        2007.164           0.255  
G09  25253816.580      -59031.909       -1789.300           0.232  
G10  21754539.535      -58996.037       -1910.643           0.255  
> 2023 05 18 00 01 07.2688020  0 10                     
G01  24282988.672      186805.024        2910.264           0.239  
G02  22340731.988      -27624.597        -494.881           0.255  
G03  23630708.087     -113181.564       -2129.963           0.244  
G04  22511500.553      112200.143        2030.817           0.255  
G05  20630899.089      -22091.627        -478.188           0.255  
G06  23414174.342      -57514.174       -1318.196           0.248  
G07  23111809.837      -53445.652       -1435.544           0.252  
G08  21710342.947       84237.487        1962.753           0.255  
G09  25253860.308      -59208.126       -1762.951           0.232  
G10  21754588.049      -59187.104       -1908.407           0.255  
> 2023 05 18 00 01 07.3688020  0 10                     
G01  24282914.032      187096.101        2910.092           0.239  
G02  22340743.036      -27674.364        -495.522           0.255  
G03  23630761.892     -113394.600       -2130.107           0.244  
G04  22511448.889      112403.314        2030.926           0.255  
G05  20630912.551      -22139.281        -478.179           0.255  
G06  23414207.187      -57645.994       -1317.377           0.248  
G07  23111844.634      -53589.294       -1436.721           0.251  
G08  21710292.536       84433.840        1964.376           0.255  
G09  25253905.236      -59384.345       -1762.089           0.232  
G10  21754636.933      -59378.152       -1910.212           0.255  
> 2023 05 18 00 01 07.4688020  0 10                     
G01  24282842.128      187387.152        2909.815           0.239  
G02  22340760.107      -27724.185        -497.422           0.255  
G03  23630817.026     -113607.633       -2130.349           0.244  
G04  22511397.019      112606.489        2031.522           0.255  
G05  20630921.972      -22186.919        -477.344           0.255  
G06  23414241.161      -57777.837       -1318.676           0.248  
G07  23111882.292      -53732.915       -1435.631           0.251  
G08  21710242.733       84630.180        1964.591           0.255  
G09  25253949.960      -59560.575       -1762.809           0.232  
G10  21754685.352      -59569.205       -1909.943           0.255  
> 2023 05 18 00 01 07.5688020  0 10                     
G01  24282766.713      187678.225        2909.187           0.239  
G02  22340769.709      -27773.967        -498.964           0.255  
G03  23630870.376     -113820.656       -2129.636           0.244  
G04  22511344.956      112809.672        2032.610           0.255  
G05  20630935.285      -22234.566        -475.145           0.255  
G06  23414274.516      -57909.679       -1318.883           0.248  
G07  23111919.732      -53876.576       -1438.011           0.251  
G08  21710193.309       84826.500        1962.738           0.255  
G09  25253996.126      -59736.788       -1762.186           0.232  
G10  21754734.129      -59760.270       -1910.374           0.255  
> 2023 05 18 00 01 07.6688020  0 10                     
G01  24282692.194      187969.290        2908.676           0.239  
G02  22340775.908      -27823.786        -499.267           0.255  
G03  23630923.701     -114033.686       -2129.230           0.244  
G04  22511293.933      113012.846        2032.852           0.255  
G05  20630950.711      -22282.210        -475.322           0.255  
G06  23414308.481      -58041.507       -1318.797           0.248  
G07  23111956.924      -54020.237       -1436.985           0.251  
G08  21710144.618       85022.839        1964.222           0.255  
G09  25254039.531      -59913.014       -1762.729           0.232  
G10  21754782.431      -59951.331       -1910.353           0.255  
> 2023 05 18 00 01 07.7688020  0 10                     
G01  24282620.711      188260.354        2910.302           0.239  
G02  22340791.384      -27873.582        -498.451           0.255  
G03  23630977.935     -114246.734       -2130.562           0.244  
G04  22511241.655      113216.013        2031.972           0.255  
G05  20630962.902      -22329.875        -476.152           0.255  
G06  23414341.586      -58173.348       -1317.778           0.248  
G07  23111991.104      -54163.869       -1437.384           0.252  
G08  21710092.678       85219.159        1963.767           0.255  
G09  25254084.863      -60089.230       -1762.186           0.232  
G10  21754831.902      -60142.401       -1911.056           0.255  
> 2023 05 18 00 01 07.8688020  0 10                     
G01  24282548.645      188551.434        2911.780           0.238  
G02  22340805.494      -27923.368        -497.517           0.255  
G03  23631033.136     -114459.758       -2130.200           0.244  
G04  22511190.571      113419.164        2030.319           0.255  
G05  20630973.804      -22377.551        -476.870           0.255  
G06  23414375.778      -58305.188       -1318.096           0.248  
G07  23112027.043      -54307.506       -1437.364           0.251  
G08  21710042.286       85415.478        1961.514           0.255  
G09  25254129.644      -60265.449       -1761.356           0.232  
G10  21754879.941      -60333.467       -1910.764           0.255  
> 2023 05 18 00 01 07.9688020  0 10                     
G01  24282471.250      188842.505        2912.565           0.238  
G02  22340819.200      -27973.195        -499.255           0.255  
G03  23631088.025     -114672.733       -2169.164           0.244  
G04  22511139.620      113621.477        1910.354           0.255  
G05  20630985.325      -22425.213        -476.040           0.255  
G06  23414409.736      -58437.043       -1318.807           0.248  
G07  23112066.493      -54451.099       -1419.883           0.251  
G08  21709992.423       85612.168        2019.127           0.255  
G09  25254174.440      -60441.408       -1736.718           0.232  
G10  21754928.648      -60524.533       -1926.084           0.255  
> 2023 05 18 00 01 08.0688020  0 10                     
G01  24282397.594      189133.551        2910.238           0.239  
G02  22340831.955      -28022.997        -498.560           0.255  
G03  23631141.587     -114885.833       -2130.876           0.243  
G04  22511086.646      113825.487        2031.648           0.255  
G05  20630997.148      -22472.890        -476.774           0.255  
G06  23414443.060      -58568.894       -1319.166           0.248  
G07  23112102.764      -54594.798       -1436.299           0.251  
G08  21709942.674       85808.124        1964.381           0.255  
G09  25254219.165      -60617.898       -1762.648           0.232  
G10  21754977.669      -60715.604       -1910.660           0.255  
> 2023 05 18 00 01 08.1688020  0 10                     
G01  24282322.540      189424.629        2910.743           0.239  
G02  22340847.342      -28072.811        -497.698           0.255  
G03  23631197.726     -115098.878       -2130.493           0.244  
G04  22511034.139      114028.645        2031.648           0.255  
G05  20631006.931      -22520.564        -477.424           0.255  
G06  23414476.492      -58700.746       -1318.842           0.248  
G07  23112138.530      -54738.446       -1434.928           0.251  
G08  21709892.543       86004.424        1961.783           0.255  
G09  25254264.369      -60794.134       -1762.230           0.232  
G10  21755026.499      -60906.673       -1910.609           0.255  
> 2023 05 18 00 01 08.2688020  0 10                     
G01  24282248.146      189715.668        2910.719           0.239  
G02  22340854.316      -28122.636        -498.001           0.255  
G03  23631252.234     -115311.912       -2131.627           0.244  
G04  22510982.662      114231.806        2032.926           0.255  
G05  20631022.443      -22568.236        -476.122           0.255  
G06  23414509.186      -58832.596       -1318.107           0.248  
G07  23112174.884      -54882.091       -1436.911           0.251  
G08  21709842.623       86200.753        1964.209           0.255  
G09  25254308.685      -60970.355       -1761.818           0.232  
G10  21755075.077      -61097.749       -1911.009           0.255  
> 2023 05 18 00 01 08.3688020  0 10                     
G01  24282173.579      190006.746        2910.078           0.239  
G02  22340863.736      -28172.483        -499.126           0.255  
G03  23631306.423     -115524.945       -2130.870           0.244  
G04  22510931.267      114434.955        2030.930           0.255  
G05  20631037.093      -22615.912        -476.088           0.255  
G06  23414542.732      -58964.459       -1318.239           0.248  
G07  23112209.811      -55025.734       -1436.100           0.251  
G08  21709793.248       86397.046        1963.664           0.255  
G09  25254353.327      -61146.583       -1761.782           0.232  
G10  21755123.538      -61288.825       -1910.434           0.255  
> 2023 05 18 00 01 08.4688020  0 10                     
G01  24282098.234      190297.813        2910.909           0.239  
G02  22340884.440      -28222.331        -498.917           0.255  
G03  23631358.893     -115737.994       -2130.423           0.244  
G04  22510879.864      114638.114        2030.210           0.255  
G05  20631044.245      -22663.591        -476.332           0.255  
G06  23414576.977      -59096.322       -1318.542           0.248  
G07  23112249.589      -55169.391       -1436.448           0.252  
G08  21709742.276       86593.343        1961.528           0.255  
G09  25254399.313      -61322.816       -1762.898           0.232  
G10  21755172.886      -61479.904       -1911.002           0.255  
> 2023 05 18 00 01 08.5688020  0 10                     
G01  24282024.084      190588.881        2910.344           0.238  
G02  22340895.436      -28272.149        -497.777           0.255  
G03  23631414.899     -115951.039       -2130.190           0.244  
G04  22510828.095      114841.709        2067.926           0.255  
G05  20631058.341      -22711.282        -476.917           0.255  
G06  23414609.993      -59228.182       -1318.288           0.248  
G07  23112283.661      -55312.797       -1393.566           0.252  
G08  21709692.233       86789.658        1963.341           0.255  
G09  25254444.742      -61499.045       -1762.616           0.232  
G10  21755220.978      -61671.123       -1934.725           0.255  
> 2023 05 18 00 01 08.6688020  0 10                     
G01  24281950.003      190880.123        2891.436           0.239  
G02  22340904.653      -28321.979        -496.349           0.255  
G03  23631467.734     -116164.092       -2130.664           0.244  
G04  22510775.878      115044.402        2030.598           0.255  
G05  20631071.093      -22758.986        -477.533           0.255  
G06  23414643.680      -59360.051       -1318.637           0.248  
G07  23112321.045      -55456.683       -1436.449           0.251  
G08  21709642.436       86985.942        1964.011           0.255  
G09  25254489.431      -61675.523       -1791.580           0.232  
G10  21755270.489      -61862.066       -1910.161           0.255  
> 2023 05 18 00 01 08.7688020  0 10                     
G01  24281876.979      191171.025        2910.308           0.239  
G02  22340919.847      -28371.836        -497.935           0.255  
G03  23631521.908     -116377.129       -2130.820           0.244  
G04  22510723.922      115247.550        2031.317           0.255  
G05  20631083.065      -22806.676        -477.126           0.255  
G06  23414677.249      -59491.926       -1318.376           0.248  
G07  23112355.565      -55600.344       -1436.922           0.251  
G08  21709592.547       87182.234        1962.383           0.255  
G09  25254533.911      -61851.503       -1762.390           0.232  
G10  21755318.901      -62053.148       -1910.341           0.255  
> 2023 05 18 00 01 08.8688020  0 10                     
G01  24281802.562      191462.082        2908.425           0.239  
G02  22340934.731      -28421.674        -497.053           0.255  
G03  23631575.999     -116590.173       -2129.843           0.244  
G04  22510672.593      115450.705        2031.984           0.255  
G05  20631093.859      -22854.384        -477.679           0.255  
G06  23414711.237      -59623.797       -1318.571           0.248  
G07  23112394.015      -55743.998       -1436.952           0.251  
G08  21709542.689       87378.522        1962.221           0.255  
G09  25254579.491      -62027.729       -1762.518           0.232  
G10  21755367.778      -62244.245       -1911.042           0.255  
> 2023 05 18 00 01 08.9688020  0 10                     
G01  24281729.652      191753.152        2912.578           0.239  
G02  22340945.119      -28471.537        -497.263           0.255  
G03  23631629.300     -116803.223       -2130.869           0.244  
G04  22510620.408      115653.855        2032.612           0.255  
G05  20631106.822      -22902.073        -476.979           0.255  
G06  23414745.388      -59755.679       -1319.269           0.248  
G07  23112432.675      -55887.661       -1437.293           0.251  
G08  21709492.313       87574.805        1962.705           0.255  
G09  25254622.820      -62203.953       -1762.691           0.232  
G10  21755415.964      -62435.329       -1910.990           0.255  
> 2023 05 18 00 01 09.0688020  0 10                     
G01  24281653.795      192044.216        2909.884           0.239  
G02  22340957.408      -28521.404        -498.620           0.255  
G03  23631685.110     -117016.277       -2130.743           0.244  
G04  22510569.472      115856.989        2031.326           0.255  
G05  20631119.935      -22949.778        -476.634           0.255  
G06  23414779.029      -59887.555       -1319.126           0.248  
G07  23112466.665      -56031.311       -1437.222           0.252  
G08  21709442.969       87771.085        1963.108           0.255  
G09  25254666.960      -62380.177       -1762.344           0.232  
G10  21755463.999      -62626.422       -1911.037           0.255  
> 2023 05 18 00 01 09.1688020  0 10                     
G01  24281581.977      192335.287        2911.873           0.239  
G02  22340972.611      -28571.265        -498.777           0.255  
G03  23631739.569     -117229.324       -2131.064           0.244  
G04  22510517.034      116060.114        2029.924           0.255  
G05  20631130.688      -22997.489        -477.224           0.255  
G06  23414813.183      -60019.433       -1318.431           0.248  
G07  23112504.719      -56174.961       -1436.076           0.252  
G08  21709392.843       87967.358        1961.447           0.255  
G09  25254712.996      -62556.415       -1762.539           0.232  
G10  21755512.960      -62817.513       -1911.174           0.255  
> 2023 05 18 00 01 09.2688020  0 10                     
G01  24281506.183      192626.343        2911.247           0.239  
G02  22340985.205      -28621.131        -497.302           0.255  
G03  23631794.492     -117442.366       -2130.365           0.244  
G04  22510465.767      116263.248        2030.157           0.255  
G05  20631141.425      -23045.203        -477.621           0.255  
G06  23414845.745      -60151.326       -1318.577           0.248  
G07  23112544.024      -56318.612       -1437.160           0.252  
G08  21709342.195       88163.649        1962.814           0.255  
G09  25254759.289      -62732.646       -1762.685           0.232  
G10  21755561.689      -63008.608       -1910.893           0.255  
> 2023 05 18 00 01 09.3688020  0 10                     
G01  24281431.774      192917.409        2910.839           0.239  
G02  22340994.549      -28671.009        -498.178           0.255  
G03  23631847.467     -117655.433       -2131.819           0.244  
G04  22510414.091      116466.381        2030.769           0.255  
G05  20631155.781      -23092.920        -478.383           0.255  
G06  23414879.400      -60283.213       -1317.882           0.248  
G07  23112580.760      -56462.261       -1435.796           0.251  
G08  21709291.583       88359.915        1963.335           0.255  
G09  25254804.292      -62908.877       -1762.120           0.232  
G10  21755611.206      -63199.699       -1910.467           0.255  
> 2023 05 18 00 01 09.4688020  0 10                     
G01  24281357.031      193208.418        2854.297           0.239  
G02  22341007.150      -28720.890        -498.418           0.255  
G03  23631902.577     -117868.640       -2123.912           0.244  
G04  22510361.609      116669.517        2031.650           0.255  
G05  20631168.613      -23140.635        -477.023           0.255  
G06  23414912.895      -60415.102       -1318.620           0.248  
G07  23112614.774      -56606.108       -1485.758           0.251  
G08  21709242.251       88556.175        1962.774           0.255  
G09  25254848.633      -63085.108       -1761.947           0.232  
G10  21755659.749      -63390.919       -1923.427           0.255  
> 2023 05 18 00 01 09.5688020  0 10                     
G01  24281283.143      193499.547        2910.829           0.239  
G02  22341022.362      -28770.778        -498.874           0.255  
G03  23631955.660     -118081.540       -2130.050           0.244  
G04  22510309.958      116872.657        2032.742           0.255  
G05  20631179.472      -23188.357        -477.337           0.255  
G06  23414947.179      -60546.994       -1318.329           0.248  
G07  23112652.043      -56749.590       -1437.729           0.251  
G08  21709192.769       88752.435        1961.449           0.255  
G09  25254892.620      -63261.342       -1761.943           0.232  
G10  21755707.953      -63581.905       -1910.847           0.255  
> 2023 05 18 00 01 09.6688020  0 10                     
G01  24281207.846      193790.602        2909.500           0.239  
G02  22341032.732      -28820.661        -498.350           0.255  
G03  23632011.080     -118294.590       -2130.176           0.244  
G04  22510258.149      117075.783        2032.623           0.255  
G05  20631192.719      -23236.083        -477.746           0.255  
G06  23414980.822      -60678.898       -1319.136           0.248  
G07  23112687.444      -56893.230       -1434.414           0.251  
G08  21709142.289       88948.708        1963.671           0.255  
G09  25254937.837      -63437.577       -1762.251           0.232  
G10  21755756.689      -63773.003       -1910.765           0.255  
> 2023 05 18 00 01 09.7688020  0 10                     
G01  24281136.372      194081.671        2911.114           0.239  
G02  22341043.631      -28870.558        -499.263           0.255  
G03  23632064.838     -118507.657       -2132.052           0.244  
G04  22510206.374      117278.904        2031.765           0.255  
G05  20631205.676      -23283.808        -476.589           0.255  
G06  23415013.632      -60810.795       -1318.936           0.248  
G07  23112725.715      -57036.889       -1437.021           0.252  
G08  21709092.722       89144.959        1963.309           0.255  
G09  25254981.708      -63613.813       -1761.921           0.232  
G10  21755805.817      -63964.108       -1911.354           0.255  
> 2023 05 18 00 01 09.8688020  0 10                     
G01  24281061.461      194372.723        2910.133           0.239  
G02  22341057.344      -28920.444        -500.364           0.255  
G03  23632118.890     -118720.704       -2130.490           0.244  
G04  22510155.134      117482.022        2030.547           0.255  
G05  20631217.217      -23331.539        -476.702           0.255  
G06  23415047.408      -60942.455       -1291.460           0.248  
G07  23112760.567      -57180.569       -1436.065           0.252  
G08  21709042.213       89341.211        1962.607           0.255  
G09  25255027.123      -63790.039       -1762.274           0.232  
G10  21755854.637      -64155.211       -1910.541           0.255  
> 2023 05 18 00 01 09.9688020  0 10                     
G01  24280986.479      194663.789        2909.924           0.239  
G02  22341073.899      -28970.349        -499.523           0.255  
G03  23632173.042     -118933.760       -2130.362           0.244  
G04  22510103.650      117685.134        2029.779           0.255  
G05  20631227.709      -23379.276        -477.589           0.255  
G06  23415081.396      -61074.600       -1319.399           0.248  
G07  23112796.694      -57324.215       -1436.095           0.252  
G08  21708992.283       89537.446        1961.333           0.255  
G09  25255072.468      -63966.277       -1762.477           0.232  
G10  21755902.561      -64346.316       -1910.699           0.255  
> 2023 05 18 00 01 10.0688020  0 10                     
G01  24280912.291      194954.868        2910.281           0.239  
G02  22341084.255      -29020.258        -499.874           0.255  
G03  23632226.820     -119146.815       -2130.700           0.244  
G04  22510051.639      117888.252        2030.036           0.255  
G05  20631240.549      -23427.018        -476.551           0.255  
G06  23415115.362      -61206.507       -1318.163           0.248  
G07  23112832.708      -57467.869       -1437.515           0.252  
G08  21708942.971       89733.708        1963.997           0.255  
G09  25255118.705      -64142.507       -1762.094           0.232  
G10  21755951.516      -64537.428       -1910.943           0.255  
> 2023 05 18 00 01 10.1688020  0 10                     
G01  24280838.421      195246.126        2939.536           0.239  
G02  22341096.936      -29070.079        -489.253           0.255  
G03  23632282.254     -119359.884       -2130.040           0.244  
G04  22509999.668      118091.814        2048.929           0.255  
G05  20631253.584      -23474.768        -478.132           0.255  
G06  23415147.919      -61338.280       -1339.728           0.248  
G07  23112869.864      -57611.391       -1439.301           0.251  
G08  21708892.553       89929.835        1978.339           0.255  
G09  25255162.723      -64318.638       -1737.207           0.232  
G10  21755999.812      -64728.546       -1911.429           0.255  
> 2023 05 18 00 01 10.2688020  0 10                     
G01  24280765.484      195536.986        2923.584           0.239  
G02  22341108.608      -29120.074        -498.541           0.255  
G03  23632336.993     -119572.939       -2129.879           0.244  
G04  22509948.234      118294.471        2032.008           0.255  
G05  20631267.613      -23522.509        -477.740           0.255  
G06  23415182.405      -61470.415       -1346.524           0.248  
G07  23112903.454      -57754.899       -1364.488           0.251  
G08  21708842.350       90125.883        1892.782           0.255  
G09  25255207.901      -64494.967       -1761.592           0.232  
G10  21756048.244      -64919.660       -1911.596           0.255  
> 2023 05 18 00 01 10.3688020  0 10                     
G01  24280691.593      195828.058        2910.270           0.239  
G02  22341126.118      -29170.313        -451.647           0.255  
G03  23632391.561     -119786.002       -2130.994           0.244  
G04  22509895.772      118497.356        2061.101           0.255  
G05  20631276.538      -23570.248        -477.079           0.255  
G06  23415215.224      -61602.129       -1316.653           0.248  
G07  23112943.605      -57898.844       -1404.178           0.251  
G08  21708791.627       90322.410        1961.201           0.255  
G09  25255252.181      -64671.376       -1760.309           0.232  
G10  21756097.702      -65110.769       -1910.950           0.255  
> 2023 05 18 00 01 10.4688020  0 10                     
G01  24280616.085      196119.124        2910.150           0.239  
G02  22341138.920      -29219.926        -498.455           0.255  
G03  23632446.207     -119999.075       -2131.470           0.244  
G04  22509843.924      118700.688        2030.897           0.255  
G05  20631288.175      -23618.005        -478.087           0.255  
G06  23415249.595      -61734.114       -1317.586           0.248  
G07  23112982.113      -58042.535       -1435.613           0.252  
G08  21708741.593       90518.656        1962.621           0.255  
G09  25255297.555      -64847.454       -1762.536           0.232  
G10  21756146.329      -65301.883       -1911.055           0.255  
> 2023 05 18 00 01 10.5688020  0 10                     
G01  24280541.368      196410.199        2910.954           0.239  
G02  22341149.174      -29269.627        -473.200           0.255  
G03  23632499.939     -120212.137       -2130.482           0.244  
G04  22509792.338      118903.189        1960.288           0.255  
G05  20631300.189      -23665.766        -477.853           0.255  
G06  23415282.482      -61866.083       -1318.150           0.248  
G07  23113020.259      -58186.577       -1455.255           0.251  
G08  21708692.569       90714.881        1962.506           0.255  
G09  25255343.111      -65023.688       -1762.708           0.232  
G10  21756194.642      -65493.003       -1911.031           0.255  
> 2023 05 18 00 01 10.6688020  0 10                     
G01  24280468.523      196701.258        2910.681           0.239  
G02  22341161.096      -29319.373        -428.047           0.255  
G03  23632552.833     -120425.206       -2130.275           0.244  
G04  22509740.910      119106.620        2038.835           0.255  
G05  20631312.477      -23713.525        -477.107           0.255  
G06  23415315.232      -61998.017       -1319.150           0.248  
G07  23113057.842      -58329.459       -1417.960           0.251  
G08  21708642.353       90911.099        1962.166           0.255  
G09  25255387.801      -65199.926       -1762.478           0.232  
G10  21756243.718      -65684.125       -1911.628           0.255  
> 2023 05 18 00 01 10.7688020  0 10                     
G01  24280392.047      196992.321        2910.585           0.239  
G02  22341170.962      -29369.721        -500.555           0.255  
G03  23632608.571     -120638.274       -2130.614           0.244  
G04  22509689.012      119310.007        2030.611           0.255  
G05  20631326.428      -23761.284        -476.789           0.255  
G06  23415350.133      -62129.948       -1319.110           0.248  
G07  23113092.993      -58473.520       -1436.274           0.251  
G08  21708592.485       91107.317        1960.498           0.255  
G09  25255431.700      -65376.171       -1762.615           0.232  
G10  21756292.604      -65875.249       -1910.822           0.255  
> 2023 05 18 00 01 10.8688020  0 10                     
G01  24280318.990      197283.386        2910.452           0.239  
G02  22341186.156      -29420.072        -565.375           0.255  
G03  23632662.941     -120851.337       -2130.490           0.244  
G04  22509636.822      119513.104        2029.950           0.255  
G05  20631338.862      -23809.056        -477.573           0.255  
G06  23415383.141      -62261.958       -1319.819           0.248  
G07  23113127.113      -58617.123       -1458.772           0.251  
G08  21708542.525       91303.640        1992.295           0.255  
G09  25255476.155      -65552.404       -1762.014           0.232  
G10  21756341.014      -66066.376       -1911.307           0.255  
> 2023 05 18 00 01 10.9688020  0 10                     
G01  24280244.426      197574.450        2910.599           0.239  
G02  22341200.210      -29469.616        -498.691           0.255  
G03  23632717.001     -121064.404       -2130.432           0.244  
G04  22509585.394      119716.193        2029.367           0.255  
G05  20631350.575      -23856.816        -477.814           0.255  
G06  23415417.113      -62393.816       -1319.392           0.248  
G07  23113164.193      -58760.860       -1436.625           0.252  
G08  21708492.942       91499.765        1963.177           0.255  
G09  25255520.837      -65728.643       -1762.154           0.232  
G10  21756389.500      -66257.502       -1911.432           0.255  
> 2023 05 18 00 01 11.0688020  0 10                     
G01  24280169.764      197865.509        2910.368           0.239  
G02  22341216.013      -29519.551        -497.348           0.255  
G03  23632772.494     -121277.468       -2142.063           0.244  
G04  22509534.029      119919.858        2076.011           0.255  
G05  20631361.344      -23904.600        -478.836           0.255  
G06  23415450.669      -62525.730       -1309.382           0.248  
G07  23113199.341      -58904.527       -1436.163           0.251  
G08  21708443.301       91695.969        1962.768           0.255  
G09  25255566.952      -65904.981       -1762.331           0.232  
G10  21756437.789      -66448.626       -1910.927           0.255  
> 2023 05 18 00 01 11.1688020  0 10                     
G01  24280096.562      198156.580        2909.590           0.239  
G02  22341223.316      -29569.506        -499.653           0.255  
G03  23632825.780     -121490.548       -2131.346           0.244  
G04  22509482.438      120122.389        2030.181           0.255  
G05  20631375.511      -23952.376        -477.310           0.255  
G06  23415484.145      -62657.691       -1319.062           0.248  
G07  23113236.581      -59048.208       -1437.830           0.252  
G08  21708392.249       91892.165        1962.097           0.255  
G09  25255611.707      -66081.124       -1762.629           0.232  
G10  21756487.219      -66639.759       -1911.506           0.255  
> 2023 05 18 00 01 11.2688020  0 10                     
G01  24280023.630      198447.643        2910.001           0.239  
G02  22341237.600      -29619.456        -498.949           0.255  
G03  23632880.019     -121703.636       -2130.809           0.244  
G04  22509430.720      120325.476        2031.773           0.255  
G05  20631387.220      -24000.159        -478.050           0.255  
G06  23415517.793      -62789.643       -1319.465           0.248  
G07  23113273.046      -59191.872       -1436.510           0.251  
G08  21708342.238       92088.366        1960.959           0.255  
G09  25255655.985      -66257.364       -1762.676           0.232  
G10  21756535.473      -66830.893       -1911.291           0.255  
> 2023 05 18 00 01 11.3688020  0 10                     
G01  24279947.747      198738.715        2909.454           0.239  
G02  22341250.320      -29669.435        -499.401           0.255  
G03  23632933.457     -121916.706       -2130.725           0.244  
G04  22509378.691      120528.569        2031.824           0.255  
G05  20631399.330      -24047.938        -478.254           0.255  
G06  23415550.720      -62921.585       -1319.263           0.248  
G07  23113309.818      -59335.541       -1435.973           0.251  
G08  21708293.485       92284.569        1962.124           0.255  
G09  25255700.466      -66433.598       -1762.526           0.232  
G10  21756584.472      -67022.033       -1911.513           0.255  
> 2023 05 18 00 01 11.4688020  0 10                     
G01  24279874.385      199029.783        2909.595           0.239  
G02  22341262.924      -29719.771        -544.530           0.255  
G03  23632987.511     -122129.790       -2130.997           0.244  
G04  22509325.938      120731.662        2031.744           0.255  
G05  20631411.712      -24095.720        -477.495           0.255  
G06  23415584.707      -63053.535       -1319.766           0.248  
G07  23113346.514      -59479.220       -1437.380           0.251  
G08  21708243.324       92480.776        1963.079           0.255  
G09  25255745.497      -66609.837       -1762.190           0.232  
G10  21756633.599      -67213.172       -1911.544           0.255  
> 2023 05 18 00 01 11.5688020  0 10                     
G01  24279798.341      199320.848        2911.554           0.239  
G02  22341276.417      -29769.388        -499.345           0.255  
G03  23633042.444     -122342.851       -2130.171           0.244  
G04  22509275.629      120934.748        2031.671           0.255  
G05  20631423.724      -24143.510        -478.289           0.255  
G06  23415619.890      -63185.493       -1319.677           0.248  
G07  23113382.821      -59622.894       -1436.650           0.252  
G08  21708193.030       92676.954        1961.781           0.255  
G09  25255789.427      -66786.082       -1762.432           0.232  
G10  21756681.978      -67404.306       -1911.072           0.255  
> 2023 05 18 00 01 11.6688020  0 10                     
G01  24279726.954      199611.910        2911.549           0.239  
G02  22341288.739      -29819.355        -499.136           0.255  
G03  23633096.377     -122555.912       -2129.221           0.244  
G04  22509223.144      121137.839        2032.314           0.255  
G05  20631435.927      -24191.310        -478.059           0.255  
G06  23415651.768      -63317.488       -1323.890           0.248  
G07  23113419.550      -59766.572       -1437.126           0.251  
G08  21708143.049       92873.600        2047.953           0.255  
G09  25255835.040      -66962.058       -1733.741           0.232  
G10  21756730.855      -67595.454       -1911.690           0.255  
> 2023 05 18 00 01 11.7688020  0 10                     
G01  24279652.958      199902.971        2911.246           0.239  
G02  22341301.041      -29869.328        -499.617           0.255  
G03  23633151.185     -122769.009       -2130.031           0.244  
G04  22509171.943      121340.912        2031.226           0.255  
G05  20631448.221      -24239.111        -478.120           0.255  
G06  23415685.628      -63449.406       -1319.597           0.248  
G07  23113456.642      -59910.242       -1436.614           0.251  
G08  21708092.454       93069.328        1960.782           0.255  
G09  25255880.555      -67138.569       -1762.288           0.232  
G10  21756779.305      -67786.592       -1911.478           0.255  
> 2023 05 18 00 01 11.8688020  0 10                     
G01  24279577.531      200194.041        2911.345           0.239  
G02  22341312.461      -29919.127        -545.024           0.255  
G03  23633205.701     -122982.101       -2131.229           0.244  
G04  22509120.462      121544.006        2099.366           0.255  
G05  20631460.421      -24286.911        -477.272           0.255  
G06  23415719.779      -63581.365       -1319.835           0.248  
G07  23113493.261      -60053.912       -1436.890           0.252  
G08  21708042.306       93265.507        1960.863           0.255  
G09  25255926.252      -67315.077       -1811.308           0.232  
G10  21756828.272      -67977.733       -1911.090           0.255  
> 2023 05 18 00 01 11.9688020  0 10                     
G01  24279503.027      200485.108        2910.876           0.239  
G02  22341325.839      -29969.746        -586.687           0.255  
G03  23633260.613     -123195.182       -2131.737           0.244  
G04  22509068.747      121747.827        2087.025           0.255  
G05  20631472.432      -24334.703        -476.559           0.255  
G06  23415752.599      -63713.305       -1324.114           0.248  
G07  23113529.366      -60197.588       -1437.403           0.251  
G08  21707992.674       93461.101        1821.779           0.255  
G09  25255970.979      -67491.065       -1762.538           0.232  
G10  21756876.870      -68168.857       -1925.474           0.255  
> 2023 05 18 00 01 12.0688020  0 10                     
G01  24279428.646      200776.163        2909.591           0.239  
G02  22341338.270      -30019.327        -499.770           0.255  
G03  23633314.882     -123408.264       -2133.137           0.244  
G04  22509016.570      121950.124        2029.632           0.255  
G05  20631485.485      -24382.516        -478.236           0.255  
G06  23415786.783      -63845.300       -1319.960           0.248  
G07  23113566.167      -60341.255       -1435.740           0.251  
G08  21707942.801       93657.869        1962.038           0.255  
G09  25256015.831      -67667.306       -1762.219           0.232  
G10  21756925.497      -68360.026       -1911.540           0.255  
> 2023 05 18 00 01 12.1688020  0 10                     
G01  24279354.455      201067.230        2910.758           0.239  
G02  22341351.596      -30069.041        -399.766           0.255  
G03  23633369.131     -123621.335       -2131.825           0.244  
G04  22508965.278      122153.180        2029.030           0.255  
G05  20631497.662      -24430.329        -478.579           0.255  
G06  23415819.803      -63977.276       -1320.123           0.248  
G07  23113601.630      -60484.953       -1438.289           0.252  
G08  21707892.507       93854.046        1962.761           0.255  
G09  25256060.844      -67843.548       -1761.345           0.232  
G10  21756973.688      -68551.175       -1911.370           0.255  
> 2023 05 18 00 01 12.2688020  0 10                     
G01  24279279.759      201358.300        2910.113           0.240  
G02  22341366.648      -30119.315        -499.357           0.255  
G03  23633422.637     -123834.418       -2131.361           0.244  
G04  22508913.079      122356.257        2030.144           0.255  
G05  20631507.422      -24478.150        -478.140           0.255  
G06  23415854.416      -64109.245       -1320.133           0.248  
G07  23113640.003      -60628.625       -1436.220           0.251  
G08  21707842.871       94050.206        1961.777           0.255  
G09  25256105.744      -68019.797       -1762.245           0.232  
G10  21757023.353      -68742.324       -1911.390           0.255  
> 2023 05 18 00 01 12.3688020  0 10                     
G01  24279206.295      201649.354        2909.417           0.239  
G02  22341377.555      -30169.321        -501.987           0.255  
G03  23633476.739     -124047.497       -2130.734           0.244  
G04  22508860.929      122559.316        2030.317           0.255  
G05  20631520.824      -24525.966        -477.181           0.255  
G06  23415888.205      -64241.219       -1320.132           0.248  
G07  23113676.290      -60772.303       -1436.526           0.251  
G08  21707792.308       94246.360        1960.618           0.255  
G09  25256150.244      -68196.041       -1762.587           0.232  
G10  21757071.867      -68933.485       -1911.973           0.255  
> 2023 05 18 00 01 12.4688020  0 10                     
G01  24279132.541      201940.567        2891.677           0.239  
G02  22341389.698      -30219.347        -501.934           0.255  
G03  23633530.696     -124260.580       -2131.031           0.244  
G04  22508808.814      122761.087        1844.391           0.255  
G05  20631533.786      -24573.781        -477.055           0.255  
G06  23415921.907      -64373.266       -1300.193           0.248  
G07  23113712.131      -60915.986       -1442.211           0.252  
G08  21707742.870       94443.297        2090.961           0.255  
G09  25256195.600      -68372.306       -1775.583           0.232  
G10  21757120.330      -69124.996       -1967.530           0.255  
> 2023 05 18 00 01 12.5688020  0 10                     
G01  24279058.487      202231.499        2911.363           0.239  
G02  22341403.043      -30269.364        -500.559           0.255  
G03  23633585.154     -124473.661       -2130.626           0.244  
G04  22508757.047      122965.442        2030.623           0.255  
G05  20631545.981      -24621.607        -477.995           0.255  
G06  23415955.362      -64505.178       -1320.362           0.248  
G07  23113749.810      -61059.658       -1436.923           0.251  
G08  21707693.046       94638.683        1962.265           0.255  
G09  25256240.365      -68548.529       -1762.433           0.232  
G10  21757169.054      -69315.793       -1911.810           0.255  
> 2023 05 18 00 01 12.6688020  0 10                     
G01  24278983.840      202522.562        2910.038           0.239  
G02  22341416.059      -30319.259        -472.005           0.255  
G03  23633640.488     -124686.756       -2131.578           0.244  
G04  22508705.705      123168.445        1971.383           0.255  
G05  20631557.712      -24669.438        -478.691           0.255  
G06  23415988.277      -64637.160       -1320.390           0.248  
G07  23113786.340      -61203.576       -1455.254           0.252  
G08  21707642.492       94835.127        2010.838           0.255  
G09  25256284.931      -68724.686       -1737.857           0.232  
G10  21757217.402      -69506.949       -1911.413           0.255  
> 2023 05 18 00 01 12.7688020  0 10                     
G01  24278909.367      202813.619        2909.422           0.239  
G02  22341428.000      -30369.401        -499.526           0.255  
G03  23633694.499     -124899.838       -2130.760           0.244  
G04  22508653.977      123371.568        2031.601           0.255  
G05  20631570.091      -24717.272        -478.467           0.255  
G06  23416021.583      -64769.147       -1319.921           0.248  
G07  23113821.471      -61347.025       -1437.178           0.251  
G08  21707592.199       95030.985        1962.489           0.255  
G09  25256330.247      -68901.031       -1762.145           0.232  
G10  21757267.188      -69698.121       -1911.343           0.255  
> 2023 05 18 00 01 12.8688020  0 10                     
G01  24278833.570      203104.693        2911.050           0.239  
G02  22341440.762      -30419.430        -501.193           0.255  
G03  23633748.634     -125112.923       -2130.787           0.244  
G04  22508601.448      123574.630        2031.841           0.255  
G05  20631582.221      -24765.112        -478.384           0.255  
G06  23416055.735      -64901.135       -1320.090           0.248  
G07  23113858.440      -61490.700       -1436.145           0.252  
G08  21707543.350       95227.131        1961.962           0.255  
G09  25256375.362      -69077.277       -1761.776           0.232  
G10  21757316.022      -69889.283       -1911.172           0.255  
> 2023 05 18 00 01 12.9688020  0 10                     
G01  24278760.232      203395.757        2910.875           0.239  
G02  22341452.394      -30469.482        -501.873           0.255  
G03  23633803.428     -125326.018       -2130.634           0.244  
G04  22508550.451      123777.683        2031.577           0.255  
G05  20631594.467      -24812.940        -477.661           0.255  
G06  23416090.466      -65033.131       -1320.255           0.248  
G07  23113896.905      -61634.385       -1435.994           0.252  
G08  21707492.667       95423.270        1960.474           0.255  
G09  25256419.549      -69253.532       -1762.342           0.232  
G10  21757364.171      -70080.454       -1911.812           0.255  
> 2023 05 18 00 01 13.0688020  0 10                     
G01  24278687.514      203686.802        2910.969           0.239  
G02  22341466.180      -30519.523        -500.379           0.255  
G03  23633855.351     -125539.101       -2129.183           0.244  
G04  22508498.048      123980.738        2031.979           0.255  
G05  20631607.910      -24860.781        -478.130           0.255  
G06  23416123.804      -65165.122       -1319.461           0.248  
G07  23113930.752      -61777.796       -1428.449           0.251  
G08  21707443.448       95619.404        1958.807           0.255  
G09  25256464.115      -69429.781       -1762.713           0.232  
G10  21757412.960      -70271.601       -1898.481           0.255  
> 2023 05 18 00 01 13.1688020  0 10                     
G01  24278614.525      203977.877        2911.582           0.240  
G02  22341480.086      -30569.561        -498.934           0.255  
G03  23633910.487     -125752.216       -2130.189           0.244  
G04  22508446.413      124183.788        2032.458           0.255  
G05  20631619.184      -24908.628        -478.633           0.255  
G06  23416156.871      -65297.122       -1319.086           0.248  
G07  23113968.922      -61921.767       -1438.873           0.251  
G08  21707392.656       95815.551        1960.206           0.255  
G09  25256508.799      -69606.029       -1762.017           0.232  
G10  21757461.717      -70462.791       -1911.558           0.255  
> 2023 05 18 00 01 13.2688020  0 10                     
G01  24278541.190      204268.931        2910.125           0.239  
G02  22341494.311      -30619.598        -498.500           0.255  
G03  23633965.359     -125965.303       -2130.579           0.244  
G04  22508396.157      124386.821        2031.535           0.255  
G05  20631630.406      -24956.487        -479.356           0.255  
G06  23416190.272      -65429.136       -1321.077           0.248  
G07  23114003.873      -62065.437       -1436.244           0.251  
G08  21707341.744       96011.693        1961.662           0.255  
G09  25256554.130      -69782.283       -1762.233           0.232  
G10  21757509.337      -70653.966       -1911.390           0.255  
> 2023 05 18 00 01 13.3688020  0 10                     
G01  24278465.407      204559.918        2874.174           0.239  
G02  22341505.132      -30669.655        -501.085           0.255  
G03  23634020.173     -126178.395       -2129.871           0.244  
G04  22508343.223      124589.617        2020.710           0.255  
G05  20631643.007      -25004.340        -478.021           0.255  
G06  23416224.055      -65561.132       -1319.369           0.248  
G07  23114041.502      -62209.128       -1438.616           0.251  
G08  21707292.651       96207.816        1961.738           0.255  
G09  25256599.064      -69958.483       -1780.114           0.232  
G10  21757558.846      -70844.933       -1879.123           0.255  
> 2023 05 18 00 01 13.4688020  0 10                     
G01  24278388.814      204851.215        2929.823           0.239  
G02  22341519.134      -30719.743        -503.259           0.255  
G03  23634074.493     -126391.495       -2130.902           0.244  
G04  22508291.503      124792.121        1962.373           0.255  
G05  20631654.724      -25052.183        -476.539           0.255  
G06  23416257.907      -65693.142       -1319.497           0.248  
G07  23114077.560      -62352.805       -1437.129           0.251  
G08  21707243.038       96403.943        1962.200           0.255  
G09  25256644.448      -70134.790       -1763.059           0.232  
G10  21757607.974      -71036.315       -1912.042           0.255  
> 2023 05 18 00 01 13.5688020  0 10                     
G01  24278317.074      205142.131        2910.141           0.239  
G02  22341533.111      -30769.796        -501.894           0.255  
G03  23634128.352     -126604.594       -2131.889           0.244  
G04  22508239.895      124995.940        2030.834           0.255  
G05  20631666.388      -25100.048        -477.626           0.255  
G06  23416291.979      -65825.157       -1320.084           0.248  
G07  23114115.752      -62496.355       -1481.552           0.252  
G08  21707191.929       96600.058        1962.306           0.255  
G09  25256690.141      -70311.092       -1759.284           0.232  
G10  21757656.510      -71227.483       -1911.470           0.255  
> 2023 05 18 00 01 13.6688020  0 10                     
G01  24278241.569      205433.191        2909.764           0.239  
G02  22341544.557      -30819.856        -500.566           0.255  
G03  23634183.461     -126817.700       -2131.373           0.244  
G04  22508188.345      125198.976        2030.510           0.255  
G05  20631679.001      -25147.911        -478.051           0.255  
G06  23416324.778      -65957.177       -1320.135           0.248  
G07  23114151.294      -62640.180       -1437.119           0.251  
G08  21707141.731       96795.918        1914.603           0.255  
G09  25256734.835      -70487.287       -1762.946           0.232  
G10  21757705.604      -71418.668       -1911.022           0.255  
> 2023 05 18 00 01 13.7688020  0 10                     
G01  24278167.977      205724.251        2909.901           0.239  
G02  22341556.871      -30869.928        -500.417           0.255  
G03  23634237.714     -127030.795       -2131.740           0.244  
G04  22508136.609      125402.001        2030.191           0.255  
G05  20631690.784      -25195.773        -479.413           0.255  
G06  23416359.653      -66088.950       -1294.165           0.248  
G07  23114189.064      -62783.884       -1435.009           0.253  
G08  21707093.433       96992.292        1960.027           0.255  
G09  25256779.055      -70663.539       -1762.490           0.232  
G10  21757753.655      -71609.844       -1911.724           0.255  
> 2023 05 18 00 01 13.8688020  0 10                     
G01  24278094.231      206015.313        2910.059           0.239  
G02  22341568.421      -30920.006        -501.168           0.255  
G03  23634291.997     -127243.881       -2130.660           0.244  
G04  22508085.484      125605.039        2029.067           0.255  
G05  20631703.886      -25243.652        -478.217           0.255  
G06  23416394.631      -66221.205       -1320.484           0.248  
G07  23114223.972      -62927.553       -1437.110           0.252  
G08  21707042.831       97188.390        1959.204           0.255  
G09  25256824.756      -70839.792       -1762.263           0.232  
G10  21757801.061      -71801.022       -1911.716           0.255  
> 2023 05 18 00 01 13.9688020  0 10                     
G01  24278017.376      206306.378        2910.502           0.239  
G02  22341581.191      -30970.087        -500.937           0.255  
G03  23634347.893     -127456.983       -2130.139           0.244  
G04  22508033.984      125808.074        2029.421           0.255  
G05  20631714.802      -25291.519        -479.358           0.255  
G06  23416427.208      -66353.231       -1320.157           0.248  
G07  23114264.378      -63071.247       -1434.557           0.252  
G08  21706992.979       97384.509        1960.687           0.255  
G09  25256868.907      -71016.052       -1762.694           0.232  
G10  21757850.502      -71992.214       -1911.861           0.255  
> 2023 05 18 00 01 14.0688020  0 10                     
G01  24277943.791      206597.440        2910.845           0.239  
G02  22341590.168      -31020.162        -500.955           0.255  
G03  23634399.749     -127670.092       -2132.046           0.244  
G04  22507981.548      126011.097        2028.933           0.255  
G05  20631730.579      -25339.403        -479.575           0.255  
G06  23416457.648      -66485.250       -1320.112           0.248  
G07  23114299.979      -63214.936       -1434.782           0.250  
G08  21706942.805       97580.620        1961.125           0.255  
G09  25256913.260      -71192.308       -1762.696           0.232  
G10  21757900.146      -72183.400       -1911.793           0.255  
> 2023 05 18 00 01 14.1688020  0 10                     
G01  24277868.497      206888.870        2965.350           0.239  
G02  22341606.395      -31070.401        -498.143           0.255  
G03  23634453.244     -127883.065       -2146.245           0.244  
G04  22507929.604      126214.123        2028.807           0.255  
G05  20631742.620      -25387.277        -479.403           0.255  
G06  23416492.187      -66617.167       -1322.848           0.248  
G07  23114335.145      -63358.309       -1325.319           0.251  
G08  21706894.310       97776.726        1961.557           0.255  
G09  25256959.433      -71368.566       -1763.150           0.232  
G10  21757948.867      -72374.594       -1912.391           0.255  
> 2023 05 18 00 01 14.2688020  0 10                     
G01  24277795.493      207179.562        2911.767           0.239  
G02  22341620.836      -31120.369        -500.815           0.255  
G03  23634507.651     -128096.294       -2130.710           0.244  
G04  22507878.098      126417.151        2028.445           0.255  
G05  20631753.862      -25435.158        -479.071           0.255  
G06  23416525.921      -66749.311       -1320.048           0.248  
G07  23114368.358      -63502.317       -1436.524           0.251  
G08  21706843.789       97972.821        1961.369           0.255  
G09  25257003.631      -71544.823       -1762.965           0.232  
G10  21757997.552      -72565.779       -1911.612           0.255  
> 2023 05 18 00 01 14.3688020  0 10                     
G01  24277721.921      207470.613        2910.226           0.239  
G02  22341630.053      -31170.459        -499.559           0.255  
G03  23634563.798     -128309.394       -2131.460           0.244  
G04  22507826.894      126620.171        2028.817           0.255  
G05  20631765.781      -25483.044        -479.566           0.255  
G06  23416559.211      -66881.336       -1319.371           0.248  
G07  23114408.307      -63646.028       -1436.504           0.251  
G08  21706793.387       98168.912        1961.088           0.255  
G09  25257048.572      -71721.079       -1762.756           0.232  
G10  21758044.939      -72756.972       -1911.272           0.255  
> 2023 05 18 00 01 14.4688020  0 10                     
G01  24277648.434      207761.665        2911.358           0.239  
G02  22341645.322      -31220.550        -498.841           0.255  
G03  23634617.652     -128522.499       -2131.319           0.244  
G04  22507774.199      126823.194        2028.932           0.255  
G05  20631777.379      -25530.948        -480.685           0.255  
G06  23416594.447      -67013.383       -1320.511           0.248  
G07  23114446.172      -63789.692       -1435.376           0.252  
G08  21706742.744       98364.997        1961.323           0.255  
G09  25257094.350      -71897.335       -1762.464           0.232  
G10  21758094.465      -72948.167       -1911.497           0.255  
> 2023 05 18 00 01 14.5688020  0 10                     
G01  24277574.709      208052.731        2911.378           0.239  
G02  22341658.647      -31270.686        -502.108           0.255  
G03  23634671.880     -128735.617       -2132.415           0.244  
G04  22507722.838      127026.210        2029.076           0.255  
G05  20631788.145      -25578.831        -478.978           0.255  
G06  23416627.644      -67145.419       -1320.249           0.248  
G07  23114481.994      -63933.395       -1436.398           0.251  
G08  21706692.997       98561.086        1961.648           0.255  
G09  25257138.584      -72073.597       -1762.383           0.232  
G10  21758143.103      -73139.370       -1911.647           0.255  
> 2023 05 18 00 01 14.6688020  0 10                     
G01  24277500.875      208343.773        2909.855           0.239  
G02  22341673.321      -31320.808        -504.420           0.255  
G03  23634726.703     -128948.721       -2131.780           0.244  
G04  22507670.360      127229.224        2028.940           0.255  
G05  20631801.003      -25626.718        -477.634           0.255  
G06  23416661.959      -67277.462       -1320.551           0.248  
G07  23114517.098      -64076.916       -1367.465           0.252  
G08  21706642.415       98757.164        1960.463           0.255  
G09  25257183.378      -72249.857       -1762.967           0.232  
G10  21758192.372      -73330.563       -1911.679           0.255  
> 2023 05 18 00 01 14.7688020  0 10                     
G01  24277426.710      208634.848        2911.925           0.239  
G02  22341680.560      -31370.901        -501.211           0.255  
G03  23634779.446     -129161.821       -2130.737           0.244  
G04  22507619.340      127432.239        2028.805           0.255  
G05  20631815.180      -25674.629        -479.280           0.255  
G06  23416696.090      -67409.501       -1320.017           0.248  
G07  23114554.965      -64220.783       -1436.307           0.251  
G08  21706593.853       98953.244        1958.877           0.255  
G09  25257227.388      -72426.114       -1762.544           0.232  
G10  21758241.523      -73521.764       -1912.253           0.255  
> 2023 05 18 00 01 14.8688020  0 10                     
G01  24277348.752      208925.909        2913.328           0.240  
G02  22341694.307      -31421.027        -501.248           0.255  
G03  23634834.175     -129374.941       -2133.333           0.244  
G04  22507567.934      127635.249        2028.687           0.255  
G05  20631826.580      -25722.532        -478.281           0.255  
G06  23416728.159      -67541.558       -1320.906           0.248  
G07  23114593.781      -64364.481       -1438.174           0.252  
G08  21706544.245       99149.315        1958.947           0.255  
G09  25257274.620      -72602.358       -1762.086           0.232  
G10  21758289.762      -73712.966       -1911.641           0.255  
> 2023 05 18 00 01 14.9688020  0 10                     
G01  24277279.131      209216.941        2909.944           0.239  
G02  22341709.266      -31471.159        -501.444           0.255  
G03  23634889.265     -129588.038       -2131.042           0.244  
G04  22507516.455      127838.258        2029.167           0.255  
G05  20631837.704      -25770.443        -479.331           0.255  
G06  23416762.775      -67673.602       -1320.548           0.248  
G07  23114631.050      -64507.905       -1436.083           0.251  
G08  21706492.989       99345.391        1959.425           0.255  
G09  25257319.124      -72778.489       -1707.553           0.232  
G10  21758338.566      -73904.171       -1912.153           0.255  
> 2023 05 18 00 01 15.0688020  0 10                     
G01  24277205.723      209508.003        2910.072           0.239  
G02  22341722.838      -31521.289        -501.412           0.255  
G03  23634945.121     -129801.159       -2131.676           0.244  
G04  22507463.817      128041.265        2029.100           0.255  
G05  20631849.692      -25818.356        -479.570           0.255  
G06  23416796.026      -67805.652       -1319.931           0.248  
G07  23114666.564      -64651.867       -1436.990           0.251  
G08  21706442.135       99541.468        1959.984           0.255  
G09  25257363.215      -72954.887       -1762.179           0.232  
G10  21758387.669      -74095.375       -1912.076           0.255  
> 2023 05 18 00 01 15.1688020  0 10                     
G01  24277125.020      209799.078        2909.371           0.240  
G02  22341735.418      -31571.422        -501.407           0.255  
G03  23634997.802     -130014.136       -2141.882           0.244  
G04  22507412.102      128244.260        2027.887           0.255  
G05  20631861.829      -25866.264        -478.729           0.255  
G06  23416829.102      -67937.714       -1320.644           0.248  
G07  23114702.564      -64796.274       -1498.926           0.252  
G08  21706394.973       99737.530        1960.853           0.255  
G09  25257407.901      -73131.218       -1765.856           0.232  
G10  21758435.809      -74286.694       -1951.430           0.255  
> 2023 05 18 00 01 15.2688020  0 10                     
G01  24277053.649      210090.143        2910.619           0.239  
G02  22341746.970      -31621.561        -501.021           0.255  
G03  23635052.594     -130227.381       -2131.698           0.244  
G04  22507361.685      128447.277        2029.827           0.255  
G05  20631875.501      -25914.183        -479.313           0.255  
G06  23416862.819      -68069.778       -1320.243           0.248  
G07  23114738.490      -64939.282       -1437.019           0.250  
G08  21706343.436       99933.597        1960.535           0.255  
G09  25257453.729      -73307.417       -1761.985           0.232  
G10  21758483.440      -74477.801       -1912.966           0.255  
> 2023 05 18 00 01 15.3688020  0 10                     
G01  24276981.438      210381.175        2907.855           0.239  
G02  22341760.417      -31671.707        -500.677           0.255  
G03  23635107.032     -130440.504       -2132.175           0.244  
G04  22507309.388      128650.275        2028.483           0.255  
G05  20631886.375      -25962.102        -479.919           0.255  
G06  23416898.397      -68201.834       -1320.034           0.248  
G07  23114775.209      -65082.979       -1434.542           0.251  
G08  21706293.788      100129.662        1962.079           0.255  
G09  25257497.488      -73483.685       -1762.123           0.232  
G10  21758532.069      -74669.009       -1912.126           0.255  
> 2023 05 18 00 01 15.4688020  0 10                     
G01  24276907.183      210672.253        2909.690           0.239  
G02  22341772.188      -31721.859        -500.891           0.255  
G03  23635159.477     -130653.615       -2130.677           0.244  
G04  22507257.549      128853.279        2029.327           0.255  
G05  20631899.987      -26010.024        -479.005           0.255  
G06  23416929.991      -68333.908       -1320.935           0.248  
G07  23114813.054      -65226.292       -1445.066           0.252  
G08  21706243.721      100325.713        1961.568           0.255  
G09  25257543.842      -73659.950       -1762.157           0.232  
G10  21758581.170      -74860.228       -1912.119           0.255  
> 2023 05 18 00 01 15.5688020  0 10                     
G01  24276832.209      210963.320        2910.872           0.239  
G02  22341787.406      -31772.013        -502.533           0.255  
G03  23635215.081     -130866.729       -2129.826           0.244  
G04  22507205.818      129056.276        2028.935           0.255  
G05  20631910.463      -26057.955        -478.916           0.255  
G06  23416964.478      -68465.973       -1320.733           0.248  
G07  23114848.918      -65370.377       -1438.090           0.252  
G08  21706193.652      100521.762        1960.953           0.255  
G09  25257588.314      -73836.214       -1763.039           0.232  
G10  21758630.173      -75051.442       -1912.230           0.255  
> 2023 05 18 00 01 15.6688020  0 10                     
G01  24276758.501      211254.372        2910.093           0.240  
G02  22341799.824      -31822.158        -501.615           0.255  
G03  23635268.237     -131079.841       -2130.459           0.244  
G04  22507154.169      129259.261        2028.513           0.255  
G05  20631924.484      -26105.894        -479.140           0.255  
G06  23416996.646      -68598.053       -1321.087           0.248  
G07  23114883.499      -65514.069       -1436.574           0.252  
G08  21706143.913      100717.803        1960.860           0.255  
G09  25257632.081      -74012.476       -1762.866           0.232  
G10  21758679.367      -75242.659       -1912.886           0.255  
> 2023 05 18 00 01 15.7688020  0 10                     
G01  24276685.074      211545.440        2912.567           0.240  
G02  22341813.338      -31872.319        -499.738           0.255  
G03  23635323.056     -131292.967       -2132.119           0.244  
G04  22507102.005      129462.252        2029.350           0.255  
G05  20631935.867      -26153.831        -480.311           0.255  
G06  23417030.883      -68730.123       -1320.723           0.248  
G07  23114920.563      -65657.780       -1438.251           0.252  
G08  21706093.159      100913.852        1960.237           0.255  
G09  25257677.678      -74188.739       -1762.704           0.232  
G10  21758727.979      -75433.875       -1911.770           0.255  
> 2023 05 18 00 01 15.8688020  0 10                     
G01  24276608.910      211836.501        2911.138           0.238  
G02  22341824.501      -31922.500        -501.831           0.255  
G03  23635376.704     -131506.081       -2130.385           0.244  
G04  22507050.148      129664.880        1919.885           0.255  
G05  20631948.589      -26201.753        -479.509           0.255  
G06  23417066.197      -68862.203       -1320.382           0.248  
G07  23114957.317      -65801.247       -1386.231           0.251  
G08  21706044.258      101109.885        1960.772           0.255  
G09  25257722.315      -74365.102       -1763.161           0.232  
G10  21758776.975      -75625.035       -1892.402           0.255  
> 2023 05 18 00 01 15.9688020  0 10                     
G01  24276535.605      212127.548        2911.502           0.239  
G02  22341836.370      -31972.671        -501.212           0.255  
G03  23635431.845     -131719.218       -2131.661           0.244  
G04  22506999.194      129868.229        2028.771           0.255  
G05  20631961.100      -26249.697        -479.587           0.255  
G06  23417099.171      -68994.287       -1320.879           0.248  
G07  23114992.702      -65944.514       -1407.947           0.250  
G08  21705993.797      101305.928        1960.441           0.255  
G09  25257767.855      -74541.363       -1771.785           0.232  
G10  21758825.033      -75816.320       -1911.466           0.255  
> 2023 05 18 00 01 16.0688020  0 10                     
G01  24276466.329      212418.615        2912.159           0.239  
G02  22341848.584      -32022.845        -501.491           0.255  
G03  23635485.964     -131932.339       -2131.279           0.244  
G04  22506946.397      130071.208        2027.491           0.255  
G05  20631973.492      -26297.649        -479.035           0.255  
G06  23417132.820      -69126.369       -1321.104           0.248  
G07  23115030.582      -66088.884       -1438.229           0.252  
G08  21705942.773      101501.955        1960.172           0.255  
G09  25257811.935      -74717.526       -1762.680           0.232  
G10  21758874.139      -76007.540       -1911.429           0.255  
> 2023 05 18 00 01 16.1688020  0 10                     
G01  24276388.307      212709.673        2911.043           0.239  
G02  22341862.997      -32073.030        -501.511           0.255  
G03  23635539.981     -132145.460       -2131.438           0.244  
G04  22506894.638      130274.189        2027.918           0.255  
G05  20631984.993      -26345.602        -479.991           0.255  
G06  23417166.515      -69258.505       -1325.470           0.248  
G07  23115067.200      -66232.593       -1436.834           0.251  
G08  21705893.017      101697.994        1961.117           0.255  
G09  25257857.093      -74893.789       -1762.536           0.232  
G10  21758923.445      -76198.759       -1911.713           0.255  
> 2023 05 18 00 01 16.2688020  0 10                     
G01  24276314.313      213000.716        2910.558           0.239  
G02  22341875.454      -32123.214        -501.683           0.255  
G03  23635594.859     -132358.581       -2131.251           0.244  
G04  22506843.289      130477.169        2026.896           0.255  
G05  20631997.023      -26393.539        -478.806           0.255  
G06  23417200.648      -69390.545       -1321.242           0.248  
G07  23115104.727      -66376.324       -1438.829           0.252  
G08  21705842.462      101894.022        1961.388           0.255  
G09  25257902.948      -75070.062       -1763.284           0.232  
G10  21758971.911      -76389.998       -1911.539           0.255  
> 2023 05 18 00 01 16.3688020  0 10                     
G01  24276238.847      213291.779        2910.932           0.239  
G02  22341886.320      -32173.400        -501.721           0.255  
G03  23635649.171     -132571.706       -2131.220           0.244  
G04  22506791.850      130680.146        2027.424           0.255  
G05  20632009.597      -26441.506        -480.003           0.255  
G06  23417234.519      -69522.641       -1320.216           0.248  
G07  23115141.464      -66520.004       -1435.644           0.252  
G08  21705793.978      102090.048        1962.232           0.255  
G09  25257947.308      -75246.333       -1762.796           0.232  
G10  21759020.820      -76581.226       -1912.057           0.255  
> 2023 05 18 00 01 16.4688020  0 10                     
G01  24276166.068      213582.828        2909.472           0.239  
G02  22341897.493      -32223.602        -502.250           0.255  
G03  23635704.785     -132784.840       -2131.467           0.244  
G04  22506739.884      130883.289        2095.382           0.255  
G05  20632022.708      -26489.457        -479.741           0.255  
G06  23417268.370      -69654.935       -1340.238           0.248  
G07  23115177.946      -66663.824       -1501.933           0.251  
G08  21705743.069      102285.839        1962.757           0.255  
G09  25257991.698      -75422.601       -1763.203           0.232  
G10  21759069.556      -76772.462       -1911.854           0.255  
> 2023 05 18 00 01 16.5688020  0 10                     
G01  24276092.966      213873.889        2908.451           0.239  
G02  22341915.295      -32273.804        -503.856           0.255  
G03  23635757.891     -132997.963       -2130.344           0.244  
G04  22506688.058      131086.105        2028.107           0.255  
G05  20632033.656      -26537.416        -478.273           0.255  
G06  23417300.676      -69786.837       -1321.003           0.248  
G07  23115213.043      -66807.439       -1438.845           0.250  
G08  21705693.109      102482.081        1961.465           0.255  
G09  25258036.973      -75598.874       -1763.411           0.232  
G10  21759118.256      -76963.705       -1912.649           0.255  
> 2023 05 18 00 01 16.6688020  0 10                     
G01  24276016.584      214164.976        2909.275           0.239  
G02  22341923.612      -32324.002        -502.150           0.255  
G03  23635812.220     -133211.102       -2129.668           0.244  
G04  22506637.262      131289.082        2027.842           0.255  
G05  20632047.580      -26585.381        -478.914           0.255  
G06  23417335.080      -69918.935       -1321.242           0.248  
G07  23115249.767      -66951.153       -1439.619           0.252  
G08  21705643.724      102678.092        1961.326           0.255  
G09  25258082.308      -75775.140       -1762.699           0.232  
G10  21759166.363      -77154.939       -1912.682           0.255  
> 2023 05 18 00 01 16.7688020  0 10                     
G01  24275941.863      214456.007        2910.314           0.239  
G02  22341939.490      -32374.159        -508.250           0.255  
G03  23635865.690     -133424.227       -2130.451           0.244  
G04  22506585.275      131492.053        2028.745           0.255  
G05  20632058.655      -26633.355        -480.234           0.255  
G06  23417369.777      -70051.035       -1320.714           0.248  
G07  23115286.783      -67094.828       -1435.284           0.251  
G08  21705595.306      102874.102        1961.095           0.255  
G09  25258127.050      -75951.410       -1763.574           0.232  
G10  21759214.940      -77346.184       -1912.910           0.255  
> 2023 05 18 00 01 16.8688020  0 10                     
G01  24275868.375      214747.075        2910.001           0.239  
G02  22341947.897      -32424.419        -502.474           0.255  
G03  23635920.158     -133637.360       -2130.354           0.244  
G04  22506533.328      131695.022        2029.232           0.255  
G05  20632072.893      -26681.334        -480.197           0.255  
G06  23417402.411      -70183.140       -1320.950           0.248  
G07  23115323.587      -67238.549       -1436.998           0.251  
G08  21705544.294      103070.104        1960.374           0.255  
G09  25258171.589      -76127.679       -1763.305           0.232  
G10  21759264.494      -77537.426       -1912.662           0.255  
> 2023 05 18 00 01 16.9688020  0 10                     
G01  24275795.082      215038.142        2911.198           0.239  
G02  22341964.533      -32474.635        -503.991           0.255  
G03  23635974.905     -133850.500       -2130.882           0.244  
G04  22506481.544      131897.984        2028.850           0.255  
G05  20632082.774      -26729.306        -479.570           0.255  
G06  23417435.921      -70315.252       -1321.393           0.248  
G07  23115360.493      -67382.274       -1437.389           0.252  
G08  21705493.879      103266.113        1960.931           0.255  
G09  25258216.044      -76303.953       -1763.227           0.232  
G10  21759313.076      -77728.659       -1911.798           0.255  
> 2023 05 18 00 01 17.0688020  0 10                     
G01  24275721.836      215329.189        2910.605           0.239  
G02  22341978.455      -32524.863        -503.849           0.255  
G03  23636029.699     -134063.634       -2131.361           0.244  
G04  22506429.542      132100.952        2029.727           0.255  
G05  20632094.416      -26777.282        -479.456           0.255  
G06  23417469.290      -70447.360       -1321.076           0.248  
G07  23115397.902      -67525.977       -1435.763           0.251  
G08  21705443.598      103462.104        1960.207           0.255  
G09  25258261.013      -76480.214       -1762.831           0.232  
G10  21759361.784      -77919.909       -1912.695           0.255  
> 2023 05 18 00 01 17.1688020  0 10                     
G01  24275645.710      215620.248        2910.517           0.239  
G02  22341993.409      -32575.089        -502.252           0.255  
G03  23636083.899     -134276.762       -2131.193           0.244  
G04  22506378.458      132303.916        2030.208           0.255  
G05  20632105.361      -26825.254        -479.778           0.255  
G06  23417503.340      -70579.480       -1321.494           0.248  
G07  23115435.890      -67669.708       -1436.499           0.250  
G08  21705393.625      103658.101        1960.473           0.255  
G09  25258305.625      -76656.477       -1762.506           0.232  
G10  21759410.711      -78111.157       -1912.528           0.255  
> 2023 05 18 00 01 17.2688020  0 10                     
G01  24275571.413      215911.302        2911.207           0.239  
G02  22342004.723      -32625.321        -502.757           0.255  
G03  23636137.509     -134489.905       -2130.879           0.244  
G04  22506326.512      132506.882        2031.379           0.255  
G05  20632118.599      -26873.252        -479.685           0.255  
G06  23417536.846      -70711.589       -1321.447           0.248  
G07  23115470.708      -67813.395       -1438.248           0.252  
G08  21705343.815      103854.093        1960.176           0.255  
G09  25258349.681      -76832.755       -1762.942           0.232  
G10  21759459.712      -78302.413       -1914.181           0.255  
> 2023 05 18 00 01 17.3688020  0 10                     
G01  24275497.973      216202.360        2910.048           0.239  
G02  22342017.956      -32675.550        -502.699           0.255  
G03  23636192.830     -134703.033       -2130.738           0.244  
G04  22506275.196      132709.833        2030.688           0.255  
G05  20632130.141      -26921.242        -480.060           0.255  
G06  23417570.841      -70843.723       -1321.605           0.248  
G07  23115508.174      -67957.113       -1435.666           0.251  
G08  21705293.316      104050.078        1960.251           0.255  
G09  25258396.014      -77009.027       -1763.163           0.232  
G10  21759508.041      -78493.660       -1912.890           0.255  
> 2023 05 18 00 01 17.4688020  0 10                     
G01  24275422.772      216493.424        2910.639           0.239  
G02  22342029.665      -32725.782        -501.993           0.255  
G03  23636247.580     -134916.185       -2133.021           0.243  
G04  22506222.634      132912.789        2031.633           0.255  
G05  20632142.728      -26969.240        -480.769           0.255  
G06  23417603.543      -70975.848       -1321.638           0.248  
G07  23115546.789      -68100.805       -1434.695           0.250  
G08  21705243.439      104246.069        1961.023           0.255  
G09  25258441.006      -77185.306       -1762.932           0.232  
G10  21759557.314      -78684.914       -1912.269           0.255  
> 2023 05 18 00 01 17.5688020  0 10                     
G01  24275349.529      216784.476        2909.838           0.239  
G02  22342041.247      -32776.033        -502.023           0.255  
G03  23636300.298     -135129.316       -2132.465           0.244  
G04  22506171.401      133115.737        2030.904           0.255  
G05  20632156.424      -27017.229        -479.935           0.255  
G06  23417636.888      -71107.970       -1320.675           0.248  
G07  23115580.385      -68244.550       -1437.529           0.251  
G08  21705194.654      104442.049        1960.854           0.255  
G09  25258485.081      -77361.577       -1763.184           0.232  
G10  21759605.548      -78876.164       -1912.270           0.255  
> 2023 05 18 00 01 17.6688020  0 10                     
G01  24275274.934      217075.539        2910.381           0.239  
G02  22342054.949      -32826.280        -502.560           0.255  
G03  23636355.052     -135342.456       -2132.521           0.244  
G04  22506119.059      133318.688        2030.702           0.255  
G05  20632168.270      -27065.227        -479.712           0.255  
G06  23417671.487      -71240.097       -1321.510           0.248  
G07  23115615.302      -68388.276       -1438.273           0.251  
G08  21705144.475      104638.027        1962.184           0.255  
G09  25258532.157      -77537.860       -1762.744           0.232  
G10  21759654.491      -79067.420       -1912.642           0.255  
> 2023 05 18 00 01 17.7688020  0 10                     
G01  24275200.828      217366.608        2911.435           0.239  
G02  22342065.364      -32876.544        -502.234           0.255  
G03  23636409.424     -135555.594       -2131.812           0.244  
G04  22506067.238      133521.633        2030.667           0.255  
G05  20632181.303      -27113.225        -479.853           0.255  
G06  23417704.913      -71372.234       -1321.468           0.248  
G07  23115655.032      -68531.984       -1437.489           0.251  
G08  21705095.619      104833.996        1961.370           0.255  
G09  25258575.698      -77714.135       -1763.374           0.232  
G10  21759702.651      -79258.683       -1912.929           0.255  
> 2023 05 18 00 01 17.8688020  0 10                     
G01  24275127.588      217657.663        2911.446           0.240  
G02  22342077.598      -32926.796        -503.734           0.255  
G03  23636464.930     -135768.733       -2130.787           0.244  
G04  22506015.760      133724.567        2030.030           0.255  
G05  20632193.636      -27161.233        -479.654           0.255  
G06  23417737.871      -71504.365       -1321.140           0.248  
G07  23115692.348      -68675.703       -1436.918           0.251  
G08  21705045.327      105029.955        1960.787           0.255  
G09  25258620.789      -77890.408       -1762.815           0.232  
G10  21759751.323      -79449.931       -1911.813           0.255  
> 2023 05 18 00 01 17.9688020  0 10                     
G01  24275052.181      217948.712        2908.397           0.239  
G02  22342100.850      -32977.052        -503.889           0.255  
G03  23636518.964     -135981.872       -2131.837           0.244  
G04  22505964.781      133927.502        2029.525           0.255  
G05  20632202.754      -27209.249        -479.594           0.255  
G06  23417770.958      -71636.507       -1320.679           0.248  
G07  23115725.823      -68819.421       -1437.213           0.252  
G08  21704995.361      105225.925        1960.981           0.255  
G09  25258666.422      -78066.695       -1764.026           0.232  
G10  21759800.248      -79641.189       -1912.080           0.255  
> 2023 05 18 00 01 18.0688020  0 10                     
G01  24274979.704      218239.795        2904.627           0.239  
G02  22342109.549      -33026.835        -459.644           0.255  
G03  23636570.911     -136195.022       -2132.378           0.244  
G04  22505913.407      134130.443        2029.999           0.255  
G05  20632215.117      -27257.256        -479.502           0.255  
G06  23417805.889      -71768.646       -1320.582           0.248  
G07  23115761.968      -68962.956       -1382.635           0.251  
G08  21704945.135      105421.948        1996.070           0.255  
G09  25258710.747      -78242.871       -1735.585           0.232  
G10  21759848.797      -79832.198       -1901.494           0.255  
> 2023 05 18 00 01 18.1688020  0 10                     
G01  24274904.852      218530.842        2910.439           0.239  
G02  22342118.852      -33077.584        -503.316           0.255  
G03  23636626.060     -136408.159       -2131.157           0.244  
G04  22505861.881      134333.379        2029.309           0.255  
G05  20632228.501      -27305.283        -479.812           0.255  
G06  23417839.277      -71900.798       -1321.416           0.248  
G07  23115799.618      -69106.515       -1403.826           0.251  
G08  21704895.057      105617.832        1959.680           0.255  
G09  25258755.235      -78419.225       -1762.648           0.232  
G10  21759898.123      -80023.726       -1912.705           0.255  
> 2023 05 18 00 01 18.2688020  0 10                     
G01  24274830.975      218821.903        2911.567           0.239  
G02  22342128.559      -33127.952        -512.012           0.255  
G03  23636681.464     -136621.308       -2131.560           0.244  
G04  22505809.872      134536.314        2028.558           0.255  
G05  20632243.336      -27353.303        -480.225           0.255  
G06  23417873.761      -72032.942       -1321.710           0.248  
G07  23115834.992      -69250.577       -1438.251           0.251  
G08  21704844.382      105813.786        1959.432           0.255  
G09  25258799.897      -78595.506       -1762.652           0.232  
G10  21759947.005      -80214.991       -1912.777           0.255  
> 2023 05 18 00 01 18.3688020  0 10                     
G01  24274757.097      219113.251        2976.833           0.239  
G02  22342143.934      -33177.870        -413.885           0.255  
G03  23636735.104     -136834.458       -2131.333           0.244  
G04  22505757.930      134740.009        2081.420           0.255  
G05  20632254.684      -27401.319        -480.241           0.255  
G06  23417907.701      -72165.087       -1317.019           0.248  
G07  23115872.612      -69394.157       -1443.062           0.251  
G08  21704794.677      106009.742        1959.326           0.255  
G09  25258845.157      -78771.785       -1762.739           0.232  
G10  21759995.639      -80406.265       -1912.590           0.255  
> 2023 05 18 00 01 18.4688020  0 10                     
G01  24274682.565      219404.013        2910.871           0.239  
G02  22342157.056      -33228.429        -501.466           0.255  
G03  23636789.709     -137047.607       -2131.592           0.244  
G04  22505705.624      134942.180        2027.552           0.255  
G05  20632266.180      -27449.352        -480.972           0.255  
G06  23417941.387      -72297.256       -1321.321           0.248  
G07  23115909.603      -69538.016       -1437.354           0.252  
G08  21704745.114      106205.694        1959.087           0.255  
G09  25258890.849      -78948.061       -1763.180           0.232  
G10  21760044.601      -80597.638       -1937.486           0.255  
> 2023 05 18 00 01 18.5688020  0 10                     
G01  24274608.941      219695.069        2910.017           0.239  
G02  22342169.530      -33278.710        -517.730           0.255  
G03  23636844.179     -137260.752       -2131.642           0.244  
G04  22505654.146      135145.113        2027.466           0.255  
G05  20632278.501      -27497.381        -480.638           0.255  
G06  23417974.987      -72429.409       -1321.700           0.248  
G07  23115946.737      -69681.741       -1436.339           0.251  
G08  21704695.069      106401.645        1960.038           0.255  
G09  25258936.303      -79124.328       -1762.228           0.232  
G10  21760092.906      -80788.813       -1912.804           0.255  
> 2023 05 18 00 01 18.6688020  0 10                     
G01  24274533.434      219986.120        2909.883           0.239  
G02  22342182.591      -33329.011        -502.500           0.255  
G03  23636897.343     -137473.900       -2130.808           0.244  
G04  22505602.554      135348.055        2028.565           0.255  
G05  20632290.646      -27545.412        -480.092           0.255  
G06  23418008.973      -72561.572       -1322.209           0.248  
G07  23115982.561      -69825.376       -1447.002           0.252  
G08  21704645.512      106597.588        1960.231           0.255  
G09  25258980.320      -79300.620       -1762.593           0.232  
G10  21760141.389      -80980.090       -1912.915           0.255  
> 2023 05 18 00 01 18.7688020  0 10                     
G01  24274459.153      220277.191        2909.708           0.239  
G02  22342195.707      -33379.316        -502.683           0.255  
G03  23636952.569     -137687.061       -2131.836           0.244  
G04  22505550.108      135550.982        2029.542           0.255  
G05  20632303.019      -27593.448        -480.733           0.255  
G06  23418042.674      -72693.727       -1321.477           0.248  
G07  23116021.000      -69969.193       -1437.661           0.251  
G08  21704594.961      106793.519        1959.067           0.255  
G09  25259025.456      -79476.900       -1761.745           0.232  
G10  21760190.286      -81171.368       -1912.887           0.255  
> 2023 05 18 00 01 18.8688020  0 10                     
G01  24274383.834      220568.250        2909.413           0.239  
G02  22342208.472      -33429.606        -501.792           0.255  
G03  23637006.878     -137900.211       -2131.815           0.244  
G04  22505498.202      135753.909        2030.096           0.255  
G05  20632315.463      -27641.497        -481.164           0.255  
G06  23418075.777      -72825.891       -1321.389           0.248  
G07  23116055.405      -70112.920       -1437.480           0.251  
G08  21704546.184      106989.450        1959.145           0.255  
G09  25259070.483      -79653.187       -1761.688           0.232  
G10  21760238.772      -81362.644       -1913.403           0.255  
> 2023 05 18 00 01 18.9688020  0 10                     
G01  24274310.967      220859.573        2942.335           0.239  
G02  22342218.754      -33480.303        -563.730           0.255  
G03  23637059.865     -138113.337       -2129.310           0.244  
G04  22505447.236      135956.825        2030.534           0.255  
G05  20632328.250      -27689.541        -480.244           0.255  
G06  23418109.136      -72958.049       -1305.913           0.248  
G07  23116092.882      -70256.644       -1437.491           0.251  
G08  21704495.976      107185.360        1939.357           0.255  
G09  25259115.454      -79829.464       -1762.742           0.232  
G10  21760287.702      -81553.888       -1913.525           0.255  
> 2023 05 18 00 01 19.0688020  0 10                     
G01  24274237.334      221150.356        2911.108           0.239  
G02  22342233.870      -33530.247        -504.450           0.255  
G03  23637115.693     -138326.523       -2132.359           0.244  
G04  22505395.279      136159.742        2031.544           0.255  
G05  20632339.689      -27737.581        -480.049           0.255  
G06  23418142.655      -73090.554       -1350.119           0.248  
G07  23116131.745      -70400.491       -1448.738           0.251  
G08  21704445.513      107381.305        1958.320           0.255  
G09  25259160.064      -80005.739       -1762.729           0.232  
G10  21760336.542      -81745.209       -1912.510           0.255  
> 2023 05 18 00 01 19.1688020  0 10                     
G01  24274164.252      221441.644        2947.384           0.239  
G02  22342244.941      -33580.556        -502.191           0.255  
G03  23637169.255     -138539.677       -2131.933           0.244  
G04  22505343.961      136362.654        2030.682           0.255  
G05  20632354.063      -27785.633        -480.615           0.255  
G06  23418176.309      -73222.404       -1321.722           0.248  
G07  23116165.782      -70544.619       -1546.251           0.251  
G08  21704394.924      107577.233        1958.398           0.255  
G09  25259204.233      -80182.028       -1763.030           0.232  
G10  21760385.227      -81936.301       -1880.417           0.255  
> 2023 05 18 00 01 19.2688020  0 10                     
G01  24274089.474      221732.466        2910.252           0.238  
G02  22342259.551      -33630.865        -502.202           0.255  
G03  23637222.411     -138752.818       -2130.333           0.244  
G04  22505291.955      136565.556        2029.257           0.255  
G05  20632364.140      -27833.692        -480.711           0.255  
G06  23418210.496      -73354.587       -1322.538           0.247  
G07  23116203.415      -70687.825       -1438.707           0.252  
G08  21704345.634      107773.154        1958.478           0.255  
G09  25259249.343      -80358.308       -1762.877           0.232  
G10  21760434.154      -82127.786       -1913.294           0.255  
> 2023 05 18 00 01 19.3688020  0 10                     
G01  24274014.995      222023.526        2909.806           0.239  
G02  22342270.290      -33681.196        -504.039           0.255  
G03  23637277.950     -138965.989       -2131.954           0.244  
G04  22505240.140      136768.472        2029.423           0.255  
G05  20632377.942      -27881.747        -479.895           0.255  
G06  23418243.962      -73486.766       -1322.693           0.248  
G07  23116239.655      -70831.551       -1437.066           0.251  
G08  21704295.478      107969.036        1977.765           0.255  
G09  25259295.017      -80534.587       -1762.645           0.232  
G10  21760483.038      -82319.080       -1913.182           0.255  
> 2023 05 18 00 01 19.4688020  0 10                     
G01  24273940.248      222314.589        2909.595           0.239  
G02  22342284.424      -33731.529        -503.830           0.255  
G03  23637332.563     -139179.150       -2132.307           0.244  
G04  22505188.576      136971.382        2028.919           0.255  
G05  20632389.385      -27929.806        -480.243           0.255  
G06  23418277.591      -73618.938       -1322.202           0.248  
G07  23116276.375      -70975.292       -1438.557           0.251  
G08  21704245.414      108164.989        1961.128           0.255  
G09  25259339.765      -80710.870       -1762.887           0.232  
G10  21760531.489      -82510.366       -1912.704           0.255  
> 2023 05 18 00 01 19.5688020  0 10                     
G01  24273865.746      222605.655        2910.463           0.239  
G02  22342296.879      -33781.860        -502.238           0.255  
G03  23637387.666     -139392.307       -2131.954           0.244  
G04  22505137.001      137174.286        2028.483           0.255  
G05  20632401.247      -27977.871        -481.050           0.255  
G06  23418311.308      -73751.121       -1321.309           0.248  
G07  23116313.637      -71119.017       -1437.706           0.252  
G08  21704195.993      108360.900        1960.094           0.255  
G09  25259384.258      -80887.156       -1762.491           0.232  
G10  21760580.067      -82701.663       -1913.332           0.255  
> 2023 05 18 00 01 19.6688020  0 10                     
G01  24273791.369      222896.715        2911.344           0.239  
G02  22342309.973      -33832.190        -502.679           0.255  
G03  23637441.235     -139605.466       -2131.796           0.244  
G04  22505085.439      137377.187        2027.702           0.255  
G05  20632413.480      -28025.937        -480.773           0.255  
G06  23418345.255      -73883.305       -1320.970           0.248  
G07  23116349.474      -71262.757       -1437.017           0.251  
G08  21704146.037      108556.804        1959.212           0.255  
G09  25259429.694      -81063.440       -1762.643           0.232  
G10  21760629.305      -82892.956       -1913.021           0.255  
> 2023 05 18 00 01 19.7688020  0 10                     
G01  24273718.135      223187.520        2886.864           0.239  
G02  22342323.969      -33882.563        -501.646           0.255  
G03  23637495.327     -139818.624       -2130.965           0.244  
G04  22505033.944      137580.095        2027.470           0.255  
G05  20632425.330      -28074.009        -480.331           0.255  
G06  23418378.998      -74015.715       -1357.821           0.248  
G07  23116385.356      -71406.485       -1438.547           0.251  
G08  21704095.846      108752.706        1958.957           0.255  
G09  25259475.061      -81239.726       -1763.350           0.232  
G10  21760677.842      -83084.247       -1912.541           0.255  
> 2023 05 18 00 01 19.8688020  0 10                     
G01  24273645.232      223478.827        2911.530           0.239  
G02  22342337.258      -33932.888        -503.642           0.255  
G03  23637550.395     -140031.781       -2131.101           0.244  
G04  22504981.624      137783.001        2028.400           0.255  
G05  20632437.511      -28122.092        -480.972           0.255  
G06  23418411.911      -74147.703       -1322.323           0.248  
G07  23116422.422      -71550.205       -1436.599           0.251  
G08  21704045.684      108948.609        1958.908           0.255  
G09  25259520.235      -81416.013       -1763.073           0.232  
G10  21760726.414      -83275.543       -1912.758           0.255  
> 2023 05 18 00 01 19.9688020  0 10                     
G01  24273569.606      223769.878        2910.249           0.239  
G02  22342350.938      -33983.238        -503.213           0.255  
G03  23637604.863     -140244.952       -2130.706           0.244  
G04  22504929.818      137985.306        1963.531           0.255  
G05  20632448.848      -28170.170        -481.160           0.255  
G06  23418446.277      -74279.788       -1302.718           0.248  
G07  23116458.977      -71693.939       -1437.309           0.251  
G08  21703996.143      109144.503        1958.485           0.255  
G09  25259564.519      -81592.302       -1762.923           0.232  
G10  21760775.380      -83466.847       -1912.948           0.255  
> 2023 05 18 00 01 20.0688020  0 10                     
G01  24273493.927      224060.942        2910.089           0.239  
G02  22342361.571      -34033.592        -504.566           0.255  
G03  23637658.268     -140458.116       -2131.185           0.244  
G04  22504878.717      138188.803        2030.266           0.255  
G05  20632461.080      -28218.255        -480.741           0.255  
G06  23418479.323      -74412.099       -1322.421           0.248  
G07  23116497.201      -71837.413       -1390.603           0.251  
G08  21703946.740      109340.386        1958.155           0.255  
G09  25259609.694      -81768.586       -1763.026           0.232  
G10  21760824.304      -83658.149       -1912.859           0.255  
> 2023 05 18 00 01 20.1688020  0 10                     
G01  24273420.757      224352.008        2910.927           0.239  
G02  22342374.142      -34083.969        -505.353           0.255  
G03  23637712.849     -140671.280       -2131.428           0.244  
G04  22504826.957      138391.691        2030.135           0.255  
G05  20632474.673      -28266.326        -479.831           0.255  
G06  23418513.491      -74544.298       -1322.033           0.248  
G07  23116533.203      -71981.406       -1437.460           0.251  
G08  21703896.130      109536.274        1958.189           0.255  
G09  25259655.609      -81944.871       -1763.047           0.232  
G10  21760873.029      -83849.451       -1912.792           0.255  
> 2023 05 18 00 01 20.2688020  0 10                     
G01  24273348.296      224643.072        2912.578           0.239  
G02  22342389.849      -34134.610        -485.676           0.255  
G03  23637767.445     -140884.454       -2133.451           0.244  
G04  22504775.053      138594.578        2029.868           0.255  
G05  20632485.978      -28314.418        -480.790           0.255  
G06  23418546.955      -74676.507       -1321.624           0.248  
G07  23116568.981      -72125.144       -1437.506           0.251  
G08  21703846.099      109732.169        1958.606           0.255  
G09  25259699.562      -82121.162       -1762.802           0.232  
G10  21760921.660      -84040.756       -1912.366           0.255  
> 2023 05 18 00 01 20.3688020  0 10                     
G01  24273275.384      224934.098        2910.135           0.239  
G02  22342402.347      -34184.686        -502.156           0.255  
G03  23637821.304     -141097.602       -2130.551           0.244  
G04  22504722.662      138797.464        2029.448           0.255  
G05  20632497.064      -28362.519        -481.406           0.255  
G06  23418581.234      -74808.714       -1321.594           0.248  
G07  23116606.836      -72268.880       -1437.161           0.251  
G08  21703795.922      109928.050        1959.207           0.255  
G09  25259744.758      -82297.449       -1763.045           0.232  
G10  21760970.459      -84232.070       -1912.612           0.255  
> 2023 05 18 00 01 20.4688020  0 10                     
G01  24273197.866      225225.085        2846.813           0.239  
G02  22342414.390      -34234.899        -496.608           0.255  
G03  23637875.030     -141310.784       -2131.603           0.244  
G04  22504671.517      139000.571        1994.263           0.255  
G05  20632510.326      -28410.613        -480.618           0.255  
G06  23418616.063      -74940.937       -1322.364           0.248  
G07  23116641.615      -72412.800       -1449.438           0.252  
G08  21703747.281      110123.931        1959.805           0.255  
G09  25259788.122      -82473.408       -1721.134           0.232  
G10  21761019.249      -84423.414       -1917.662           0.255  
> 2023 05 18 00 01 20.5688020  0 10                     
G01  24273123.307      225516.227        2910.173           0.239  
G02  22342427.402      -34285.454        -504.069           0.255  
G03  23637931.029     -141523.959       -2131.999           0.244  
G04  22504619.740      139203.236        2027.434           0.255  
G05  20632523.087      -28458.707        -480.627           0.255  
G06  23418649.526      -75073.150       -1322.098           0.248  
G07  23116678.317      -72556.354       -1437.151           0.251  
G08  21703696.573      110319.803        1959.012           0.255  
G09  25259832.995      -82650.021       -1763.087           0.232  
G10  21761067.910      -84614.695       -1913.164           0.255  
> 2023 05 18 00 01 20.6688020  0 10                     
G01  24273049.472      225807.270        2910.227           0.239  
G02  22342441.864      -34335.451        -492.813           0.255  
G03  23637985.638     -141737.113       -2145.055           0.244  
G04  22504568.215      139406.105        2027.246           0.255  
G05  20632534.308      -28506.815        -481.250           0.255  
G06  23418683.207      -75205.298       -1316.247           0.248  
G07  23116715.447      -72700.086       -1436.902           0.252  
G08  21703647.084      110515.679        1958.830           0.255  
G09  25259878.276      -82826.102       -1730.441           0.232  
G10  21761116.421      -84806.008       -1913.173           0.255  
> 2023 05 18 00 01 20.7688020  0 10                     
G01  24272976.830      226098.327        2911.321           0.239  
G02  22342452.557      -34386.217        -503.873           0.255  
G03  23638039.217     -141950.296       -2131.785           0.244  
G04  22504516.474      139608.996        2028.736           0.255  
G05  20632547.514      -28554.926        -481.078           0.255  
G06  23418716.066      -75337.578       -1322.073           0.248  
G07  23116751.877      -72843.832       -1437.526           0.252  
G08  21703597.085      110711.544        1958.421           0.255  
G09  25259924.088      -83002.597       -1763.123           0.232  
G10  21761165.343      -84997.321       -1912.672           0.255  
> 2023 05 18 00 01 20.8688020  0 10                     
G01  24272903.315      226389.381        2910.638           0.239  
G02  22342464.671      -34436.642        -495.602           0.255  
G03  23638094.110     -142163.475       -2132.505           0.244  
G04  22504464.430      139811.879        2029.634           0.255  
G05  20632560.057      -28603.034        -481.207           0.255  
G06  23418749.808      -75469.794       -1320.996           0.248  
G07  23116789.236      -72987.564       -1437.083           0.252  
G08  21703546.776      110907.389        1957.989           0.255  
G09  25259968.584      -83178.893       -1763.490           0.232  
G10  21761214.218      -85188.649       -1913.149           0.255  
> 2023 05 18 00 01 20.9688020  0 10                     
G01  24272828.516      226680.430        2909.804           0.239  
G02  22342477.486      -34487.011        -503.777           0.255  
G03  23638147.913     -142376.644       -2131.725           0.244  
G04  22504412.887      140014.759        2030.331           0.255  
G05  20632572.513      -28651.147        -481.431           0.255  
G06  23418783.732      -75602.030       -1322.394           0.248  
G07  23116825.338      -73131.307       -1437.133           0.251  
G08  21703496.240      111103.255        1958.307           0.255  
G09  25260014.001      -83355.178       -1762.784           0.232  
G10  21761262.760      -85379.974       -1913.520           0.255  
> 2023 05 18 00 01 21.0688020  0 10                     
G01  24272752.547      226971.491        2911.318           0.240  
G02  22342490.884      -34537.357        -509.907           0.255  
G03  23638202.503     -142589.819       -2131.347           0.244  
G04  22504360.753      140217.625        2029.850           0.255  
G05  20632583.819      -28699.259        -481.295           0.255  
G06  23418817.778      -75734.262       -1322.740           0.248  
G07  23116863.189      -73275.048       -1437.474           0.252  
G08  21703447.440      111299.111        1958.259           0.255  
G09  25260058.357      -83531.471       -1763.040           0.232  
G10  21761311.662      -85571.292       -1913.567           0.255  
> 2023 05 18 00 01 21.1688020  0 10                     
G01  24272677.709      227262.544        2911.235           0.239  
G02  22342502.878      -34587.825        -504.677           0.255  
G03  23638256.672     -142803.001       -2131.770           0.244  
G04  22504309.268      140420.483        2028.646           0.255  
G05  20632596.492      -28747.379        -480.937           0.255  
G06  23418850.632      -75866.486       -1322.752           0.248  
G07  23116899.604      -73418.801       -1438.254           0.251  
G08  21703397.215      111494.974        1959.984           0.255  
G09  25260103.705      -83707.776       -1762.583           0.232  
G10  21761360.416      -85762.617       -1913.110           0.255  
> 2023 05 18 00 01 21.2688020  0 10                     
G01  24272605.150      227553.594        2912.255           0.239  
G02  22342516.105      -34638.249        -504.890           0.255  
G03  23638310.535     -143016.181       -2132.643           0.244  
G04  22504258.035      140623.350        2028.173           0.255  
G05  20632609.619      -28795.492        -480.783           0.255  
G06  23418883.716      -75998.718       -1322.124           0.248  
G07  23116935.468      -73562.782       -1478.278           0.252  
G08  21703347.178      111690.818        1958.717           0.255  
G09  25260148.474      -83884.063       -1762.677           0.232  
G10  21761409.029      -85953.942       -1912.380           0.255  
> 2023 05 18 00 01 21.3688020  0 10                     
G01  24272531.204      227844.653        2911.259           0.239  
G02  22342530.385      -34688.644        -502.166           0.255  
G03  23638365.125     -143229.355       -2131.772           0.244  
G04  22504206.275      140826.221        2027.149           0.255  
G05  20632621.168      -28843.626        -481.993           0.255  
G06  23418917.614      -76130.959       -1322.302           0.248  
G07  23116971.963      -73706.282       -1437.609           0.252  
G08  21703297.291      111886.665        1957.976           0.255  
G09  25260193.064      -84060.355       -1763.211           0.232  
G10  21761457.835      -86145.269       -1912.653           0.255  
> 2023 05 18 00 01 21.4688020  0 10                     
G01  24272457.171      228135.322        2793.070           0.239  
G02  22342541.560      -34739.061        -503.928           0.255  
G03  23638419.894     -143442.536       -2132.276           0.244  
G04  22504154.692      141029.885        2139.634           0.255  
G05  20632633.407      -28891.764        -481.536           0.255  
G06  23418951.080      -76263.204       -1322.210           0.248  
G07  23117008.529      -73850.109       -1445.051           0.251  
G08  21703247.426      112082.509        1958.231           0.255  
G09  25260238.295      -84236.593       -1753.295           0.232  
G10  21761506.378      -86336.600       -1913.350           0.255  
> 2023 05 18 00 01 21.5688020  0 10                     
G01  24272383.456      228426.772        2911.771           0.239  
G02  22342555.685      -34789.896        -554.898           0.255  
G03  23638473.443     -143655.720       -2132.398           0.244  
G04  22504102.701      141231.966        2029.427           0.255  
G05  20632645.755      -28939.889        -480.538           0.255  
G06  23418984.956      -76395.446       -1323.048           0.248  
G07  23117045.691      -73994.091       -1492.763           0.252  
G08  21703198.163      112278.332        1956.756           0.255  
G09  25260283.323      -84413.070       -1780.939           0.232  
G10  21761555.219      -86527.934       -1913.657           0.255  
> 2023 05 18 00 01 21.6688020  0 10                     
G01  24272309.128      228717.810        2912.396           0.239  
G02  22342568.198      -34839.924        -504.460           0.255  
G03  23638528.000     -143868.900       -2131.448           0.244  
G04  22504050.904      141434.828        2029.711           0.255  
G05  20632658.826      -28988.027        -481.173           0.255  
G06  23419019.088      -76527.690       -1322.782           0.248  
G07  23117081.254      -74137.516       -1437.763           0.251  
G08  21703147.670      112474.170        1957.671           0.255  
G09  25260328.052      -84589.238       -1762.863           0.232  
G10  21761603.814      -86719.267       -1913.187           0.255  
> 2023 05 18 00 01 21.7688020  0 10                     
G01  24272234.975      229008.869        2913.809           0.239  
G02  22342581.472      -34890.349        -503.881           0.255  
G03  23638582.775     -144082.079       -2131.635           0.244  
G04  22503999.668      141637.678        2029.022           0.255  
G05  20632670.114      -29036.172        -481.864           0.255  
G06  23419052.657      -76659.937       -1321.855           0.248  
G07  23117118.094      -74281.281       -1474.144           0.252  
G08  21703097.594      112669.997        1958.038           0.255  
G09  25260373.204      -84765.530       -1763.501           0.232  
G10  21761652.535      -86910.598       -1913.186           0.255  
> 2023 05 18 00 01 21.8688020  0 10                     
G01  24272161.264      229299.900        2909.413           0.239  
G02  22342592.335      -34940.722        -520.694           0.255  
G03  23638636.682     -144295.264       -2131.627           0.244  
G04  22503947.960      141840.528        2028.816           0.255  
G05  20632683.235      -29084.315        -481.092           0.255  
G06  23419086.319      -76792.192       -1322.198           0.248  
G07  23117154.694      -74425.221       -1434.889           0.252  
G08  21703047.784      112865.828        1958.748           0.255  
G09  25260417.913      -84941.823       -1763.344           0.232  
G10  21761701.427      -87101.936       -1913.360           0.255  
> 2023 05 18 00 01 21.9688020  0 10                     
G01  24272086.684      229590.958        2909.716           0.239  
G02  22342606.074      -34991.239        -504.583           0.255  
G03  23638690.949     -144508.446       -2131.721           0.244  
G04  22503896.472      142043.382        2027.907           0.255  
G05  20632695.352      -29132.453        -480.882           0.255  
G06  23419119.881      -76924.457       -1323.230           0.248  
G07  23117191.579      -74568.754       -1437.348           0.251  
G08  21702997.622      113061.660        1958.055           0.255  
G09  25260462.937      -85118.119       -1763.086           0.232  
G10  21761750.417      -87293.278       -1913.525           0.255  
> 2023 05 18 00 01 22.0688020  0 10                     
G01  24272011.962      229882.038        2913.284           0.239  
G02  22342619.349      -35041.680        -504.625           0.255  
G03  23638745.632     -144721.628       -2132.061           0.244  
G04  22503844.330      142246.233        2027.135           0.255  
G05  20632707.313      -29180.610        -481.779           0.255  
G06  23419153.477      -77056.711       -1322.889           0.248  
G07  23117228.413      -74712.496       -1437.022           0.252  
G08  21702948.060      113257.478        1957.881           0.255  
G09  25260507.489      -85294.422       -1763.332           0.232  
G10  21761799.207      -87484.615       -1913.298           0.255  
> 2023 05 18 00 01 22.1688020  0 10                     
G01  24271937.870      230173.076        2912.723           0.239  
G02  22342631.707      -35092.134        -504.614           0.255  
G03  23638799.249     -144934.427       -2080.785           0.244  
G04  22503792.648      142448.861        2055.052           0.255  
G05  20632719.774      -29228.759        -481.189           0.255  
G06  23419187.548      -77188.727       -1275.846           0.248  
G07  23117264.932      -74856.256       -1438.519           0.251  
G08  21702898.068      113453.237        1940.054           0.255  
G09  25260552.248      -85470.721       -1763.092           0.232  
G10  21761847.946      -87676.049       -1920.018           0.255  
> 2023 05 18 00 01 22.2688020  0 10                     
G01  24271859.672      230464.125        2911.717           0.238  
G02  22342644.655      -35142.737        -499.891           0.255  
G03  23638854.894     -145148.014       -2133.129           0.244  
G04  22503741.233      142652.063        2094.609           0.255  
G05  20632732.457      -29276.918        -481.851           0.255  
G06  23419220.879      -77321.156       -1332.390           0.248  
G07  23117300.504      -74999.957       -1430.690           0.252  
G08  21702848.912      113649.117        1958.391           0.255  
G09  25260596.392      -85646.155       -1647.479           0.232  
G10  21761896.504      -87867.301       -1895.357           0.255  
> 2023 05 18 00 01 22.3688020  0 10                     
G01  24271788.021      230755.155        2908.612           0.238  
G02  22342658.793      -35193.046        -503.774           0.255  
G03  23638907.551     -145361.197       -2131.955           0.244  
G04  22503689.111      142854.787        2029.298           0.255  
G05  20632744.102      -29325.079        -481.578           0.255  
G06  23419254.819      -77453.504       -1322.538           0.248  
G07  23117337.922      -75143.754       -1437.708           0.251  
G08  21702798.947      113844.936        1960.307           0.255  
G09  25260641.929      -85823.311       -1763.492           0.232  
G10  21761945.700      -88058.653       -1913.672           0.255  
> 2023 05 18 00 01 22.4688020  0 10                     
G01  24271718.056      231046.236        2910.149           0.239  
G02  22342670.306      -35243.501        -504.345           0.255  
G03  23638962.470     -145574.388       -2131.988           0.244  
G04  22503637.126      143057.628        2029.830           0.255  
G05  20632755.978      -29373.251        -481.993           0.255  
G06  23419288.559      -77585.783       -1322.574           0.248  
G07  23117374.971      -75287.503       -1437.898           0.251  
G08  21702747.782      114040.734        1958.504           0.255  
G09  25260687.375      -85999.615       -1763.145           0.232  
G10  21761994.613      -88249.875       -1889.765           0.255  
> 2023 05 18 00 01 22.5688020  0 10                     
G01  24271642.105      231337.279        2909.687           0.239  
G02  22342681.711      -35294.181        -552.543           0.255  
G03  23639016.796     -145787.573       -2131.132           0.244  
G04  22503586.257      143260.450        2028.702           0.255  
G05  20632769.114      -29421.409        -481.138           0.255  
G06  23419322.671      -77718.088       -1318.267           0.248  
G07  23117410.888      -75431.291       -1492.859           0.251  
G08  21702698.408      114236.535        1957.962           0.255  
G09  25260732.277      -86175.915       -1762.929           0.232  
G10  21762043.230      -88441.327       -1901.014           0.255  
> 2023 05 18 00 01 22.6688020  0 10                     
G01  24271565.354      231628.336        2911.036           0.239  
G02  22342698.230      -35344.464        -503.875           0.255  
G03  23639071.176     -146000.757       -2130.935           0.244  
G04  22503534.174      143463.280        2026.554           0.255  
G05  20632779.742      -29469.583        -482.251           0.255  
G06  23419355.811      -77850.332       -1322.848           0.248  
G07  23117450.425      -75574.986       -1437.088           0.251  
G08  21702649.427      114432.330        1957.426           0.255  
G09  25260777.154      -86352.221       -1763.039           0.232  
G10  21762091.711      -88632.701       -1913.503           0.255  
> 2023 05 18 00 01 22.7688020  0 10                     
G01  24271493.694      231919.387        2910.603           0.239  
G02  22342709.980      -35394.934        -503.950           0.255  
G03  23639124.805     -146213.960       -2132.118           0.244  
G04  22503482.172      143666.122        2025.681           0.255  
G05  20632793.093      -29517.760        -482.032           0.255  
G06  23419390.052      -77982.613       -1323.384           0.248  
G07  23117483.325      -75718.757       -1438.005           0.252  
G08  21702598.970      114628.133        1958.751           0.255  
G09  25260822.370      -86528.522       -1763.141           0.232  
G10  21762140.335      -88824.060       -1913.302           0.255  
> 2023 05 18 00 01 22.8688020  0 10                     
G01  24271420.079      232210.139        2926.733           0.240  
G02  22342719.929      -35445.962        -542.177           0.255  
G03  23639179.415     -146427.169       -2131.777           0.244  
G04  22503429.671      143868.539        2005.728           0.255  
G05  20632806.453      -29565.932        -481.748           0.255  
G06  23419423.217      -78114.936       -1339.958           0.248  
G07  23117521.954      -75862.538       -1407.087           0.251  
G08  21702548.099      114824.480        2050.308           0.255  
G09  25260867.954      -86704.853       -1746.143           0.232  
G10  21762190.077      -89015.536       -1925.509           0.255  
> 2023 05 18 00 01 22.9688020  0 10                     
G01  24271343.425      232501.477        2910.346           0.238  
G02  22342734.821      -35495.916        -504.835           0.255  
G03  23639233.764     -146640.360       -2131.270           0.244  
G04  22503378.266      144071.811        2029.860           0.255  
G05  20632817.822      -29614.108        -481.756           0.255  
G06  23419457.275      -78247.171       -1322.797           0.248  
G07  23117559.701      -76006.271       -1436.876           0.251  
G08  21702499.724      115019.707        1957.512           0.255  
G09  25260913.950      -86881.123       -1763.529           0.232  
G10  21762238.296      -89206.785       -1913.683           0.255  
> 2023 05 18 00 01 23.0688020  0 10                     
G01  24271267.687      232792.537        2911.304           0.239  
G02  22342747.270      -35546.236        -490.192           0.255  
G03  23639288.370     -146853.565       -2132.453           0.244  
G04  22503327.023      144274.635        2029.349           0.255  
G05  20632830.002      -29662.303        -481.933           0.255  
G06  23419490.513      -78379.468       -1323.371           0.248  
G07  23117593.869      -76150.096       -1455.564           0.252  
G08  21702449.832      115215.498        1957.171           0.255  
G09  25260960.583      -87057.405       -1763.140           0.232  
G10  21762286.947      -89398.153       -1913.750           0.255  
> 2023 05 18 00 01 23.1688020  0 10                     
G01  24271196.959      233083.593        2911.600           0.239  
G02  22342760.007      -35596.894        -504.905           0.255  
G03  23639342.166     -147066.755       -2132.193           0.244  
G04  22503275.768      144477.448        2027.891           0.255  
G05  20632842.580      -29710.492        -481.980           0.255  
G06  23419524.118      -78511.745       -1322.551           0.248  
G07  23117632.218      -76293.783       -1438.017           0.251  
G08  21702398.513      115411.274        1956.881           0.255  
G09  25261003.894      -87233.718       -1763.000           0.232  
G10  21762335.425      -89589.513       -1913.700           0.255  
> 2023 05 18 00 01 23.2688020  0 10                     
G01  24271122.747      233374.637        2911.166           0.239  
G02  22342773.099      -35647.397        -505.145           0.255  
G03  23639396.870     -147279.947       -2131.760           0.244  
G04  22503224.240      144680.277        2026.584           0.255  
G05  20632854.729      -29758.686        -482.087           0.255  
G06  23419558.371      -78644.035       -1322.498           0.248  
G07  23117668.345      -76437.530       -1436.903           0.251  
G08  21702348.922      115607.060        1958.226           0.255  
G09  25261048.319      -87410.021       -1762.414           0.232  
G10  21762384.281      -89780.874       -1913.909           0.255  
> 2023 05 18 00 01 23.3688020  0 10                     
G01  24271046.226      233665.684        2909.106           0.239  
G02  22342785.795      -35697.901        -504.785           0.255  
G03  23639450.928     -147493.154       -2132.300           0.244  
G04  22503172.499      144883.103        2026.669           0.255  
G05  20632866.439      -29806.879        -481.999           0.255  
G06  23419592.429      -78776.328       -1321.984           0.248  
G07  23117706.804      -76581.288       -1437.514           0.252  
G08  21702300.233      115802.839        1958.836           0.255  
G09  25261092.700      -87586.339       -1764.012           0.232  
G10  21762433.350      -89972.188       -1902.636           0.255  
> 2023 05 18 00 01 23.4688020  0 10                     
G01  24270973.451      233956.741        2909.461           0.239  
G02  22342798.598      -35748.418        -505.008           0.255  
G03  23639506.382     -147706.353       -2132.387           0.244  
G04  22503120.586      145085.937        2028.910           0.255  
G05  20632879.120      -29855.076        -482.126           0.255  
G06  23419625.949      -78908.637       -1323.230           0.248  
G07  23117741.915      -76725.051       -1437.336           0.251  
G08  21702249.330      115998.597        1958.156           0.255  
G09  25261136.619      -87762.637       -1763.137           0.232  
G10  21762481.963      -90163.610       -1913.926           0.255  
> 2023 05 18 00 01 23.5688020  0 10                     
G01  24270901.167      234247.790        2910.442           0.240  
G02  22342812.271      -35798.939        -505.855           0.255  
G03  23639559.355     -147919.557       -2132.064           0.244  
G04  22503069.009      145288.753        2029.828           0.255  
G05  20632891.715      -29903.272        -481.657           0.255  
G06  23419659.659      -79040.936       -1322.774           0.248  
G07  23117777.948      -76868.813       -1437.535           0.252  
G08  21702199.412      116194.360        1957.334           0.255  
G09  25261180.754      -87938.945       -1763.220           0.232  
G10  21762530.553      -90354.979       -1914.020           0.255  
> 2023 05 18 00 01 23.6688020  0 10                     
G01  24270825.504      234538.836        2910.887           0.239  
G02  22342826.848      -35849.455        -504.363           0.255  
G03  23639615.510     -148132.763       -2133.164           0.244  
G04  22503016.994      145491.561        2028.930           0.255  
G05  20632903.843      -29951.480        -482.385           0.255  
G06  23419693.052      -79173.245       -1323.349           0.248  
G07  23117813.189      -77012.582       -1437.496           0.251  
G08  21702150.193      116390.130        1957.600           0.255  
G09  25261224.905      -88115.508       -1786.919           0.232  
G10  21762579.373      -90546.341       -1913.183           0.255  
> 2023 05 18 00 01 23.7688020  0 10                     
G01  24270751.399      234829.878        2910.000           0.239  
G02  22342837.845      -35899.960        -504.500           0.255  
G03  23639669.131     -148345.958       -2132.475           0.244  
G04  22502965.442      145694.364        2027.461           0.255  
G05  20632915.744      -29999.695        -482.522           0.255  
G06  23419726.920      -79305.549       -1322.474           0.248  
G07  23117850.542      -77156.337       -1437.470           0.251  
G08  21702099.774      116585.894        1958.248           0.255  
G09  25261270.353      -88291.553       -1763.432           0.232  
G10  21762628.257      -90737.721       -1913.537           0.255  
> 2023 05 18 00 01 23.8688020  0 10                     
G01  24270677.408      235120.945        2932.481           0.239  
G02  22342850.206      -35950.508        -506.123           0.255  
G03  23639723.482     -148559.169       -2132.527           0.244  
G04  22502913.937      145897.684        2041.217           0.255  
G05  20632929.008      -30047.898        -481.738           0.255  
G06  23419760.802      -79437.859       -1322.953           0.248  
G07  23117887.753      -77300.208       -1460.323           0.252  
G08  21702049.986      116781.651        1957.637           0.255  
G09  25261315.885      -88467.858       -1763.836           0.232  
G10  21762676.692      -90928.863       -1877.910           0.255  
> 2023 05 18 00 01 23.9688020  0 10                     
G01  24270603.013      235411.995        2911.414           0.239  
G02  22342863.556      -36001.041        -505.539           0.255  
G03  23639777.510     -148772.373       -2131.946           0.244  
G04  22502862.127      146100.000        2028.554           0.255  
G05  20632941.137      -30096.116        -481.975           0.255  
G06  23419794.175      -79570.177       -1323.097           0.248  
G07  23117924.180      -77443.864       -1437.748           0.251  
G08  21702000.129      116977.398        1957.131           0.255  
G09  25261360.870      -88644.158       -1762.775           0.232  
G10  21762725.729      -91120.472       -1913.489           0.255  
> 2023 05 18 00 01 24.0688020  0 10                     
G01  24270527.963      235703.042        2911.228           0.239  
G02  22342875.695      -36051.573        -505.039           0.255  
G03  23639831.270     -148985.588       -2132.836           0.244  
G04  22502810.499      146302.807        2029.191           0.255  
G05  20632953.324      -30144.335        -482.099           0.255  
G06  23419828.071      -79702.488       -1323.025           0.248  
G07  23117960.878      -77587.545       -1451.395           0.251  
G08  21701950.651      117173.155        1957.390           0.255  
G09  25261405.996      -88820.462       -1762.605           0.232  
G10  21762774.830      -91311.854       -1913.276           0.255  
> 2023 05 18 00 01 24.1688020  0 10                     
G01  24270453.759      235994.090        2909.227           0.239  
G02  22342889.420      -36102.116        -506.244           0.255  
G03  23639885.450     -149198.785       -2131.356           0.244  
G04  22502758.960      146505.897        2025.477           0.255  
G05  20632965.238      -30192.562        -481.797           0.255  
G06  23419861.855      -79834.809       -1322.839           0.248  
G07  23117998.080      -77731.391       -1438.204           0.251  
G08  21701901.050      117368.904        1958.284           0.255  
G09  25261450.161      -88996.765       -1762.705           0.232  
G10  21762823.258      -91503.040       -1897.821           0.255  
> 2023 05 18 00 01 24.2688020  0 10                     
G01  24270379.537      236285.166        2909.033           0.239  
G02  22342904.053      -36152.660        -504.856           0.255  
G03  23639939.945     -149411.991       -2131.991           0.244  
G04  22502707.364      146708.400        2028.114           0.255  
G05  20632976.867      -30240.784        -482.355           0.255  
G06  23419895.422      -79967.125       -1322.906           0.248  
G07  23118034.144      -77875.161       -1438.918           0.252  
G08  21701850.520      117564.642        1956.861           0.255  
G09  25261497.405      -89173.076       -1762.391           0.232  
G10  21762872.094      -91694.613       -1913.671           0.255  
> 2023 05 18 00 01 24.3688020  0 10                     
G01  24270305.902      236576.220        2911.303           0.239  
G02  22342915.571      -36203.212        -505.305           0.255  
G03  23639994.796     -149625.210       -2132.308           0.244  
G04  22502655.645      146911.200        2026.272           0.255  
G05  20632989.257      -30289.015        -482.110           0.255  
G06  23419929.213      -80099.457       -1323.677           0.248  
G07  23118071.321      -78018.914       -1438.036           0.252  
G08  21701800.206      117760.369        1956.183           0.255  
G09  25261540.912      -89349.383       -1763.021           0.232  
G10  21762921.089      -91886.006       -1913.337           0.255  
> 2023 05 18 00 01 24.4688020  0 10                     
G01  24270231.878      236867.259        2910.866           0.239  
G02  22342927.122      -36253.769        -505.611           0.255  
G03  23640049.250     -149838.421       -2132.055           0.244  
G04  22502603.915      147114.014        2027.788           0.255  
G05  20633002.494      -30337.244        -482.341           0.255  
G06  23419962.970      -80231.785       -1323.165           0.248  
G07  23118107.792      -78162.682       -1437.574           0.251  
G08  21701750.430      117956.110        1956.979           0.255  
G09  25261585.914      -89525.700       -1762.898           0.232  
G10  21762969.724      -92077.391       -1913.512           0.255  
