     3.03           OBSERVATION DATA    M: Mixed            RINEX VERSION / TYPE
GNSS-SDRLIB v1.1                        20230628 091421 UTC PGM / RUN BY / DATE 
                                                            MARKER NAME         
                                                            MARKER NUMBER       
                                                            MARKER TYPE         
                                                            OBSERVER / AGENCY   
GNSS-SDRLIB         GNSS-SDRLIB         1.1                 REC # / TYPE / VERS 
                                                            ANT # / TYPE        
        0.0000        0.0000        0.0000                  APPROX POSITION XYZ 
        0.0000        0.0000        0.0000                  ANTENNA: DELTA H/E/N
G    4 C5A L5A D5A S5A                                      SYS / # / OBS TYPES 
R    4 C5A L5A D5A S5A                                      SYS / # / OBS TYPES 
E    4 C5A L5A D5A S5A                                      SYS / # / OBS TYPES 
J    4 C5A L5A D5A S5A                                      SYS / # / OBS TYPES 
S    4 C5A L5A D5A S5A                                      SYS / # / OBS TYPES 
C    4 C5A L5A D5A S5A                                      SYS / # / OBS TYPES 
I    4 C5A L5A D5A S5A                                      SYS / # / OBS TYPES 
  1970    01    01    00    00   00.0000000     GPS         TIME OF FIRST OBS   
  1970    01    01    00    00   00.0000000     GPS         TIME OF LAST OBS    
G L5A  0.00000                                              SYS / PHASE SHIFT   
R L5A  0.00000                                              SYS / PHASE SHIFT   
E L5A  0.00000                                              SYS / PHASE SHIFT   
J L5A  0.00000                                              SYS / PHASE SHIFT   
S L5A  0.00000                                              SYS / PHASE SHIFT   
C L5A  0.00000                                              SYS / PHASE SHIFT   
I L5A                                                       SYS / PHASE SHIFT   
  0                                                         GLONASS SLOT / FRQ #
 C1C    0.000 C1P    0.000 C2C    0.000 C2P    0.000        GLONASS COD/PHS/BIS 
                                                            END OF HEADER       
> 2019 05 08 04 25 48.0688020  0  1                     
I02  20626316.469         230.070           5.259           0.255  
> 2019 05 08 04 25 48.0688020  0  2                     
I02  20626316.469         230.070           5.259           0.255  
I06  22057445.448        1564.917          37.156           0.255  
> 2019 05 08 04 25 48.0688020  0  3                     
I02  20626316.469         230.070           5.259           0.255  
I05  23461218.439        9315.292         217.103           0.255  
I06  22057445.448        1564.917          37.156           0.255  
> 2019 05 08 04 25 48.0688020  0  4                     
I02  20905947.884         230.063           4.899           0.255  
I03  20626543.545        -834.590         -20.625           0.255  
I05  23740849.854        9315.085         216.553           0.255  
I06  22337076.863        1564.881          36.780           0.255  
> 2019 05 08 04 25 48.0688020  0  5                     
I02  20905947.884         230.063           4.899           0.255  
I03  20626543.545        -834.590         -20.625           0.255  
I04  21950133.139        -374.900         -12.098           0.255  
I05  23740849.854        9315.085         216.553           0.255  
I06  22337076.863        1564.881          36.780           0.255  
> 2019 05 08 04 25 48.0688020  0  6                     
I02  20905947.884         230.063           4.899           0.255  
I03  20626543.545        -834.590         -20.625           0.255  
I04  21950133.139        -374.900         -12.098           0.255  
I05  23740849.854        9315.085         216.553           0.255  
I06  22337076.863        1564.881          36.780           0.255  
I07  23673339.249        -629.511         -18.779           0.255  
> 2019 05 08 04 25 48.1188020  0  6                     
I02  20905948.434         230.348           7.373           0.255  
I03  20626540.323        -835.549         -19.328           0.255  
I04  21950122.187        -375.268          -7.245           0.255  
I05  23740847.310        9326.110         223.422           0.255  
I06  22337080.598        1566.748          37.751           0.255  
I07  23673327.781        -630.317         -13.658           0.255  
> 2019 05 08 04 25 48.1688020  0  6                     
I02  20905948.536         230.647           6.194           0.255  
I03  20626540.197        -836.503         -17.441           0.255  
I04  21950128.510        -375.707         -12.397           0.255  
I05  23740842.838        9337.073         219.493           0.255  
I06  22337083.049        1568.624          37.299           0.255  
I07  23673336.466        -631.200         -16.337           0.255  
> 2019 05 08 04 25 48.2188020  0  6                     
I02  20905950.391         230.882           3.939           0.255  
I03  20626541.395        -837.501         -22.814           0.255  
I04  21950132.516        -376.139         -16.165           0.255  
I05  23740839.633        9348.011         215.655           0.255  
I06  22337086.087        1570.482          38.616           0.255  
I07  23673343.088        -632.145         -13.169           0.255  
> 2019 05 08 04 25 48.2688020  0  6                     
I02  20905949.865         231.184           5.139           0.255  
I03  20626537.895        -838.513         -22.968           0.255  
I04  21950121.346        -376.542          -9.514           0.255  
I05  23740836.725        9358.995         217.763           0.255  
I06  22337084.850        1572.331          37.797           0.255  
I07  23673329.634        -633.024         -20.508           0.255  
> 2019 05 08 04 25 48.3188020  0  6                     
I02  20905949.961         231.491           6.620           0.255  
I03  20626543.300        -839.494         -21.009           0.255  
I04  21950126.539        -377.036          -3.568           0.255  
I05  23740835.679        9369.988         219.348           0.255  
I06  22337082.085        1574.191          36.572           0.255  
I07  23673334.584        -633.918         -19.134           0.255  
> 2019 05 08 04 25 48.3688020  0  6                     
I02  20905950.793         231.731           8.893           0.255  
I03  20626542.402        -840.476         -14.447           0.255  
I04  21950131.171        -377.517          -7.729           0.255  
I05  23740833.717        9380.919         223.352           0.255  
I06  22337082.353        1576.020          40.515           0.255  
I07  23673338.821        -634.748          -5.526           0.255  
> 2019 05 08 04 25 48.4188020  0  6                     
I02  20905950.337         231.947           6.694           0.255  
I03  20626543.608        -841.486         -21.106           0.255  
I04  21950120.647        -378.429         -33.891           0.255  
I05  23740829.659        9391.858         219.169           0.255  
I06  22337081.736        1576.677        -285.334           0.255  
I07  23673327.143        -635.767         -13.442           0.255  
> 2019 05 08 04 25 48.4688020  0  6                     
I02  20905950.286         232.187           3.954           0.255  
I03  20626544.486        -842.542         -25.399           0.255  
I04  21950122.658        -378.469         -78.885           0.255  
I05  23740826.457        9402.762         213.819           0.255  
I06  22337080.038        1577.934        -198.144           0.255  
I07  23673328.782        -636.647         -18.291           0.255  
> 2019 05 08 04 25 48.5188020  0  6                     
I02  20905952.719         232.451           2.659           0.255  
I03  20626541.656        -843.557         -22.661           0.255  
I04  21950128.474        -378.954         -10.847           0.255  
I05  23740821.396        9413.726         214.785           0.255  
I06  22337080.101        1581.471          35.260           0.255  
I07  23673335.330        -637.539         -21.883           0.255  
> 2019 05 08 04 25 48.5688020  0  6                     
I02  20905945.192         232.715           6.508           0.255  
I03  20626540.456        -844.492         -17.349           0.255  
I04  21950130.593        -379.310          -6.725           0.255  
I05  23740817.438        9424.727         220.058           0.255  
I06  22337079.833        1583.409          38.316           0.255  
I07  23673341.663        -638.439         -22.866           0.255  
> 2019 05 08 04 25 48.6188020  0  6                     
I02  20905948.681         232.998           7.141           0.255  
I03  20626538.425        -845.464         -19.330           0.255  
I04  21950121.681        -379.722          -3.448           0.255  
I05  23740816.812        9435.716         218.905           0.255  
I06  22337076.314        1585.262          37.849           0.255  
I07  23673330.583        -639.226         -19.401           0.255  
> 2019 05 08 04 25 48.6688020  0  6                     
I02  20905948.657         233.286           8.969           0.255  
I03  20626546.491        -846.464         -18.883           0.255  
I04  21950125.829        -380.220          -5.568           0.255  
I05  23740815.021        9446.682         219.796           0.255  
I06  22337076.198        1587.097          33.557           0.255  
I07  23673335.031        -640.105         -19.195           0.255  
> 2019 05 08 04 25 48.7188020  0  6                     
I02  20905941.174         233.535           4.331           0.255  
I03  20626543.147        -847.461         -18.863           0.255  
I04  21950131.316        -380.660         -10.920           0.255  
I05  23740813.474        9457.621         216.769           0.255  
I06  22337073.684        1588.959          36.009           0.255  
I07  23673341.906        -641.056         -26.611           0.255  
> 2019 05 08 04 25 48.7688020  0  6                     
I02  20905945.678         233.778           0.591           0.255  
I03  20626543.493        -848.429         -17.200           0.255  
I04  21950118.228        -381.064          -9.365           0.255  
I05  23740807.643        9468.592         217.325           0.255  
I06  22337073.832        1590.824          40.069           0.255  
I07  23673332.613        -641.960         -20.364           0.255  
> 2019 05 08 04 25 48.8188020  0  6                     
I02  20905946.716         234.125           8.942           0.255  
I03  20626542.554        -849.413         -18.979           0.255  
I04  21950125.614        -381.511          -7.175           0.255  
I05  23740806.295        9479.617         224.339           0.255  
I06  22337075.125        1592.683          35.699           0.255  
I07  23673338.602        -642.806         -18.218           0.255  
> 2019 05 08 04 25 48.8688020  0  6                     
I02  20905949.828         234.431          11.453           0.255  
I03  20626539.550        -850.397         -16.069           0.255  
I04  21950128.916        -381.947          -7.582           0.255  
I05  23740806.177        9490.550         223.505           0.255  
I06  22337072.949        1594.542          38.271           0.255  
I07  23673343.040        -643.688         -15.445           0.255  
> 2019 05 08 04 25 48.9188020  0  6                     
I02  20905940.198         234.700           5.260           0.255  
I03  20626538.706        -851.383         -19.348           0.255  
I04  21950130.428        -382.410         -12.837           0.255  
I05  23740802.964        9501.507         217.718           0.255  
I06  22337074.036        1596.411          35.973           0.255  
I07  23673329.652        -644.620         -25.961           0.255  
> 2019 05 08 04 25 48.9688020  0  6                     
I02  20905943.300         234.955           3.517           0.255  
I03  20626546.456        -852.376         -18.355           0.255  
I04  21950122.127        -382.828          -9.409           0.255  
I05  23740797.966        9512.482         219.393           0.255  
I06  22337073.239        1598.264          36.459           0.255  
I07  23673336.491        -645.525         -31.008           0.255  
> 2019 05 08 04 25 49.0188020  0  6                     
I02  20905945.558         235.237           4.240           0.255  
I03  20626547.034        -853.359         -15.794           0.255  
I04  21950125.378        -383.271          -7.943           0.255  
I05  23740794.391        9523.459         221.856           0.255  
I06  22337074.028        1600.130          38.778           0.255  
I07  23673340.454        -646.368         -20.041           0.255  
> 2019 05 08 04 25 49.0688020  0  6                     
I02  20905945.446         235.504           5.610           0.255  
I03  20626538.059        -854.315         -14.418           0.255  
I04  21950131.436        -383.704         -11.707           0.255  
I05  23740792.830        9534.435         221.779           0.255  
I06  22337077.029        1601.967          38.254           0.255  
I07  23673329.284        -647.228         -20.833           0.255  
> 2019 05 08 04 25 49.1188020  0  6                     
I02  20905948.135         235.771           4.577           0.255  
I03  20626547.209        -855.318         -15.946           0.255  
I04  21950120.307        -384.929         -62.840           0.255  
I05  23740790.840        9545.350         218.149           0.255  
I06  22337074.699        1603.254        -141.964           0.255  
I07  23673336.284        -648.059         -19.432           0.255  
> 2019 05 08 04 25 49.1688020  0  6                     
I02  20905946.238         236.048           5.103           0.255  
I03  20626539.305        -856.297         -18.268           0.255  
I04  21950127.028        -384.563          -7.074           0.255  
I05  23740786.174        9556.319         219.578           0.255  
I06  22337074.222        1605.687          35.033           0.255  
I07  23673327.311        -649.006         -11.636           0.255  
> 2019 05 08 04 25 49.2188020  0  6                     
I02  20905948.177         236.324           5.829           0.255  
I03  20626546.358        -857.302         -19.480           0.255  
I04  21950117.883        -385.906         -12.761           0.255  
I05  23740785.470        9567.300         220.298           0.255  
I06  22337074.827        1607.545          38.141           0.255  
I07  23673331.669        -649.878         -18.505           0.255  
> 2019 05 08 04 25 49.2688020  0  6                     
I02  20905948.154         236.619           8.179           0.255  
I03  20626539.353        -858.273         -16.461           0.255  
I04  21950120.978        -385.415          -3.572           0.255  
I05  23740782.427        9578.298         223.565           0.255  
I06  22337073.746        1609.250          66.707           0.255  
I07  23673336.165        -650.742         -13.793           0.255  
> 2019 05 08 04 25 49.3188020  0  6                     
I02  20905947.427         236.931          11.317           0.255  
I03  20626541.539        -859.247         -21.076           0.255  
I04  21950121.808        -385.873          -7.239           0.255  
I05  23740780.787        9589.281         220.092           0.255  
I06  22337070.637        1611.281          38.922           0.255  
I07  23673342.607        -651.592         -15.579           0.255  
> 2019 05 08 04 25 49.3688020  0  6                     
I02  20905946.418         237.146          11.438           0.255  
I03  20626543.230        -860.271         -21.598           0.255  
I04  21950127.425        -386.362         -11.105           0.255  
I05  23740777.103        9600.213         220.255           0.255  
I06  22337071.329        1613.099          38.159           0.255  
I07  23673331.722        -652.519         -10.040           0.255  
> 2019 05 08 04 25 49.4188020  0  6                     
I02  20905947.460         237.384           6.517           0.255  
I03  20626545.426        -861.301         -22.700           0.255  
I04  21950131.439        -386.826         -13.847           0.255  
I05  23740774.473        9611.135         215.813           0.255  
I06  22337069.296        1614.936          37.788           0.255  
I07  23673335.150        -653.431         -16.982           0.255  
> 2019 05 08 04 25 49.4688020  0  6                     
I02  20905949.036         237.196          65.803           0.255  
I03  20626545.174        -862.313         -22.219           0.255  
I04  21950122.254        -386.293         171.818           0.255  
I05  23740769.659        9622.089         219.623           0.255  
I06  22337066.115        1616.747          36.825           0.255  
I07  23673338.821        -654.356         -16.512           0.255  
> 2019 05 08 04 25 49.5188020  0  6                     
I02  20905947.821         237.892          10.107           0.255  
I03  20626545.125        -863.309         -19.902           0.255  
I04  21950127.632        -387.662          -6.571           0.255  
I05  23740766.512        9633.047         219.275           0.255  
I06  22337068.904        1618.617          35.449           0.255  
I07  23673331.614        -655.247         -15.708           0.255  
> 2019 05 08 04 25 49.5688020  0  6                     
I02  20905949.252         238.187           8.886           0.255  
I03  20626545.192        -864.269         -18.206           0.255  
I04  21950134.000        -388.124         -12.924           0.255  
I05  23740763.297        9644.030         218.766           0.255  
I06  22337067.592        1620.495          34.092           0.255  
I07  23673334.708        -656.155         -21.555           0.255  
> 2019 05 08 04 25 49.6188020  0  6                     
I02  20905949.070         238.458           4.714           0.255  
I03  20626547.216        -865.249         -21.670           0.255  
I04  21950123.950        -388.586         -12.267           0.255  
I05  23740761.036        9655.007         217.033           0.255  
I06  22337068.546        1622.329          34.020           0.255  
I07  23673343.262        -657.008         -24.401           0.255  
> 2019 05 08 04 25 49.6688020  0  6                     
I02  20905947.830         238.713           9.521           0.255  
I03  20626537.511        -866.236         -19.409           0.255  
I04  21950128.863        -389.031          -8.617           0.255  
I05  23740757.029        9665.965         221.246           0.255  
I06  22337072.313        1624.199          36.031           0.255  
I07  23673331.398        -657.907         -24.062           0.255  
> 2019 05 08 04 25 49.7188020  0  6                     
I02  20905946.404         239.040          14.364           0.255  
I03  20626537.673        -867.226         -20.640           0.255  
I04  21950121.148        -389.375          -4.430           0.255  
I05  23740754.268        9676.977         222.283           0.255  
I06  22337068.436        1626.118          38.375           0.255  
I07  23673334.752        -658.760         -12.490           0.255  
> 2019 05 08 04 25 49.7688020  0  6                     
I02  20905947.986         239.320          11.666           0.255  
I03  20626538.107        -868.174         -22.591           0.255  
I04  21950126.626        -389.779          -2.028           0.255  
I05  23740754.559        9687.969         220.678           0.255  
I06  22337066.602        1627.985          39.380           0.255  
I07  23673340.891        -659.645         -16.009           0.255  
> 2019 05 08 04 25 49.8188020  0  6                     
I02  20905946.856         239.588           6.177           0.255  
I03  20626541.522        -869.131         -21.342           0.255  
I04  21950120.564        -390.226          -5.328           0.255  
I05  23740747.053        9698.940         216.261           0.255  
I06  22337066.028        1629.844          38.950           0.255  
I07  23673330.479        -660.553         -27.224           0.255  
> 2019 05 08 04 25 49.8688020  0  6                     
I02  20905948.700         239.867           8.946           0.255  
I03  20626541.065        -870.125         -19.196           0.255  
I04  21950126.050        -390.663          -3.214           0.255  
I05  23740744.429        9709.909         220.950           0.255  
I06  22337064.137        1631.715          40.195           0.255  
I07  23673337.353        -661.486         -24.177           0.255  
> 2019 05 08 04 25 49.9188020  0  6                     
I02  20905948.515         240.179          11.087           0.255  
I03  20626544.814        -871.089         -16.026           0.255  
I04  21950130.464        -391.092          -6.835           0.255  
I05  23740741.830        9720.894         220.445           0.255  
I06  22337063.117        1633.565          37.851           0.255  
I07  23673342.794        -662.295         -29.268           0.255  
> 2019 05 08 04 25 49.9688020  0  6                     
I02  20905947.616         240.488          11.148           0.255  
I03  20626545.859        -872.049         -17.346           0.255  
I04  21950121.039        -391.472          -6.337           0.255  
I05  23740742.860        9731.885         222.352           0.255  
I06  22337061.941        1635.455          38.282           0.255  
I07  23673332.576        -663.100         -13.867           0.255  
> 2019 05 08 04 25 50.0188020  0  6                     
I02  20905948.362         240.772           5.821           0.255  
I03  20626539.864        -873.036         -20.334           0.255  
I04  21950126.061        -391.918          -3.693           0.255  
I05  23740739.561        9742.874         218.426           0.255  
I06  22337063.374        1637.343          39.083           0.255  
I07  23673337.390        -663.992         -21.327           0.255  
> 2019 05 08 04 25 50.0688020  0  6                     
I02  20905947.193         240.177        -133.281           0.255  
I03  20626540.379        -874.001         -19.402           0.255  
I04  21950131.328        -392.419         -12.972           0.255  
I05  23740733.254        9753.853         218.225           0.255  
I06  22337063.215        1640.239         145.682           0.255  
I07  23673327.117        -664.823         -19.603           0.255  
> 2019 05 08 04 25 50.1188020  0  6                     
I02  20905947.771         241.319           5.687           0.255  
I03  20626542.509        -875.016         -21.195           0.255  
I04  21950119.072        -392.795         -13.872           0.255  
I05  23740731.321        9764.826         215.382           0.255  
I06  22337063.025        1641.070          36.641           0.255  
I07  23673335.915        -665.633         -13.804           0.255  
> 2019 05 08 04 25 50.1688020  0  6                     
I02  20905947.294         241.657          10.254           0.255  
I03  20626544.967        -875.947         -19.667           0.255  
I04  21950122.402        -393.167          -6.719           0.255  
I05  23740726.878        9775.855         221.333           0.255  
I06  22337062.228        1642.960          37.523           0.255  
I07  23673340.259        -666.564         -13.427           0.255  
> 2019 05 08 04 25 50.2188020  0  6                     
I02  20905945.476         241.952           7.168           0.255  
I03  20626545.692        -876.917         -20.142           0.255  
I04  21950129.346        -393.556          -3.738           0.255  
I05  23740725.250        9786.834         219.748           0.255  
I06  22337063.160        1644.842          39.185           0.255  
I07  23673331.257        -667.397         -11.257           0.255  
> 2019 05 08 04 25 50.2688020  0  6                     
I02  20905947.217         242.238           3.253           0.255  
I03  20626547.504        -877.876         -18.425           0.255  
I04  21950118.898        -394.014          -8.513           0.255  
I05  23740725.694        9797.805         218.491           0.255  
I06  22337065.068        1646.700          36.517           0.255  
I07  23673338.159        -668.271         -13.330           0.255  
> 2019 05 08 04 25 50.3188020  0  6                     
I02  20905945.940         242.473           4.490           0.255  
I03  20626539.163        -878.838         -19.424           0.255  
I04  21950123.423        -394.400          -6.943           0.255  
I05  23740720.648        9808.765         215.981           0.255  
I06  22337066.220        1648.555          36.051           0.255  
I07  23673327.740        -669.218         -19.235           0.255  
> 2019 05 08 04 25 50.3688020  0  6                     
I02  20905947.994         242.316        -113.046           0.255  
I03  20626542.469        -879.853         -16.453           0.255  
I04  21950129.848        -394.680         127.689           0.255  
I05  23740718.148        9819.736         220.765           0.255  
I06  22337061.794        1650.444         167.155           0.255  
I07  23673336.332        -670.164         -19.881           0.255  
> 2019 05 08 04 25 50.4188020  0  6                     
I02  20905946.946         243.016           3.442           0.255  
I03  20626546.704        -880.822         -15.972           0.255  
I04  21950123.300        -395.797         -22.196           0.255  
I05  23740714.259        9830.729         221.950           0.255  
I06  22337057.621        1652.261          41.729           0.255  
I07  23673343.574        -671.126         -20.393           0.255  
> 2019 05 08 04 25 50.4688020  0  6                     
I02  20905948.622         243.284           1.564           0.255  
I03  20626546.078        -881.853         -21.105           0.255  
I04  21950127.227        -395.806          -7.222           0.255  
I05  23740701.846        9841.669         217.119           0.255  
I06  22337057.664        1654.074          36.212           0.255  
I07  23673333.374        -671.893         -16.864           0.255  
> 2019 05 08 04 25 50.5188020  0  6                     
I02  20905950.441         243.544           0.152           0.255  
I03  20626547.070        -882.838         -23.106           0.255  
I04  21950118.423        -396.242          -5.151           0.255  
I05  23740704.026        9852.645         216.773           0.255  
I06  22337057.819        1655.934          34.478           0.255  
I07  23673334.912        -672.795         -18.950           0.255  
> 2019 05 08 04 25 50.5688020  0  6                     
I02  20905947.255         243.889           7.299           0.255  
I03  20626543.322        -883.793         -21.049           0.255  
I04  21950120.943        -396.667          -8.241           0.255  
I05  23740706.993        9863.637         218.865           0.255  
I06  22337059.173        1657.870          40.306           0.255  
I07  23673365.797        -673.589         -15.240           0.255  
> 2019 05 08 04 25 50.6188020  0  6                     
I02  20905946.049         244.229           6.210           0.255  
I03  20626542.691        -884.700         -17.240           0.255  
I04  21950128.317        -397.000          -2.525           0.255  
I05  23740703.818        9874.674         221.914           0.255  
I06  22337061.030        1659.753          41.037           0.255  
I07  23673399.379        -674.432          -8.236           0.255  
> 2019 05 08 04 25 50.6688020  0  6                     
I02  20905946.398         244.473           2.531           0.255  
I03  20626545.123        -885.652         -15.396           0.255  
I04  21950120.379        -397.413          -0.713           0.255  
I05  23740704.763        9885.669         223.288           0.255  
I06  22337059.602        1661.607          38.435           0.255  
I07  23673406.766        -675.341         -11.610           0.255  
> 2019 05 08 04 25 50.7188020  0  6                     
I02  20905945.681         244.771           3.267           0.255  
I03  20626538.108        -886.667         -20.849           0.255  
I04  21950126.866        -397.840          -7.606           0.255  
I05  23740700.422        9896.645         219.634           0.255  
I06  22337060.069        1663.466          36.480           0.255  
I07  23673413.729        -676.191         -17.400           0.255  
> 2019 05 08 04 25 50.7688020  0  6                     
I02  20905944.263         245.089           7.050           0.255  
I03  20626538.757        -887.656         -20.158           0.255  
I04  21950123.110        -398.353         -14.514           0.255  
I05  23740697.399        9907.617         218.641           0.255  
I06  22337060.036        1665.383          38.985           0.255  
I07  23673405.228        -677.050         -15.884           0.255  
> 2019 05 08 04 25 50.8188020  0  6                     
I02  20905943.287         245.336           8.340           0.255  
I03  20626543.164        -888.616         -19.627           0.255  
I04  21950126.733        -398.682          -5.518           0.255  
I05  23740696.450        9918.617         220.617           0.255  
I06  22337057.682        1667.261          40.250           0.255  
I07  23673408.698        -677.873          -9.314           0.255  
> 2019 05 08 04 25 50.8688020  0  6                     
I02  20905946.267         245.697          13.218           0.255  
I03  20626546.635        -889.574         -15.316           0.255  
I04  21950119.613        -399.128          -3.404           0.255  
I05  23740693.078        9929.615         227.314           0.255  
I06  22337054.417        1669.121          43.423           0.255  
I07  23673401.691        -678.787          -9.073           0.255  
> 2019 05 08 04 25 50.9188020  0  6                     
I02  20905948.727         245.972           5.308           0.255  
I03  20626538.145        -890.540         -18.632           0.255  
I04  21950123.316        -399.569          -5.798           0.255  
I05  23740690.352        9940.610         224.250           0.255  
I06  22337054.081        1670.986          41.811           0.255  
I07  23673402.957        -679.782         -17.760           0.255  
> 2019 05 08 04 25 50.9688020  0  6                     
I02  20905949.893         246.274           4.239           0.255  
I03  20626540.299        -891.529         -18.702           0.255  
I04  21950130.235        -400.014         -13.021           0.255  
I05  23740689.565        9951.602         223.354           0.255  
I06  22337054.358        1672.854          38.630           0.255  
I07  23673403.765        -680.534         -15.787           0.255  
> 2019 05 08 04 25 51.0188020  0  6                     
I02  20905947.492         246.551           3.627           0.255  
I03  20626543.782        -892.505         -18.665           0.255  
I04  21950123.098        -400.344          -8.160           0.255  
I05  23740685.952        9962.578         223.083           0.255  
I06  22337056.060        1674.720          37.953           0.255  
I07  23673408.118        -681.460         -23.212           0.255  
> 2019 05 08 04 25 51.0688020  0  6                     
I02  20905945.203         246.894           7.452           0.255  
I03  20626546.331        -893.437         -16.410           0.255  
I04  21950128.933        -401.071        -262.549           0.255  
I05  23740681.689        9973.604         226.558           0.255  
I06  22337056.754        1676.613          35.098           0.255  
I07  23673407.295        -682.246         -11.816           0.255  
> 2019 05 08 04 25 51.1188020  0  6                     
I02  20905947.014         248.978         164.419           0.255  
I03  20626541.224        -894.394         -15.395           0.255  
I04  21950120.899        -401.414         -70.902           0.255  
I05  23740679.667        9984.591         222.432           0.255  
I06  22337055.262        1678.514          34.942           0.255  
I07  23673406.456        -683.143         -25.546           0.255  
> 2019 05 08 04 25 51.1688020  0  6                     
I02  20905945.014         247.480           1.014           0.255  
I03  20626541.550        -895.367         -17.546           0.255  
I04  21950127.082        -401.650         -10.043           0.255  
I05  23740676.188        9995.567         218.699           0.255  
I06  22337056.714        1680.384          36.300           0.255  
I07  23673407.895        -684.040         -24.953           0.255  
> 2019 05 08 04 25 51.2188020  0  6                     
I02  20905944.446         247.524          -0.479           0.255  
I03  20626546.014        -896.360         -19.861           0.255  
I04  21950120.200        -402.071         -12.913           0.255  
I05  23740672.477       10006.565         221.671           0.255  
I06  22337053.917        1681.326        -118.359           0.255  
I07  23673410.824        -684.884         -23.541           0.255  
> 2019 05 08 04 25 51.2688020  0  6                     
I02  20905944.822         248.085           7.254           0.255  
I03  20626539.573        -897.301         -17.398           0.255  
I04  21950127.669        -402.454          -3.721           0.255  
I05  23740670.659       10017.579         226.409           0.255  
I06  22337054.614        1684.115          36.039           0.255  
I07  23673411.395        -685.740         -18.179           0.255  
> 2019 05 08 04 25 51.3188020  0  6                     
I02  20905942.856         247.529          54.495           0.255  
I03  20626544.782        -898.281         -20.590           0.255  
I04  21950118.769        -402.826          -1.218           0.255  
I05  23740669.584       10028.573         224.147           0.255  
I06  22337057.389        1686.017          37.699           0.255  
I07  23673413.820        -686.570         -19.257           0.255  
> 2019 05 08 04 25 51.3688020  0  6                     
I02  20905944.711         248.677          14.014           0.255  
I03  20626542.598        -899.239         -13.434           0.255  
I04  21950125.478        -403.227           2.616           0.255  
I05  23740666.767       10039.556         226.419           0.255  
I06  22337054.812        1687.909          40.729           0.255  
I07  23673400.766        -687.477         -15.182           0.255  
> 2019 05 08 04 25 51.4188020  0  6                     
I02  20905944.111         248.960           5.434           0.255  
I03  20626545.039        -900.191         -14.652           0.255  
I04  21950119.827        -403.706          -4.355           0.255  
I05  23740662.745       10050.539         222.315           0.255  
I06  22337055.400        1689.753          36.811           0.255  
I07  23673404.373        -688.340         -15.969           0.255  
> 2019 05 08 04 25 51.4688020  0  6                     
I02  20905944.365         249.229           5.089           0.255  
I03  20626543.551        -901.187         -19.338           0.255  
I04  21950124.048        -404.198         -10.576           0.255  
I05  23740660.710       10061.528         220.916           0.255  
I06  22337054.966        1691.610          36.136           0.255  
I07  23673404.316        -689.216         -15.400           0.255  
> 2019 05 08 04 25 51.5188020  0  6                     
I02  20905944.582         249.543           7.875           0.255  
I03  20626545.759        -902.160         -20.572           0.255  
I04  21950130.361        -404.528          -9.872           0.255  
I05  23740657.525       10072.525         220.680           0.255  
I06  22337055.495        1693.493          35.234           0.255  
I07  23673405.570        -690.055         -19.168           0.255  
> 2019 05 08 04 25 51.5688020  0  6                     
I02  20905945.929         249.845           2.514           0.255  
I03  20626543.382        -903.110         -19.108           0.255  
I04  21950119.846        -404.938         -10.059           0.255  
I05  23740654.831       10083.540         219.535           0.255  
I06  22337049.533        1695.401          34.603           0.255  
I07  23673409.656        -690.956         -27.078           0.255  
> 2019 05 08 04 25 51.6188020  0  6                     
I02  20905945.664         250.134          -0.335           0.255  
I03  20626541.563        -904.131         -24.042           0.255  
I04  21950125.155        -405.367          -8.575           0.255  
I05  23740651.719       10094.516         219.647           0.255  
I06  22337049.493        1697.233          33.443           0.255  
I07  23673409.494        -691.760         -15.760           0.255  
> 2019 05 08 04 25 51.6688020  0  6                     
I02  20905946.432         250.410           1.306           0.255  
I03  20626547.245        -905.107         -16.227           0.255  
I04  21950130.665        -405.834          -9.872           0.255  
I05  23740647.888       10105.452         219.674           0.255  
I06  22337047.951        1699.085          39.123           0.255  
I07  23673410.815        -692.677         -23.183           0.255  
> 2019 05 08 04 25 51.7188020  0  6                     
I02  20905947.302         250.699           5.148           0.255  
I03  20626543.351        -906.095         -16.965           0.255  
I04  21950125.408        -406.294         -10.011           0.255  
I05  23740646.202       10116.434         223.223           0.255  
I06  22337049.485        1700.952          40.440           0.255  
I07  23673410.418        -693.556         -17.053           0.255  
> 2019 05 08 04 25 51.7688020  0  6                     
I02  20905945.571         251.000           6.526           0.255  
I03  20626547.042        -907.077         -17.345           0.255  
I04  21950129.741        -406.701         -12.253           0.255  
I05  23740646.064       10127.425         220.121           0.255  
I06  22337047.461        1702.835          38.941           0.255  
I07  23673402.020        -694.425         -15.094           0.255  
> 2019 05 08 04 25 51.8188020  0  6                     
I02  20905944.130         251.275           3.131           0.255  
I03  20626540.377        -908.071         -20.641           0.255  
I04  21950123.365        -407.168         -14.945           0.255  
I05  23740641.410       10138.369         215.671           0.255  
I06  22337047.302        1704.693          38.571           0.255  
I07  23673404.861        -695.341         -19.432           0.255  
> 2019 05 08 04 25 51.8688020  0  6                     
I02  20905944.314         251.496           6.303           0.255  
I03  20626544.881        -909.089         -21.438           0.255  
I04  21950126.495        -407.669         -10.117           0.255  
I05  23740624.515       10149.274         218.946           0.255  
I06  22337049.723        1706.507          40.581           0.255  
I07  23673408.820        -696.280          -8.637           0.255  
> 2019 05 08 04 25 51.9188020  0  6                     
I02  20905944.318         251.776           6.643           0.255  
I03  20626540.059        -910.096         -20.022           0.255  
I04  21950130.839        -408.060          -3.731           0.255  
I05  23740628.698       10160.262         219.210           0.255  
I06  22337049.561        1708.359          39.541           0.255  
I07  23673402.181        -697.172         -22.031           0.255  
> 2019 05 08 04 25 51.9688020  0  6                     
I02  20905944.963         252.072           5.690           0.255  
I03  20626544.692        -911.038         -16.968           0.255  
I04  21950121.989        -408.538          -7.961           0.255  
I05  23740628.616       10171.256         219.114           0.255  
I06  22337047.978        1710.231          40.337           0.255  
I07  23673402.759        -698.050         -14.618           0.255  
> 2019 05 08 04 25 52.0188020  0  6                     
I02  20905945.424         252.357           5.768           0.255  
I03  20626541.168        -912.015         -18.485           0.255  
I04  21950125.548        -408.930          -8.373           0.255  
I05  23740627.188       10182.252         219.396           0.255  
I06  22337048.141        1712.073          35.986           0.255  
I07  23673401.541        -698.903         -14.000           0.255  
> 2019 05 08 04 25 52.0688020  0  6                     
I02  20905944.298         252.645           7.618           0.255  
I03  20626547.862        -913.007         -18.502           0.255  
I04  21950120.837        -409.379         -13.289           0.255  
I05  23740627.255       10193.239         220.316           0.255  
I06  22337046.142        1713.947          36.483           0.255  
I07  23673402.009        -699.858         -25.600           0.255  
> 2019 05 08 04 25 52.1188020  0  6                     
I02  20905943.074         252.876           3.527           0.255  
I03  20626545.231        -914.014         -20.499           0.255  
I04  21950127.358        -409.752          -7.076           0.255  
I05  23740624.772       10204.200         219.734           0.255  
I06  22337044.112        1715.797          37.250           0.255  
I07  23673408.700        -700.735         -20.378           0.255  
> 2019 05 08 04 25 52.1688020  0  6                     
I02  20905943.600         253.877          86.944           0.255  
I03  20626540.219        -914.971         -17.406           0.255  
I04  21950123.413        -410.200          36.475           0.255  
I05  23740622.261       10215.192         222.153           0.255  
I06  22337043.922        1717.667          39.783           0.255  
I07  23673411.953        -701.593         -20.371           0.255  
> 2019 05 08 04 25 52.2188020  0  6                     
I02  20905945.371         253.469           4.826           0.255  
I03  20626544.743        -915.968         -18.793           0.255  
I04  21950126.760        -410.624          -7.187           0.255  
I05  23740618.714       10226.145         218.272           0.255  
I06  22337045.094        1719.518          36.390           0.255  
I07  23673402.185        -702.450         -21.547           0.255  
> 2019 05 08 04 25 52.2688020  0  6                     
I02  20905946.974         253.726           0.526           0.255  
I03  20626542.495        -916.950         -18.654           0.255  
I04  21950120.273        -411.053          -6.718           0.255  
I05  23740616.045       10237.110         216.731           0.255  
I06  22337041.815        1721.372          33.279           0.255  
I07  23673403.149        -703.336         -22.835           0.255  
> 2019 05 08 04 25 52.3188020  0  6                     
I02  20905945.012         254.052           4.809           0.255  
I03  20626540.850        -917.947         -23.439           0.255  
I04  21950129.812        -411.555          -9.200           0.255  
I05  23740613.132       10248.096         218.346           0.255  
I06  22337040.322        1723.226          34.953           0.255  
I07  23673406.720        -704.267         -20.919           0.255  
> 2019 05 08 04 25 52.3688020  0  6                     
I02  20905943.820         254.296           9.866           0.255  
I03  20626545.616        -918.963         -19.270           0.255  
I04  21950120.393        -411.997          -5.798           0.255  
I05  23740609.180       10259.038         223.594           0.255  
I06  22337043.290        1725.044          39.791           0.255  
I07  23673408.445        -705.230         -11.622           0.255  
> 2019 05 08 04 25 52.4188020  0  6                     
I02  20905945.454         254.570          14.051           0.255  
I03  20626542.256        -919.961         -17.676           0.255  
I04  21950125.327        -412.410          -5.171           0.255  
I05  23740605.531       10270.002         224.544           0.255  
I06  22337045.671        1726.909          41.717           0.255  
I07  23673412.605        -706.025         -16.841           0.255  
> 2019 05 08 04 25 52.4688020  0  6                     
I02  20905945.831         254.821           5.390           0.255  
I03  20626548.795        -920.998         -21.991           0.255  
I04  21950118.857        -412.904          -6.862           0.255  
I05  23740602.231       10280.972         220.632           0.255  
I06  22337043.086        1728.700          36.128           0.255  
I07  23673402.801        -706.963         -18.947           0.255  
> 2019 05 08 04 25 52.5188020  0  6                     
I02  20905949.066         255.077           2.392           0.255  
I03  20626546.222        -922.012         -23.782           0.255  
I04  21950122.396        -413.426         -13.728           0.255  
I05  23740598.384       10291.900         216.589           0.255  
I06  22337042.907        1730.545          33.215           0.255  
I07  23673404.786        -707.829         -18.538           0.255  
> 2019 05 08 04 25 52.5688020  0  6                     
I02  20905945.157         255.365           5.888           0.255  
I03  20626544.224        -922.975         -20.847           0.255  
I04  21950131.534        -413.783         -14.168           0.255  
I05  23740595.286       10302.877         216.858           0.255  
I06  22337040.694        1732.393          34.770           0.255  
I07  23673410.772        -708.781         -22.782           0.255  
> 2019 05 08 04 25 52.6188020  0  6                     
I02  20905943.762         255.659          10.973           0.255  
I03  20626542.934        -923.951         -17.277           0.255  
I04  21950120.067        -414.226         -13.709           0.255  
I05  23740594.792       10313.852         219.223           0.255  
I06  22337041.358        1734.291          41.100           0.255  
I07  23673401.313        -709.686         -27.836           0.255  
> 2019 05 08 04 25 52.6688020  0  6                     
I02  20905946.504         255.918           8.038           0.255  
I03  20626547.243        -924.953         -17.553           0.255  
I04  21950126.346        -414.608          -8.829           0.255  
I05  23740591.237       10324.846         221.070           0.255  
I06  22337039.515        1736.110          38.605           0.255  
I07  23673407.982        -710.524         -18.994           0.255  
> 2019 05 08 04 25 52.7188020  0  6                     
I02  20905946.186         256.168           2.294           0.255  
I03  20626547.557        -925.975         -21.980           0.255  
I04  21950132.709        -415.057          -5.611           0.255  
I05  23740587.734       10335.795         218.725           0.255  
I06  22337039.782        1737.963          36.151           0.255  
I07  23673413.464        -711.442         -21.255           0.255  
> 2019 05 08 04 25 52.7688020  0  6                     
I02  20905947.485         256.453           7.759           0.255  
I03  20626542.606        -926.961         -21.994           0.255  
I04  21950121.560        -415.525         -11.776           0.255  
I05  23740586.676       10346.789         218.742           0.255  
I06  22337039.133        1739.806          36.383           0.255  
I07  23673401.054        -712.307         -15.018           0.255  
> 2019 05 08 04 25 52.8188020  0  6                     
I02  20905947.234         256.719           6.159           0.255  
I03  20626540.914        -927.962         -19.221           0.255  
I04  21950129.561        -415.997         -11.150           0.255  
I05  23740584.899       10357.754         220.639           0.255  
I06  22337034.251        1741.652          38.278           0.255  
I07  23673405.557        -713.203         -23.268           0.255  
> 2019 05 08 04 25 52.8688020  0  6                     
I02  20905944.376         256.998           9.312           0.255  
I03  20626547.990        -928.938         -14.000           0.255  
I04  21950123.577        -416.445          -8.007           0.255  
I05  23740582.087       10368.714         223.792           0.255  
I06  22337035.617        1743.500          39.823           0.255  
I07  23673411.871        -714.014          -4.224           0.255  
> 2019 05 08 04 25 52.9188020  0  6                     
I02  20905944.891         257.264           4.855           0.255  
I03  20626547.639        -929.896         -16.542           0.255  
I04  21950132.232        -416.824          -9.291           0.255  
I05  23740579.040       10379.694         219.541           0.255  
I06  22337036.216        1745.393          40.158           0.255  
I07  23673404.594        -714.905         -11.940           0.255  
> 2019 05 08 04 25 52.9688020  0  6                     
I02  20905943.080         257.532           6.435           0.255  
I03  20626542.552        -930.878         -20.479           0.255  
I04  21950121.816        -417.254          -8.418           0.255  
I05  23740574.884       10390.706         221.686           0.255  
I06  22337037.554        1747.245          38.092           0.255  
I07  23673408.253        -715.824         -13.433           0.255  
> 2019 05 08 04 25 53.0188020  0  6                     
I02  20905943.197         257.834           5.764           0.255  
I03  20626540.701        -931.897         -22.934           0.255  
I04  21950129.566        -417.737          -6.404           0.255  
I05  23740572.956       10401.661         219.374           0.255  
I06  22337039.356        1749.118          37.179           0.255  
I07  23673413.387        -716.709         -13.696           0.255  
> 2019 05 08 04 25 53.0688020  0  6                     
I02  20905943.183         258.125           7.725           0.255  
I03  20626547.816        -932.836         -19.882           0.255  
I04  21950124.418        -418.163          -3.722           0.255  
I05  23740572.527       10412.660         222.464           0.255  
I06  22337034.719        1750.962          37.870           0.255  
I07  23673401.771        -717.607         -15.150           0.255  
> 2019 05 08 04 25 53.1188020  0  6                     
I02  20905942.506         258.435           7.514           0.255  
I03  20626546.718        -933.791         -16.592           0.255  
I04  21950122.744        -418.594          -8.420           0.255  
I05  23740567.439       10423.641         221.763           0.255  
I06  22337034.193        1752.829          35.840           0.255  
I07  23673403.975        -718.465         -15.063           0.255  
> 2019 05 08 04 25 53.1688020  0  6                     
I02  20905945.222         258.723           5.078           0.255  
I03  20626544.921        -934.782         -17.838           0.255  
I04  21950124.773        -418.968         -10.589           0.255  
I05  23740565.418       10434.635         221.034           0.255  
I06  22337034.518        1754.700          34.338           0.255  
I07  23673410.331        -719.297         -16.484           0.255  
> 2019 05 08 04 25 53.2188020  0  6                     
I02  20905944.312         258.979           2.244           0.255  
I03  20626541.569        -935.790         -20.401           0.255  
I04  21950131.664        -419.400          -9.375           0.255  
I05  23740560.665       10445.608         218.116           0.255  
I06  22337035.717        1756.561          36.158           0.255  
I07  23673402.132        -720.229         -19.741           0.255  
> 2019 05 08 04 25 53.2688020  0  6                     
I02  20905945.694         259.239           1.570           0.255  
I03  20626538.872        -936.797         -20.694           0.255  
I04  21950122.816        -419.801          -8.721           0.255  
I05  23740556.852       10456.569         219.458           0.255  
I06  22337034.763        1758.418          40.185           0.255  
I07  23673408.883        -721.093         -11.910           0.255  
> 2019 05 08 04 25 53.3188020  0  6                     
I02  20905944.063         258.849         -11.774           0.255  
I03  20626548.005        -937.759         -17.524           0.255  
I04  21950134.245        -420.643          -3.999           0.255  
I05  23740552.487       10467.583         224.437           0.255  
I06  22337033.719        1760.329          42.274           0.255  
I07  23673402.212        -721.992         -21.012           0.255  
> 2019 05 08 04 25 53.3688020  0  6                     
I02  20905942.391         259.818           8.759           0.255  
I03  20626543.722        -938.747         -14.450           0.255  
I04  21950126.472        -420.722          -5.861           0.255  
I05  23740549.290       10478.524         224.354           0.255  
I06  22337035.141        1762.140          40.166           0.255  
I07  23673405.529        -722.888         -20.586           0.255  
> 2019 05 08 04 25 53.4188020  0  6                     
I02  20905941.835         260.100           9.743           0.255  
I03  20626540.877        -939.759         -20.066           0.255  
I04  21950120.004        -421.201         -12.946           0.255  
I05  23740548.204       10489.471         218.222           0.255  
I06  22337032.216        1763.975          38.338           0.255  
I07  23673411.737        -723.733         -15.047           0.255  
> 2019 05 08 04 25 53.4688020  0  6                     
I02  20905941.635         260.343           4.082           0.255  
I03  20626548.974        -940.778         -22.687           0.255  
I04  21950125.535        -421.605         -11.591           0.255  
I05  23740547.459       10500.427         216.280           0.255  
I06  22337031.111        1765.834          37.273           0.255  
I07  23673403.679        -724.692         -17.760           0.255  
> 2019 05 08 04 25 53.5188020  0  6                     
I02  20905942.647         260.655          10.332           0.255  
I03  20626544.536        -941.731         -18.212           0.255  
I04  21950119.973        -422.017          -8.935           0.255  
I05  23740544.552       10511.454         222.564           0.255  
I06  22337031.773        1767.699          36.692           0.255  
I07  23673406.451        -725.512         -12.014           0.255  
> 2019 05 08 04 25 53.5688020  0  6                     
I02  20905943.331         260.993           8.632           0.255  
I03  20626543.215        -942.688         -21.100           0.255  
I04  21950126.010        -422.436          -8.837           0.255  
I05  23740540.083       10522.482         222.470           0.255  
I06  22337029.826        1769.582          35.646           0.255  
I07  23673408.124        -726.408         -19.395           0.255  
> 2019 05 08 04 25 53.6188020  0  6                     
I02  20905941.365         261.271           7.001           0.255  
I03  20626544.933        -943.697         -21.828           0.255  
I04  21950118.879        -422.916         -10.108           0.255  
I05  23740538.382       10533.450         220.069           0.255  
I06  22337034.771        1771.443          36.489           0.255  
I07  23673402.032        -727.304         -24.115           0.255  
> 2019 05 08 04 25 53.6688020  0  6                     
I02  20905941.875         261.519           5.621           0.255  
I03  20626542.027        -944.694         -19.870           0.255  
I04  21950127.889        -423.350          -9.422           0.255  
I05  23740536.435       10544.400         217.426           0.255  
I06  22337032.799        1773.275          35.913           0.255  
I07  23673408.265        -728.195         -24.388           0.255  
> 2019 05 08 04 25 53.7188020  0  6                     
I02  20905944.656         261.785           9.981           0.255  
I03  20626539.128        -945.653         -19.376           0.255  
I04  21950133.990        -423.737          -6.234           0.255  
I05  23740534.824       10555.390         220.309           0.255  
I06  22337029.939        1775.174          39.826           0.255  
I07  23673401.271        -729.104         -20.363           0.255  
> 2019 05 08 04 25 53.7688020  0  6                     
I02  20905944.593         262.060           8.808           0.255  
I03  20626548.670        -946.626         -16.367           0.255  
I04  21950123.793        -424.180          -3.007           0.255  
I05  23740529.730       10566.375         222.002           0.255  
I06  22337028.157        1777.019          40.341           0.255  
I07  23673403.800        -729.992         -23.154           0.255  
> 2019 05 08 04 25 53.8188020  0  6                     
I02  20905942.883         262.354           7.212           0.255  
I03  20626546.328        -947.620         -19.792           0.255  
I04  21950120.635        -424.642          -7.401           0.255  
I05  23740527.126       10577.373         221.948           0.255  
I06  22337030.082        1778.874          38.589           0.255  
I07  23673411.070        -730.794         -23.986           0.255  
> 2019 05 08 04 25 53.8688020  0  6                     
I02  20905941.986         262.618           7.699           0.255  
I03  20626544.532        -948.604         -18.516           0.255  
I04  21950127.463        -425.061          -4.774           0.255  
I05  23740523.775       10588.342         224.214           0.255  
I06  22337031.712        1780.715          38.654           0.255  
I07  23673402.871        -731.734         -17.982           0.255  
> 2019 05 08 04 25 53.9188020  0  6                     
I02  20905943.071         262.891           9.119           0.255  
I03  20626544.040        -949.589         -20.722           0.255  
I04  21950118.316        -425.497          -8.100           0.255  
I05  23740521.731       10599.299         220.442           0.255  
I06  22337031.843        1782.560          37.799           0.255  
I07  23673408.062        -732.642         -24.972           0.255  
> 2019 05 08 04 25 53.9688020  0  6                     
I02  20905942.018         263.142           4.893           0.255  
I03  20626543.428        -950.538         -15.699           0.255  
I04  21950124.868        -425.900          -7.618           0.255  
I05  23740518.802       10610.322         223.827           0.255  
I06  22337027.519        1784.437          37.646           0.255  
I07  23673414.725        -733.488         -17.656           0.255  
> 2019 05 08 04 25 54.0188020  0  6                     
I02  20905945.632         263.458           9.000           0.255  
I03  20626542.532        -951.525         -19.984           0.255  
I04  21950129.678        -426.343          -8.412           0.255  
I05  23740513.950       10621.285         219.380           0.255  
I06  22337024.785        1786.332          37.995           0.255  
I07  23673406.103        -734.337         -10.086           0.255  
> 2019 05 08 04 25 54.0688020  0  6                     
I02  20905941.068         263.768           8.184           0.255  
I03  20626542.514        -952.515         -20.800           0.255  
I04  21950123.670        -426.774         -12.184           0.255  
I05  23740510.419       10632.249         216.793           0.255  
I06  22337029.195        1788.174          34.154           0.255  
I07  23673413.565        -735.145         -11.190           0.255  
> 2019 05 08 04 25 54.1188020  0  6                     
I02  20905939.492         264.011           3.569           0.255  
I03  20626542.862        -953.512         -22.417           0.255  
I04  21950119.899        -426.569          71.644           0.255  
I05  23740508.449       10643.236         218.468           0.255  
I06  22337029.116        1790.045          36.959           0.255  
I07  23673406.341        -736.073          -9.523           0.255  
> 2019 05 08 04 25 54.1688020  0  6                     
I02  20905939.370         264.364          11.456           0.255  
I03  20626541.114        -954.477         -18.672           0.255  
I04  21950123.120        -427.582          -9.140           0.255  
I05  23740506.981       10654.253         220.667           0.255  
I06  22337026.736        1792.793         200.242           0.255  
I07  23673401.396        -736.978         -13.915           0.255  
> 2019 05 08 04 25 54.2188020  0  6                     
I02  20905939.251         264.689          14.277           0.255  
I03  20626542.152        -955.430         -17.878           0.255  
I04  21950132.178        -427.997          -9.268           0.255  
I05  23740503.041       10665.271         222.131           0.255  
I06  22337023.763        1793.817          39.191           0.255  
I07  23673404.267        -737.808         -13.070           0.255  
> 2019 05 08 04 25 54.2688020  0  6                     
I02  20905938.733         264.979          12.005           0.255  
I03  20626541.836        -956.415         -21.421           0.255  
I04  21950125.171        -427.481         153.091           0.255  
I05  23740500.795       10676.276         222.722           0.255  
I06  22337025.750        1795.687          38.853           0.255  
I07  23673412.010        -738.609          -8.458           0.255  
> 2019 05 08 04 25 54.3188020  0  6                     
I02  20905939.895         265.224           4.916           0.255  
I03  20626541.550        -957.382         -23.108           0.255  
I04  21950133.367        -428.802          -9.421           0.255  
I05  23740499.407       10687.256         219.661           0.255  
I06  22337023.999        1796.622         -20.740           0.255  
I07  23673403.676        -739.601         -19.103           0.255  
> 2019 05 08 04 25 54.3688020  0  6                     
I02  20905940.932         265.496           5.731           0.255  
I03  20626540.647        -958.416         -21.969           0.255  
I04  21950123.249        -429.256          -3.589           0.255  
I05  23740497.379       10698.192         221.306           0.255  
I06  22337025.640        1799.385          39.178           0.255  
I07  23673411.904        -740.459          -8.843           0.255  
> 2019 05 08 04 25 54.4188020  0  6                     
I02  20905940.498         265.779           4.050           0.255  
I03  20626540.061        -959.352         -16.142           0.255  
I04  21950120.064        -429.755          -5.445           0.255  
I05  23740494.462       10709.183         222.054           0.255  
I06  22337026.224        1801.246          40.842           0.255  
I07  23673403.903        -741.365         -15.239           0.255  
> 2019 05 08 04 25 54.4688020  0  6                     
I02  20905938.748         266.051           4.628           0.255  
I03  20626541.466        -960.363         -18.824           0.255  
I04  21950134.068        -430.229         -12.300           0.255  
I05  23740491.418       10720.131         215.262           0.255  
I06  22337030.227        1803.075          35.533           0.255  
I07  23673412.633        -742.211         -11.605           0.255  
> 2019 05 08 04 25 54.5188020  0  6                     
I02  20905939.993         266.301           3.439           0.255  
I03  20626543.434        -961.349         -19.457           0.255  
I04  21950124.824        -430.668         -15.059           0.255  
I05  23740489.452       10731.112         216.937           0.255  
I06  22337028.410        1804.918          36.801           0.255  
I07  23673405.101        -743.235         -21.610           0.255  
> 2019 05 08 04 25 54.5688020  0  6                     
I02  20905939.542         266.615           5.935           0.255  
I03  20626543.913        -962.308         -18.402           0.255  
I04  21950121.660        -431.060         -13.519           0.255  
I05  23740486.839       10742.130         217.783           0.255  
I06  22337026.342        1806.804          35.003           0.255  
I07  23673415.290        -744.054         -23.350           0.255  
> 2019 05 08 04 25 54.6188020  0  6                     
I02  20905938.533         266.891           3.160           0.255  
I03  20626543.019        -963.264         -18.368           0.255  
I04  21950127.318        -431.462          -8.092           0.255  
I05  23740485.036       10753.103         218.047           0.255  
I06  22337023.491        1808.691          36.763           0.255  
I07  23673405.961        -744.987         -27.115           0.255  
> 2019 05 08 04 25 54.6688020  0  6                     
I02  20905939.453         267.190          10.615           0.255  
I03  20626544.106        -964.241         -15.616           0.255  
I04  21950121.438        -431.845          -8.673           0.255  
I05  23740481.601       10764.116         221.980           0.255  
I06  22337022.512        1810.570          40.786           0.255  
I07  23673414.922        -745.770         -14.254           0.255  
> 2019 05 08 04 25 54.7188020  0  6                     
I02  20905940.322         267.537           8.076           0.255  
I03  20626545.228        -965.225         -19.932           0.255  
I04  21950134.201        -432.260          -7.312           0.255  
I05  23740478.641       10775.125         219.798           0.255  
I06  22337023.436        1812.450          37.620           0.255  
I07  23673406.090        -746.663         -16.792           0.255  
> 2019 05 08 04 25 54.7688020  0  6                     
I02  20905940.703         267.820           4.563           0.255  
I03  20626544.635        -966.214         -21.350           0.255  
I04  21950123.841        -432.688          -7.337           0.255  
I05  23740476.500       10786.123         219.141           0.255  
I06  22337020.257        1814.289          34.524           0.255  
I07  23673413.478        -747.533         -18.349           0.255  
> 2019 05 08 04 25 54.8188020  0  6                     
I02  20905939.897         268.101           3.765           0.255  
I03  20626545.915        -967.199         -21.702           0.255  
I04  21950121.583        -433.112          -4.083           0.255  
I05  23740472.574       10797.127         220.206           0.255  
I06  22337019.115        1816.152          37.103           0.255  
I07  23673402.175        -748.364         -14.245           0.255  
> 2019 05 08 04 25 54.8688020  0  6                     
I02  20905940.404         268.388           6.616           0.255  
I03  20626545.916        -968.168         -14.274           0.255  
I04  21950131.834        -433.533          -4.132           0.255  
I05  23740467.496       10808.106         225.234           0.255  
I06  22337018.702        1818.013          41.192           0.255  
I07  23673411.064        -749.271         -10.439           0.255  
> 2019 05 08 04 25 54.9188020  0  6                     
I02  20905942.800         268.722           6.594           0.255  
I03  20626546.750        -969.142         -18.833           0.255  
I04  21950122.075        -433.957          -1.899           0.255  
I05  23740463.550       10819.113         221.584           0.255  
I06  22337017.178        1819.908          42.308           0.255  
I07  23673404.717        -750.158         -13.687           0.255  
> 2019 05 08 04 25 54.9688020  0  6                     
I02  20905943.764         268.991           4.481           0.255  
I03  20626545.988        -970.092         -18.826           0.255  
I04  21950130.177        -434.326          -1.208           0.255  
I05  23740461.113       10830.098         218.718           0.255  
I06  22337015.306        1821.754          35.984           0.255  
I07  23673414.939        -750.981         -13.691           0.255  
> 2019 05 08 04 25 55.0188020  0  6                     
I02  20905942.938         269.297           2.185           0.255  
I03  20626547.992        -971.071         -20.418           0.255  
I04  21950119.136        -434.791          -4.342           0.255  
I05  23740459.048       10841.098         217.319           0.255  
I06  22337015.703        1823.609          33.745           0.255  
I07  23673405.926        -751.925         -21.353           0.255  
> 2019 05 08 04 25 55.0688020  0  6                     
I02  20905941.274         269.553           2.535           0.255  
I03  20626540.169        -972.053         -20.239           0.255  
I04  21950122.678        -435.196          -3.021           0.255  
I05  23740458.002       10852.102         219.528           0.255  
I06  22337016.597        1825.493          36.234           0.255  
I07  23673413.358        -752.753         -24.505           0.255  
> 2019 05 08 04 25 55.1188020  0  6                     
I02  20905942.508         269.903           9.677           0.255  
I03  20626543.283        -972.986         -16.941           0.255  
I04  21950128.438        -435.645          -4.090           0.255  
I05  23740456.582       10863.124         223.232           0.255  
I06  22337014.141        1827.379          38.864           0.255  
I07  23673406.330        -753.659         -17.268           0.255  
> 2019 05 08 04 25 55.1688020  0  6                     
I02  20905942.773         270.187           5.122           0.255  
I03  20626543.416        -973.939         -16.378           0.255  
I04  21950121.948        -436.043          -6.673           0.255  
I05  23740450.506       10874.127         220.146           0.255  
I06  22337016.575        1829.283          37.611           0.255  
I07  23673401.395        -754.429         -15.620           0.255  
> 2019 05 08 04 25 55.2188020  0  6                     
I02  20905941.782         270.475           1.980           0.255  
I03  20626543.742        -974.938         -21.848           0.255  
I04  21950129.227        -436.501         -12.392           0.255  
I05  23740446.755       10885.101         218.834           0.255  
I06  22337016.323        1831.144          33.145           0.255  
I07  23673409.402        -755.341         -19.016           0.255  
> 2019 05 08 04 25 55.2688020  0  6                     
I02  20905941.612         270.773           3.021           0.255  
I03  20626548.223        -975.940         -22.184           0.255  
I04  21950124.447        -439.130        -223.397           0.255  
I05  23740444.621       10896.083         218.500           0.255  
I06  22337015.748        1831.496         -70.306           0.255  
I07  23673404.031        -756.188         -12.465           0.255  
> 2019 05 08 04 25 55.3188020  0  6                     
I02  20905938.591         271.057           4.743           0.255  
I03  20626547.878        -976.908         -20.132           0.255  
I04  21950120.526        -437.326          -5.725           0.255  
I05  23740442.624       10907.085         221.450           0.255  
I06  22337015.468        1834.866          38.689           0.255  
I07  23673412.023        -757.061          -8.020           0.255  
> 2019 05 08 04 25 55.3688020  0  6                     
I02  20905939.130         271.317           7.970           0.255  
I03  20626541.135        -977.927         -18.922           0.255  
I04  21950131.615        -437.748          -3.500           0.255  
I05  23740437.122       10918.027         222.663           0.255  
I06  22337013.248        1836.697          42.283           0.255  
I07  23673405.177        -757.991          -6.874           0.255  
> 2019 05 08 04 25 55.4188020  0  6                     
I02  20905942.578         271.568           5.962           0.255  
I03  20626542.116        -978.930         -22.259           0.255  
I04  21950123.438        -438.212          -4.698           0.255  
I05  23740436.526       10928.992         220.617           0.255  
I06  22337000.056        1838.524          36.576           0.255  
I07  23673402.537        -758.942         -14.503           0.255  
> 2019 05 08 04 25 55.4688020  0  6                     
I02  20905943.499         271.803           3.977           0.255  
I03  20626543.045        -979.974         -23.710           0.255  
I04  21950131.850        -438.722         -12.846           0.255  
I05  23740434.919       10939.927         217.418           0.255  
I06  22337002.245        1840.312          31.407           0.255  
I07  23673407.846        -759.912         -20.780           0.255  
> 2019 05 08 04 25 55.5188020  0  6                     
I02  20905945.193         272.045           4.809           0.255  
I03  20626543.960        -981.004         -23.073           0.255  
I04  21950123.038        -439.133          -4.370           0.255  
I05  23740432.196       10950.854         217.425           0.255  
I06  22337005.160        1842.152          34.820           0.255  
I07  23673401.116        -760.857         -26.054           0.255  
> 2019 05 08 04 25 55.5688020  0  6                     
I02  20905942.265         272.330           6.070           0.255  
I03  20626546.511        -981.978         -18.663           0.255  
I04  21950129.347        -439.574          -8.127           0.255  
I05  23740430.530       10961.860         220.882           0.255  
I06  22337009.423        1844.013          36.313           0.255  
I07  23673411.499        -761.653         -20.516           0.255  
> 2019 05 08 04 25 55.6188020  0  6                     
I02  20905941.592         272.609           7.287           0.255  
I03  20626549.989        -982.955         -21.184           0.255  
I04  21950123.339        -440.050         -10.442           0.255  
I05  23740426.031       10972.864         220.123           0.255  
I06  22337012.119        1845.877          34.590           0.255  
I07  23673408.059        -762.546         -14.480           0.255  
> 2019 05 08 04 25 55.6688020  0  6                     
I02  20905938.065         272.822           2.643           0.255  
I03  20626539.073        -983.951         -19.432           0.255  
I04  21950119.449        -440.535         -13.828           0.255  
I05  23740423.447       10983.811         219.563           0.255  
I06  22337003.248        1847.732          38.259           0.255  
I07  23673404.162        -763.427         -11.199           0.255  
> 2019 05 08 04 25 55.7188020  0  6                     
I02  20905939.405         273.103           3.192           0.255  
I03  20626539.150        -984.942         -20.648           0.255  
I04  21950127.878        -440.919          -9.128           0.255  
I05  23740419.832       10994.776         218.418           0.255  
I06  22337008.234        1849.560          35.839           0.255  
I07  23673400.881        -764.346         -14.092           0.255  
> 2019 05 08 04 25 55.7688020  0  6                     
I02  20905939.459         273.442           2.746           0.255  
I03  20626542.271        -985.848         -15.992           0.255  
I04  21950122.441        -441.256          -5.659           0.255  
I05  23740417.999       11005.846         223.677           0.255  
I06  22337008.541        1851.478          38.172           0.255  
I07  23673413.588        -765.187         -17.362           0.255  
> 2019 05 08 04 25 55.8188020  0  6                     
I02  20905939.005         273.780           8.253           0.255  
I03  20626544.838        -986.843         -21.661           0.255  
I04  21950132.706        -441.745          -7.765           0.255  
I05  23740416.413       11016.835         220.295           0.255  
I06  22337009.998        1853.355          37.176           0.255  
I07  23673405.902        -766.050         -19.827           0.255  
> 2019 05 08 04 25 55.8688020  0  6                     
I02  20905940.999         274.097          10.190           0.255  
I03  20626548.133        -987.801         -15.906           0.255  
I04  21950121.854        -442.140          -8.705           0.255  
I05  23740413.318       11027.858         225.113           0.255  
I06  22337002.042        1855.241          42.003           0.255  
I07  23673401.587        -766.931         -14.829           0.255  
> 2019 05 08 04 25 55.9188020  0  6                     
I02  20905939.244         274.400           5.890           0.255  
I03  20626541.899        -988.770         -19.019           0.255  
I04  21950119.432        -442.493          -6.507           0.255  
I05  23740411.257       11038.857         220.084           0.255  
I06  22337005.575        1857.139          39.540           0.255  
I07  23673412.760        -767.772         -17.378           0.255  
> 2019 05 08 04 25 55.9688020  0  6                     
I02  20905939.233         274.721           7.106           0.255  
I03  20626543.452        -989.709         -18.405           0.255  
I04  21950129.807        -442.906          -3.953           0.255  
I05  23740408.159       11049.899         224.194           0.255  
I06  22337007.961        1859.015          40.416           0.255  
I07  23673405.957        -768.605         -22.196           0.255  
> 2019 05 08 04 25 56.0188020  0  6                     
I02  20905940.118         274.964          -0.992           0.255  
I03  20626546.950        -990.640         -19.396           0.255  
I04  21950122.992        -443.301          -6.986           0.255  
I05  23740405.879       11060.891         219.206           0.255  
I06  22337011.327        1860.898          39.722           0.255  
I07  23673402.347        -769.479         -18.146           0.255  
> 2019 05 08 04 25 56.0688020  0  6                     
I02  20905937.878         276.027         -17.874           0.255  
I03  20626548.692        -991.596         -18.686           0.255  
I04  21950131.752        -443.714          -9.578           0.255  
I05  23740402.365       11071.918         219.987           0.255  
I06  22337003.842        1862.818          40.925           0.255  
I07  23673408.323        -770.299         -21.632           0.255  
> 2019 05 08 04 25 56.1188020  0  6                     
I02  20905938.101         275.651           1.103           0.255  
I03  20626544.598        -992.549         -20.610           0.255  
I04  21950122.921        -444.084          -7.577           0.255  
I05  23740397.909       11082.940         218.292           0.255  
I06  22337005.333        1864.692          38.002           0.255  
I07  23673404.468        -771.110         -21.506           0.255  
> 2019 05 08 04 25 56.1688020  0  6                     
I02  20905939.665         275.996           6.822           0.255  
I03  20626545.760        -993.489         -20.124           0.255  
I04  21950132.717        -444.454          -1.539           0.255  
I05  23740396.666       11093.976         218.778           0.255  
I06  22337005.018        1865.933           4.014           0.255  
I07  23673411.117        -771.958         -15.097           0.255  
> 2019 05 08 04 25 56.2188020  0  6                     
I02  20905939.029         276.311           3.705           0.255  
I03  20626549.767        -994.435         -19.262           0.255  
I04  21950129.080        -444.908          -5.681           0.255  
I05  23740395.466       11105.003         218.539           0.255  
I06  22337006.453        1868.491          38.753           0.255  
I07  23673404.288        -772.794         -17.925           0.255  
> 2019 05 08 04 25 56.2688020  0  6                     
I02  20905940.079         276.678          13.644           0.255  
I03  20626542.676        -995.366         -18.908           0.255  
I04  21950120.529        -445.305          -9.409           0.255  
I05  23740390.693       11116.040         221.666           0.255  
I06  22337004.685        1870.406          39.679           0.255  
I07  23673412.008        -773.633          -9.145           0.255  
> 2019 05 08 04 25 56.3188020  0  6                     
I02  20905938.954         276.949          12.627           0.255  
I03  20626546.681        -996.338         -18.394           0.255  
I04  21950130.918        -445.703          -6.643           0.255  
I05  23740387.528       11127.065         223.896           0.255  
I06  22337003.403        1872.280          38.826           0.255  
I07  23673406.055        -774.505         -11.993           0.255  
> 2019 05 08 04 25 56.3688020  0  6                     
I02  20905940.761         277.199          14.329           0.255  
I03  20626540.716        -997.358         -20.775           0.255  
I04  21950122.696        -446.165         -12.150           0.255  
I05  23740384.911       11137.990         222.939           0.255  
I06  22337003.320        1874.121          39.836           0.255  
I07  23673413.144        -775.467          -9.787           0.255  
> 2019 05 08 04 25 56.4188020  0  6                     
I02  20905938.991         277.418           7.015           0.255  
I03  20626543.463        -998.357         -21.677           0.255  
I04  21950118.630        -446.647         -17.214           0.255  
I05  23740381.829       11148.963         219.911           0.255  
I06  22337004.907        1875.956          38.021           0.255  
I07  23673403.878        -776.402         -23.227           0.255  
> 2019 05 08 04 25 56.4688020  0  6                     
I02  20905938.996         277.670           6.007           0.255  
I03  20626545.924        -999.357         -20.117           0.255  
I04  21950133.449        -447.035         -13.175           0.255  
I05  23740379.076       11159.949         220.002           0.255  
I06  22337000.286        1877.805          38.691           0.255  
I07  23673416.119        -777.199         -17.519           0.255  
> 2019 05 08 04 25 56.5188020  0  6                     
I02  20905936.267         278.007           7.336           0.255  
I03  20626549.042       -1000.326         -19.017           0.255  
I04  21950128.904        -447.453         -13.924           0.255  
I05  23740377.661       11170.957         220.154           0.255  
I06  22337002.161        1879.692          39.580           0.255  
I07  23673408.856        -778.053         -12.319           0.255  
> 2019 05 08 04 25 56.5688020  0  6                     
I02  20905936.923         278.299           7.217           0.255  
I03  20626542.858       -1001.306         -21.252           0.255  
I04  21950123.312        -447.844         -13.352           0.255  
I05  23740374.681       11181.976         220.122           0.255  
I06  22337001.160        1881.553          37.710           0.255  
I07  23673406.311        -778.858          -6.141           0.255  
> 2019 05 08 04 25 56.6188020  0  6                     
I02  20905936.191         278.562           3.710           0.255  
I03  20626547.056       -1002.299         -22.081           0.255  
I04  21950134.213        -448.273          -9.216           0.255  
I05  23740371.853       11192.944         219.413           0.255  
I06  22337003.402        1883.405          34.545           0.255  
I07  23673403.558        -779.795         -10.019           0.255  
> 2019 05 08 04 25 56.6688020  0  6                     
I02  20905938.261         278.819           8.279           0.255  
I03  20626539.872       -1003.294         -20.170           0.255  
I04  21950126.045        -448.699          -5.994           0.255  
I05  23740368.858       11203.898         217.824           0.255  
I06  22337005.812        1885.243          37.922           0.255  
I07  23673411.026        -780.729         -14.205           0.255  
> 2019 05 08 04 25 56.7188020  0  6                     
I02  20905940.132         279.134           9.875           0.255  
I03  20626545.740       -1004.239         -16.980           0.255  
I04  21950120.842        -449.091           0.752           0.255  
I05  23740363.815       11214.903         219.408           0.255  
I06  22337003.808        1887.122          38.141           0.255  
I07  23673403.554        -781.618         -12.730           0.255  
> 2019 05 08 04 25 56.7688020  0  6                     
I02  20905940.768         279.425           5.732           0.255  
I03  20626561.002       -1005.207         -19.617           0.255  
I04  21950129.414        -449.478          -2.734           0.255  
I05  23740360.850       11225.913         218.328           0.255  
I06  22337001.669        1888.993          37.322           0.255  
I07  23673414.468        -782.435          -4.597           0.255  
> 2019 05 08 04 25 56.8188020  0  6                     
I02  20905941.272         279.713           5.462           0.255  
I03  20626579.966       -1006.220         -22.114           0.255  
I04  21950125.006        -449.963          -6.573           0.255  
I05  23740358.194       11236.895         217.424           0.255  
I06  22336996.875        1890.825          35.485           0.255  
I07  23673409.215        -783.329         -16.356           0.255  
> 2019 05 08 04 25 56.8688020  0  6                     
I02  20905940.167         280.248         -38.081           0.255  
I03  20626590.285       -1007.224         -19.626           0.255  
I04  21950120.967        -450.454          -4.260           0.255  
I05  23740355.687       11247.853         217.880           0.255  
I06  22337000.721        1892.574          90.095           0.255  
I07  23673406.656        -784.257         -16.394           0.255  
> 2019 05 08 04 25 56.9188020  0  6                     
I02  20906014.630         280.236           3.625           0.255  
I03  20626672.418       -1008.202         -18.666           0.255  
I04  21950203.218        -450.902          -3.920           0.255  
I05  23740430.183       11258.830         217.441           0.255  
I06  22337074.252        1894.539          39.261           0.255  
I07  23673490.687        -785.171         -22.045           0.255  
> 2019 05 08 04 25 56.9688020  0  6                     
I02  20906013.580         280.542           5.104           0.255  
I03  20626677.997       -1009.152         -15.438           0.255  
I04  21950197.739        -451.247          -0.545           0.255  
I05  23740427.779       11269.854         219.714           0.255  
I06  22337072.677        1896.411          37.283           0.255  
I07  23673484.072        -786.037         -19.653           0.255  
> 2019 05 08 04 25 57.0188020  0  6                     
I02  20906014.922         280.851           3.868           0.255  
I03  20626679.085       -1010.136         -17.556           0.255  
I04  21950206.793        -451.726          -5.097           0.255  
I05  23740422.286       11280.857         216.746           0.255  
I06  22337071.240        1898.280          36.923           0.255  
I07  23673480.998        -786.933         -26.807           0.255  
> 2019 05 08 04 25 57.0688020  0  6                     
I02  20906014.277         281.122           1.120           0.255  
I03  20626680.821       -1011.116         -19.250           0.255  
I04  21950202.965        -452.099          -6.493           0.255  
I05  23740418.791       11291.856         216.784           0.255  
I06  22337070.077        1900.150          35.713           0.255  
I07  23673475.787        -787.811         -15.499           0.255  
> 2019 05 08 04 25 57.1188020  0  6                     
I02  20906012.156         281.467           8.867           0.255  
I03  20626680.672       -1012.097         -20.972           0.255  
I04  21950198.741        -452.550          -5.702           0.255  
I05  23740415.872       11302.873         218.480           0.255  
I06  22337070.243        1902.041          39.277           0.255  
I07  23673487.240        -788.645         -17.286           0.255  
> 2019 05 08 04 25 57.1688020  0  6                     
I02  20906012.133         281.766           6.479           0.255  
I03  20626681.009       -1013.036         -16.115           0.255  
I04  21950193.679        -452.907          -5.838           0.255  
I05  23740413.994       11313.894         221.122           0.255  
I06  22337068.351        1903.908          38.004           0.255  
I07  23673480.809        -789.486         -16.634           0.255  
> 2019 05 08 04 25 57.2188020  0  6                     
I02  20906010.948         282.077           9.324           0.255  
I03  20626680.172       -1014.009         -20.203           0.255  
I04  21950202.978        -453.320          -9.869           0.255  
I05  23740411.071       11324.933         222.610           0.255  
I06  22337071.689        1905.208          55.160           0.255  
I07  23673476.903        -790.319         -20.113           0.255  
> 2019 05 08 04 25 57.2688020  0  6                     
I02  20906012.884         282.387           8.939           0.255  
I03  20626679.759       -1014.901         -14.924           0.255  
I04  21950197.776        -453.617          -5.153           0.255  
I05  23740410.141       11335.999         227.184           0.255  
I06  22337070.909        1907.726          41.761           0.255  
I07  23673482.865        -791.183         -15.451           0.255  
> 2019 05 08 04 25 57.3188020  0  6                     
I02  20906010.843         282.728          10.930           0.255  
I03  20626680.241       -1015.870         -18.979           0.255  
I04  21950194.236        -454.017          -1.793           0.255  
I05  23740408.942       11346.971         220.479           0.255  
I06  22337069.936        1909.606          39.084           0.255  
I07  23673476.763        -792.054         -21.690           0.255  
> 2019 05 08 04 25 57.3688020  0  6                     
I02  20906010.476         283.042           8.427           0.255  
I03  20626678.926       -1016.864         -15.762           0.255  
I04  21950205.008        -454.486           4.472           0.255  
I05  23740407.587       11357.963         223.535           0.255  
I06  22337070.566        1911.480          40.970           0.255  
I07  23673485.282        -792.943         -18.974           0.255  
> 2019 05 08 04 25 57.4188020  0  6                     
I02  20906010.655         283.330           6.378           0.255  
I03  20626678.326       -1017.850         -17.943           0.255  
I04  21950200.228        -454.983         -12.462           0.255  
I05  23740402.983       11368.966         221.218           0.255  
I06  22337068.430        1913.351          38.305           0.255  
I07  23673483.948        -793.792         -15.792           0.255  
> 2019 05 08 04 25 57.4688020  0  6                     
I02  20906009.118         283.610           5.808           0.255  
I03  20626679.597       -1018.830         -19.076           0.255  
I04  21950199.394        -455.369          -6.700           0.255  
I05  23740397.472       11379.945         219.077           0.255  
I06  22337071.764        1915.214          37.208           0.255  
I07  23673476.528        -794.671         -11.157           0.255  
> 2019 05 08 04 25 57.5188020  0  6                     
I02  20906009.616         283.916           6.446           0.255  
I03  20626678.718       -1019.796         -21.185           0.255  
I04  21950196.178        -455.797         -11.938           0.255  
I05  23740395.650       11390.943         216.513           0.255  
I06  22337071.840        1917.076          39.675           0.255  
I07  23673484.478        -795.568         -11.653           0.255  
> 2019 05 08 04 25 57.5688020  0  6                     
I02  20906009.027         284.244           5.663           0.255  
I03  20626677.583       -1020.732         -21.854           0.255  
I04  21950197.895        -456.214         -10.895           0.255  
I05  23740392.458       11402.016         220.135           0.255  
I06  22337072.770        1918.992          40.973           0.255  
I07  23673480.518        -796.348          -5.843           0.255  
> 2019 05 08 04 25 57.6188020  0  6                     
I02  20906010.180         284.557           2.090           0.255  
I03  20626678.262       -1021.664         -19.967           0.255  
I04  21950206.502        -456.550          -4.872           0.255  
I05  23740389.266       11413.045         220.467           0.255  
I06  22337072.882        1920.870          38.168           0.255  
I07  23673490.664        -797.190          -6.902           0.255  
> 2019 05 08 04 25 57.6688020  0  6                     
I02  20906012.189         284.917          10.756           0.255  
I03  20626678.269       -1022.631         -16.681           0.255  
I04  21950198.296        -456.991          -7.383           0.255  
I05  23740385.258       11424.071         223.037           0.255  
I06  22337072.213        1922.774          40.307           0.255  
I07  23673484.237        -798.091         -11.735           0.255  
> 2019 05 08 04 25 57.7188020  0  6                     
I02  20905936.200         285.225           4.582           0.255  
I03  20626603.384       -1023.612         -21.187           0.255  
I04  21950119.707        -457.420         -12.877           0.255  
I05  23740305.211       11435.072         222.044           0.255  
I06  22336997.573        1924.653          37.638           0.255  
I07  23673403.906        -798.911         -13.744           0.255  
> 2019 05 08 04 25 57.7688020  0  6                     
I02  20905936.213         285.558           3.862           0.255  
I03  20626603.922       -1024.510         -14.271           0.255  
I04  21950132.213        -457.772          -8.964           0.255  
I05  23740303.844       11446.121         224.185           0.255  
I06  22336993.400        1926.580          40.918           0.255  
I07  23673402.896        -799.779         -22.499           0.255  
> 2019 05 08 04 25 57.8188020  0  6                     
I02  20905938.252         285.859           6.015           0.255  
I03  20626604.066       -1025.470         -15.952           0.255  
I04  21950123.763        -458.142          -7.432           0.255  
I05  23740300.234       11457.127         224.810           0.255  
I06  22336991.559        1928.441          41.985           0.255  
I07  23673414.291        -800.705         -16.583           0.255  
> 2019 05 08 04 25 57.8688020  0  6                     
I02  20905938.617         287.735         138.042           0.255  
I03  20626605.013       -1026.465         -14.131           0.255  
I04  21950119.731        -458.577          -0.971           0.255  
I05  23740300.534       11468.089         223.978           0.255  
I06  22336988.355        1931.147         122.398           0.255  
I07  23673410.946        -801.508         -12.032           0.255  
> 2019 05 08 04 25 57.9188020  0  6                     
I02  20905938.165         286.406           2.165           0.255  
I03  20626604.425       -1027.466         -18.827           0.255  
I04  21950132.831        -458.998          -3.622           0.255  
I05  23740296.327       11479.097         221.285           0.255  
I06  22336992.006        1932.148          36.920           0.255  
I07  23673408.797        -802.394         -14.394           0.255  
> 2019 05 08 04 25 57.9688020  0  6                     
I02  20905937.300         286.696           4.199           0.255  
I03  20626604.288       -1028.471         -20.549           0.255  
I04  21950124.399        -459.442          -8.862           0.255  
I05  23740294.130       11490.065         220.506           0.255  
I06  22336991.894        1933.999          36.777           0.255  
I07  23673406.169        -803.316         -16.215           0.255  
> 2019 05 08 04 25 58.0188020  0  6                     
I02  20905935.612         287.030           9.173           0.255  
I03  20626604.660       -1029.441         -17.508           0.255  
I04  21950120.951        -459.856          -8.084           0.255  
I05  23740292.108       11501.092         223.273           0.255  
I06  22336992.897        1935.861          40.863           0.255  
I07  23673406.867        -804.195         -15.611           0.255  
> 2019 05 08 04 25 58.0688020  0  6                     
I02  20905936.236         287.303           5.469           0.255  
I03  20626605.152       -1030.385         -16.327           0.255  
I04  21950132.749        -460.266         -10.010           0.255  
I05  23740290.095       11512.086         221.592           0.255  
I06  22336991.701        1937.651          55.133           0.255  
I07  23673404.027        -805.057         -20.500           0.255  
> 2019 05 08 04 25 58.1188020  0  6                     
I02  20905936.209         287.601           5.628           0.255  
I03  20626604.980       -1031.374         -18.343           0.255  
I04  21950132.977        -460.725         -13.509           0.255  
I05  23740289.492       11523.071         218.885           0.255  
I06  22336990.596        1939.580          38.083           0.255  
I07  23673402.445        -805.861         -18.796           0.255  
> 2019 05 08 04 25 58.1688020  0  6                     
I02  20905936.504         287.310        -114.344           0.255  
I03  20626605.900       -1032.366         -18.422           0.255  
I04  21950124.452        -464.113        -305.941           0.255  
I05  23740285.180       11534.037         216.472           0.255  
I06  22336989.817        1941.435         148.573           0.255  
I07  23673414.579        -806.806         -18.351           0.255  
> 2019 05 08 04 25 58.2188020  0  6                     
I02  20905937.058         288.151           4.581           0.255  
I03  20626604.933       -1033.362         -18.831           0.255  
I04  21950124.232        -461.586          -4.882           0.255  
I05  23740280.073       11545.029         217.584           0.255  
I06  22336987.847        1943.320          39.901           0.255  
I07  23673407.061        -807.677         -14.984           0.255  
> 2019 05 08 04 25 58.2688020  0  6                     
I02  20905936.436         288.466           4.263           0.255  
I03  20626604.546       -1034.362         -17.656           0.255  
I04  21950118.841        -462.020          -4.223           0.255  
I05  23740278.449       11556.046         221.042           0.255  
I06  22336987.834        1945.203          39.946           0.255  
I07  23673405.648        -808.504         -19.986           0.255  
> 2019 05 08 04 25 58.3188020  0  6                     
I02  20905934.442         288.748           6.485           0.255  
I03  20626606.424       -1035.342         -22.562           0.255  
I04  21950130.801        -462.456         -10.544           0.255  
I05  23740277.469       11567.034         219.598           0.255  
I06  22336987.165        1947.037          38.193           0.255  
I07  23673401.643        -809.450         -19.854           0.255  
> 2019 05 08 04 25 58.3688020  0  6                     
I02  20905935.053         288.950           3.456           0.255  
I03  20626607.654       -1036.384         -21.754           0.255  
I04  21950124.637        -462.950          -8.369           0.255  
I05  23740273.677       11577.955         219.096           0.255  
I06  22336981.623        1948.808          36.702           0.255  
I07  23673414.798        -810.397          -9.654           0.255  
> 2019 05 08 04 25 58.4188020  0  6                     
I02  20905938.726         289.165          -0.375           0.255  
I03  20626607.437       -1037.422         -21.326           0.255  
I04  21950119.413        -463.398          -6.829           0.255  
I05  23740271.552       11588.869         214.575           0.255  
I06  22336982.277        1950.624          36.577           0.255  
I07  23673410.876        -811.334         -14.196           0.255  
> 2019 05 08 04 25 58.4688020  0  6                     
I02  20905940.841         289.424           3.189           0.255  
I03  20626607.370       -1038.459         -19.419           0.255  
I04  21950126.018        -463.847          -3.597           0.255  
I05  23740269.004       11599.832         219.180           0.255  
I06  22336981.036        1952.450          37.338           0.255  
I07  23673406.338        -812.251          -9.481           0.255  
> 2019 05 08 04 25 58.5188020  0  6                     
I02  20905940.421         289.660           1.598           0.255  
I03  20626608.288       -1039.459         -20.365           0.255  
I04  21950120.412        -464.392         -11.077           0.255  
I05  23740262.961       11610.796         218.540           0.255  
I06  22336980.704        1954.284          37.627           0.255  
I07  23673405.344        -813.215         -13.286           0.255  
> 2019 05 08 04 25 58.5688020  0  6                     
I02  20905939.225         289.906           0.083           0.255  
I03  20626608.877       -1040.461         -21.749           0.255  
I04  21950131.780        -464.822         -10.641           0.255  
I05  23740259.774       11621.778         217.194           0.255  
I06  22336981.573        1956.100          35.729           0.255  
I07  23673403.092        -814.096         -16.733           0.255  
> 2019 05 08 04 25 58.6188020  0  6                     
I02  20905936.717         290.172          -1.372           0.255  
I03  20626607.421       -1041.488         -22.648           0.255  
I04  21950127.527        -465.325         -12.642           0.255  
I05  23740257.001       11632.724         213.605           0.255  
I06  22336980.734        1957.901          34.514           0.255  
I07  23673402.981        -815.041         -22.842           0.255  
> 2019 05 08 04 25 58.6688020  0  6                     
I02  20905937.539         290.400           5.257           0.255  
I03  20626609.494       -1042.493         -17.154           0.255  
I04  21950124.187        -465.737          -3.760           0.255  
I05  23740253.672       11643.701         218.637           0.255  
I06  22336979.200        1959.746          39.089           0.255  
I07  23673416.922        -815.945         -17.278           0.255  
> 2019 05 08 04 25 58.7188020  0  6                     
I02  20905936.473         290.692           7.171           0.255  
I03  20626608.880       -1043.474         -13.660           0.255  
I04  21950119.012        -466.134          -4.731           0.255  
I05  23740251.478       11654.697         221.991           0.255  
I06  22336980.826        1961.599          39.038           0.255  
I07  23673414.144        -816.807         -19.391           0.255  
> 2019 05 08 04 25 58.7688020  0  6                     
I02  20905937.287         291.011          12.225           0.255  
I03  20626607.550       -1044.436         -13.809           0.255  
I04  21950133.380        -466.581          -1.664           0.255  
I05  23740248.774       11665.710         224.234           0.255  
I06  22336982.390        1963.499          42.117           0.255  
I07  23673412.787        -817.699          -9.370           0.255  
> 2019 05 08 04 25 58.8188020  0  6                     
I02  20905935.487         291.300          10.867           0.255  
I03  20626608.246       -1045.450         -19.242           0.255  
I04  21950128.860        -467.004          -7.134           0.255  
I05  23740245.286       11676.708         220.438           0.255  
I06  22336985.159        1965.563         211.619           0.255  
I07  23673406.762        -818.565         -18.669           0.255  
> 2019 05 08 04 25 58.8688020  0  6                     
I02  20905936.261         291.567          14.004           0.255  
I03  20626608.041       -1046.426         -17.923           0.255  
I04  21950123.015        -467.473          -3.664           0.255  
I05  23740240.772       11687.691         223.925           0.255  
I06  22336985.274        1967.217          42.327           0.255  
I07  23673406.191        -819.398         -12.989           0.255  
> 2019 05 08 04 25 58.9188020  0  6                     
I02  20905937.964         291.835           6.277           0.255  
I03  20626608.686       -1047.396         -18.810           0.255  
I04  21950133.662        -467.857          -5.686           0.255  
I05  23740237.854       11698.693         222.295           0.255  
I06  22336982.952        1969.076          39.383           0.255  
I07  23673404.425        -820.360         -21.054           0.255  
> 2019 05 08 04 25 58.9688020  0  6                     
I02  20905935.144         292.164           7.788           0.255  
I03  20626608.986       -1048.384         -20.749           0.255  
I04  21950127.419        -468.254          -2.412           0.255  
I05  23740235.906       11709.696         220.468           0.255  
I06  22336984.416        1970.959          38.803           0.255  
I07  23673402.991        -821.225         -20.343           0.255  
> 2019 05 08 04 25 59.0188020  0  6                     
I02  20905935.877         292.442           6.164           0.255  
I03  20626608.960       -1049.287         -16.474           0.255  
I04  21950124.100        -468.648          -5.519           0.255  
I05  23740234.628       11720.713         219.451           0.255  
I06  22336984.842        1972.836          36.890           0.255  
I07  23673401.233        -822.133         -27.065           0.255  
> 2019 05 08 04 25 59.0688020  0  6                     
I02  20905934.916         292.737           2.257           0.255  
I03  20626608.550       -1050.257         -15.117           0.255  
I04  21950121.990        -469.011          -3.220           0.255  
I05  23740229.649       11731.757         220.883           0.255  
I06  22336983.149        1974.739          38.538           0.255  
I07  23673416.908        -823.006         -26.674           0.255  
> 2019 05 08 04 25 59.1188020  0  6                     
I02  20905934.395         293.059           4.020           0.255  
I03  20626610.033       -1051.204         -15.272           0.255  
I04  21950132.893        -469.468          -6.464           0.255  
I05  23740227.980       11742.772         219.402           0.255  
I06  22336981.007        1976.616          37.486           0.255  
I07  23673413.126        -823.805         -20.540           0.255  
> 2019 05 08 04 25 59.1688020  0  6                     
I02  20905935.918         293.364           4.379           0.255  
I03  20626611.385       -1052.178         -16.498           0.255  
I04  21950129.952        -469.861         -10.039           0.255  
I05  23740225.397       11753.795         219.874           0.255  
I06  22336979.896        1978.507          39.666           0.255  
I07  23673410.544        -824.624         -20.382           0.255  
> 2019 05 08 04 25 59.2188020  0  6                     
I02  20905936.173         293.665           0.714           0.255  
I03  20626611.243       -1053.144         -16.028           0.255  
I04  21950124.299        -470.286          -9.410           0.255  
I05  23740222.020       11764.821         220.514           0.255  
I06  22336978.336        1980.389          39.176           0.255  
I07  23673409.296        -825.518         -21.901           0.255  
> 2019 05 08 04 25 59.2688020  0  6                     
I02  20905934.186         293.958           3.232           0.255  
I03  20626612.030       -1054.103         -16.924           0.255  
I04  21950123.568        -470.698         -10.559           0.255  
I05  23740220.332       11775.821         222.359           0.255  
I06  22336978.737        1982.253          38.768           0.255  
I07  23673406.187        -826.396         -18.843           0.255  
> 2019 05 08 04 25 59.3188020  0  6                     
I02  20905934.883         294.240           3.245           0.255  
I03  20626609.549       -1055.072         -21.051           0.255  
I04  21950121.285        -471.106         -10.859           0.255  
I05  23740216.544       11786.806         217.019           0.255  
I06  22336976.549        1984.117          35.747           0.255  
I07  23673405.088        -827.311         -25.153           0.255  
> 2019 05 08 04 25 59.3688020  0  6                     
I02  20905934.298         294.482           8.781           0.255  
I03  20626610.869       -1056.099         -16.174           0.255  
I04  21950132.789        -471.543          -4.533           0.255  
I05  23740213.856       11797.767         222.547           0.255  
I06  22336977.803        1985.944          40.509           0.255  
I07  23673416.886        -828.157         -21.546           0.255  
> 2019 05 08 04 25 59.4188020  0  6                     
I02  20905934.313         294.802          10.953           0.255  
I03  20626610.676       -1057.093         -15.838           0.255  
I04  21950127.622        -471.997          -8.667           0.255  
I05  23740211.570       11808.768         225.329           0.255  
I06  22336978.692        1987.800          38.227           0.255  
I07  23673414.504        -828.999         -16.172           0.255  
> 2019 05 08 04 25 59.4688020  0  6                     
I02  20905933.363         295.002           7.337           0.255  
I03  20626610.422       -1058.131         -21.727           0.255  
I04  21950127.710        -472.475         -10.565           0.255  
I05  23740207.628       11819.703         218.360           0.255  
I06  22336979.412        1989.601          35.416           0.255  
I07  23673415.600        -829.992         -20.267           0.255  
> 2019 05 08 04 25 59.5188020  0  6                     
I02  20905937.245         295.208           0.804           0.255  
I03  20626608.772       -1059.172         -23.158           0.255  
I04  21950124.162        -472.924          -9.030           0.255  
I05  23740206.196       11830.652         215.249           0.255  
I06  22336980.911        1991.416          33.288           0.255  
I07  23673414.959        -830.946         -27.288           0.255  
> 2019 05 08 04 25 59.5688020  0  6                     
I02  20905934.257         295.498           1.691           0.255  
I03  20626609.607       -1060.173         -20.760           0.255  
I04  21950123.489        -473.337          -7.933           0.255  
I05  23740203.492       11841.626         215.418           0.255  
I06  22336978.966        1993.236          32.423           0.255  
I07  23673411.794        -831.918         -27.186           0.255  
> 2019 05 08 04 25 59.6188020  0  6                     
I02  20905932.238         295.790           7.024           0.255  
I03  20626611.535       -1061.176         -16.386           0.255  
I04  21950119.835        -473.750          -1.563           0.255  
I05  23740200.211       11852.628         222.080           0.255  
I06  22336977.280        1995.117          37.832           0.255  
I07  23673413.470        -832.789         -24.760           0.255  
> 2019 05 08 04 25 59.6688020  0  6                     
I02  20905933.070         296.076          13.828           0.255  
I03  20626611.521       -1062.196         -18.005           0.255  
I04  21950119.904        -474.295         -12.508           0.255  
I05  23740196.450       11863.598         224.983           0.255  
I06  22336974.893        1996.951          39.673           0.255  
I07  23673414.601        -833.657         -20.167           0.255  
> 2019 05 08 04 25 59.7188020  0  6                     
I02  20905935.559         296.300          12.559           0.255  
I03  20626610.330       -1063.210         -23.522           0.255  
I04  21950130.983        -474.695         -10.829           0.255  
I05  23740194.337       11874.550         218.167           0.255  
I06  22336976.550        1998.780          37.682           0.255  
I07  23673415.905        -834.512         -17.621           0.255  
> 2019 05 08 04 25 59.7688020  0  6                     
I02  20905934.161         296.566           6.755           0.255  
I03  20626611.004       -1064.253         -22.613           0.255  
I04  21950127.010        -475.221         -12.572           0.255  
I05  23740194.460       11885.519         217.792           0.255  
I06  22336978.134        2000.600          36.223           0.255  
I07  23673413.378        -835.363         -18.980           0.255  
> 2019 05 08 04 25 59.8188020  0  6                     
I02  20905935.989         296.806           2.288           0.255  
I03  20626611.149       -1065.260         -20.670           0.255  
I04  21950120.879        -475.711         -11.959           0.255  
I05  23740191.495       11896.489         217.850           0.255  
I06  22336975.455        2002.424          38.054           0.255  
I07  23673415.088        -836.269         -13.243           0.255  
> 2019 05 08 04 25 59.8688020  0  6                     
I02  20905935.305         297.054          12.875           0.255  
I03  20626611.592       -1066.232         -13.371           0.255  
I04  21950133.875        -476.119         -10.527           0.255  
I05  23740187.342       11907.453         222.103           0.255  
I06  22336973.924        2004.263          41.120           0.255  
I07  23673412.475        -837.195         -12.290           0.255  
> 2019 05 08 04 25 59.9188020  0  6                     
I02  20905932.302         297.294           5.663           0.255  
I03  20626612.047       -1067.254         -19.168           0.255  
I04  21950133.629        -476.593         -13.004           0.255  
I05  23740187.062       11918.437         220.056           0.255  
I06  22336973.004        2006.091          39.503           0.255  
I07  23673412.099        -838.156         -19.698           0.255  
> 2019 05 08 04 25 59.9688020  0  6                     
I02  20905933.803         297.604         -69.045           0.255  
I03  20626612.800       -1068.237         -19.457           0.255  
I04  21950125.876        -479.183        -208.113           0.255  
I05  23740185.856       11929.415         218.289           0.255  
I06  22336975.686        2007.918          36.652           0.255  
I07  23673411.790        -839.067         -23.567           0.255  
> 2019 05 08 04 26 00.0188020  0  6                     
I02  20905933.469         297.779           1.340           0.255  
I03  20626614.205       -1069.260         -20.147           0.255  
I04  21950123.707        -477.447          -3.648           0.255  
I05  23740182.439       11940.367         217.505           0.255  
I06  22336975.124        2009.749          34.696           0.255  
I07  23673410.570        -839.972         -16.294           0.255  
> 2019 05 08 04 26 00.0688020  0  6                     
I02  20905932.271         298.081           5.782           0.255  
I03  20626615.202       -1070.277         -17.694           0.255  
I04  21950124.320        -477.321         177.752           0.255  
I05  23740179.537       11951.368         221.682           0.255  
I06  22336974.288        2011.306         -16.171           0.255  
I07  23673407.657        -840.886         -16.649           0.255  
> 2019 05 08 04 26 00.1188020  0  6                     
I02  20905932.417         298.325           2.915           0.255  
I03  20626614.119       -1071.254         -18.052           0.255  
I04  21950118.922        -478.302          -5.457           0.255  
I05  23740176.767       11962.342         221.448           0.255  
I06  22336973.043        2013.451          36.890           0.255  
I07  23673406.022        -841.801         -16.928           0.255  
> 2019 05 08 04 26 00.1688020  0  6                     
I02  20905932.033         298.594           5.134           0.255  
I03  20626614.173       -1072.254         -19.063           0.255  
I04  21950132.521        -478.750         -13.592           0.255  
I05  23740175.427       11973.335         218.984           0.255  
I06  22336976.639        2015.314          36.703           0.255  
I07  23673403.046        -842.701         -19.533           0.255  
> 2019 05 08 04 26 00.2188020  0  6                     
I02  20905933.445         298.841           1.921           0.255  
I03  20626614.135       -1073.251         -18.918           0.255  
I04  21950127.119        -479.133         -10.832           0.255  
I05  23740171.690       11984.307         216.921           0.255  
I06  22336975.402        2017.131          34.123           0.255  
I07  23673402.292        -843.556         -23.912           0.255  
> 2019 05 08 04 26 00.2688020  0  6                     
I02  20905932.881         299.085           0.508           0.255  
I03  20626616.127       -1074.242         -20.846           0.255  
I04  21950123.510        -479.568          -4.469           0.255  
I05  23740167.701       11995.308         218.304           0.255  
I06  22336970.198        2018.984          35.554           0.255  
I07  23673417.380        -844.438         -14.258           0.255  
> 2019 05 08 04 26 00.3188020  0  6                     
I02  20905932.123         299.424           5.638           0.255  
I03  20626615.357       -1075.247         -21.542           0.255  
I04  21950122.467        -480.072          -5.004           0.255  
I05  23740163.367       12006.283         219.247           0.255  
I06  22336971.206        2020.851          39.104           0.255  
I07  23673414.811        -845.364         -16.910           0.255  
> 2019 05 08 04 26 00.3688020  0  6                     
I02  20905934.372         299.681           7.102           0.255  
I03  20626614.153       -1076.284         -18.664           0.255  
I04  21950134.411        -480.543          -7.085           0.255  
I05  23740160.298       12017.213         220.118           0.255  
I06  22336968.514        2022.641          37.612           0.255  
I07  23673412.253        -846.219          -8.370           0.255  
> 2019 05 08 04 26 00.4188020  0  6                     
I02  20905933.435         299.854           2.285           0.255  
I03  20626616.437       -1077.293         -18.254           0.255  
I04  21950126.732        -480.988          -6.476           0.255  
I05  23740158.596       12028.178         217.544           0.255  
I06  22336969.441        2024.458          36.872           0.255  
I07  23673410.973        -847.177         -17.947           0.255  
> 2019 05 08 04 26 00.4688020  0  6                     
I02  20905932.709         300.029          -3.535           0.255  
I03  20626615.581       -1078.345         -22.402           0.255  
I04  21950126.475        -481.532          -7.294           0.255  
I05  23740156.181       12039.078         212.536           0.255  
I06  22336969.653        2026.246          35.985           0.255  
I07  23673411.685        -848.217         -27.455           0.255  
> 2019 05 08 04 26 00.5188020  0  6                     
I02  20905932.027         300.369           8.238           0.255  
I03  20626614.938       -1079.387         -23.844           0.255  
I04  21950124.636        -481.970          -5.598           0.255  
I05  23740153.549       12050.084         218.725           0.255  
I06  22336967.831        2028.086          37.871           0.255  
I07  23673411.487        -849.091         -17.959           0.255  
> 2019 05 08 04 26 00.5688020  0  6                     
I02  20905932.707         300.678           7.833           0.255  
I03  20626615.751       -1080.337         -15.928           0.255  
I04  21950119.247        -482.354          -5.052           0.255  
I05  23740151.513       12061.094         220.525           0.255  
I06  22336965.029        2029.948          38.628           0.255  
I07  23673410.323        -850.011         -25.924           0.255  
> 2019 05 08 04 26 00.6188020  0  6                     
I02  20905928.980         300.904           1.001           0.255  
I03  20626616.324       -1081.310         -17.988           0.255  
I04  21950119.011        -482.794          -6.826           0.255  
I05  23740147.368       12072.094         219.784           0.255  
I06  22336965.795        2031.797          38.365           0.255  
I07  23673412.429        -850.894         -24.481           0.255  
> 2019 05 08 04 26 00.6688020  0  6                     
I02  20905931.535         301.175           2.153           0.255  
I03  20626616.373       -1082.332         -22.526           0.255  
I04  21950134.130        -483.277          -5.243           0.255  
I05  23740144.468       12083.053         220.857           0.255  
I06  22336961.915        2033.631          37.106           0.255  
I07  23673414.774        -851.780         -22.167           0.255  
> 2019 05 08 04 26 00.7188020  0  6                     
I02  20905933.323         301.437           3.353           0.255  
I03  20626616.722       -1083.346         -22.766           0.255  
I04  21950126.980        -483.713          -1.574           0.255  
I05  23740142.160       12094.021         217.881           0.255  
I06  22336961.134        2035.480          37.190           0.255  
I07  23673412.352        -852.630         -17.766           0.255  
> 2019 05 08 04 26 00.7688020  0  6                     
I02  20905935.771         301.750           7.651           0.255  
I03  20626617.642       -1084.321         -17.920           0.255  
I04  21950122.021        -484.167          -6.413           0.255  
I05  23740137.206       12105.021         220.867           0.255  
I06  22336960.852        2037.342          40.032           0.255  
I07  23673415.338        -853.538         -20.934           0.255  
> 2019 05 08 04 26 00.8188020  0  6                     
I02  20905932.820         302.063           7.214           0.255  
I03  20626617.944       -1085.331         -21.731           0.255  
I04  21950133.830        -484.586          -9.497           0.255  
I05  23740135.753       12116.001         216.433           0.255  
I06  22336961.958        2039.196          39.913           0.255  
I07  23673415.302        -854.436         -18.650           0.255  
> 2019 05 08 04 26 00.8688020  0  6                     
I02  20905933.215         302.268           4.435           0.255  
I03  20626617.343       -1086.311         -17.229           0.255  
I04  21950127.671        -485.001          -4.308           0.255  
I05  23740133.079       12126.994         219.453           0.255  
I06  22336963.736        2040.999          38.733           0.255  
I07  23673419.007        -855.350         -11.921           0.255  
> 2019 05 08 04 26 00.9188020  0  6                     
I02  20905932.410         302.527           1.513           0.255  
I03  20626619.059       -1087.339         -20.514           0.255  
I04  21950122.528        -485.428          -5.297           0.255  
I05  23740129.548       12137.955         215.838           0.255  
I06  22336964.320        2042.827          36.469           0.255  
I07  23673403.047        -856.239         -19.808           0.255  
> 2019 05 08 04 26 00.9688020  0  6                     
I02  20905931.587         302.854           5.874           0.255  
I03  20626619.756       -1088.314         -18.517           0.255  
I04  21950131.463        -485.875          -5.074           0.255  
I05  23740128.162       12148.964         217.694           0.255  
I06  22336965.071        2044.698          39.329           0.255  
I07  23673405.402        -857.081         -20.195           0.255  
> 2019 05 08 04 26 01.0188020  0  6                     
I02  20905931.961         303.157           5.619           0.255  
I03  20626618.735       -1089.288         -15.368           0.255  
I04  21950126.777        -486.325          -6.893           0.255  
I05  23740122.968       12159.956         216.951           0.255  
I06  22336965.676        2046.584          40.698           0.255  
I07  23673405.209        -858.006         -27.156           0.255  
> 2019 05 08 04 26 01.0688020  0  6                     
I02  20905932.611         303.449           2.896           0.255  
I03  20626618.173       -1090.265         -18.162           0.255  
I04  21950126.036        -487.753        -277.255           0.255  
I05  23740121.209       12170.965         217.614           0.255  
I06  22336964.983        2048.807          19.125           0.255  
I07  23673406.632        -858.978         -25.501           0.255  
> 2019 05 08 04 26 01.1188020  0  6                     
I02  20905932.330         303.744           5.282           0.255  
I03  20626617.132       -1091.287         -20.772           0.255  
I04  21950124.572        -487.244         -13.262           0.255  
I05  23740118.129       12181.971         219.278           0.255  
I06  22336962.167        2050.252          34.975           0.255  
I07  23673409.888        -859.817         -19.212           0.255  
> 2019 05 08 04 26 01.1688020  0  6                     
I02  20905932.155         304.012           7.567           0.255  
I03  20626617.719       -1092.296         -20.264           0.255  
I04  21950124.008        -487.663         -11.394           0.255  
I05  23740116.815       12192.942         217.705           0.255  
I06  22336959.823        2052.110          37.602           0.255  
I07  23673409.151        -860.737         -23.462           0.255  
> 2019 05 08 04 26 01.2188020  0  6                     
I02  20905931.669         304.308          10.999           0.255  
I03  20626618.713       -1093.271         -18.823           0.255  
I04  21950122.633        -488.077          -6.958           0.255  
I05  23740112.735       12203.947         220.143           0.255  
I06  22336959.471        2053.966          37.064           0.255  
I07  23673410.615        -861.552         -18.248           0.255  
> 2019 05 08 04 26 01.2688020  0  6                     
I02  20905931.746         304.586          11.544           0.255  
I03  20626619.132       -1094.234         -17.685           0.255  
I04  21950118.594        -488.503          -9.946           0.255  
I05  23740109.766       12214.947         218.874           0.255  
I06  22336959.213        2055.835          37.741           0.255  
I07  23673413.930        -862.330         -11.087           0.255  
> 2019 05 08 04 26 01.3188020  0  6                     
I02  20905932.067         304.853           7.631           0.255  
I03  20626619.001       -1095.257         -23.796           0.255  
I04  21950128.808        -488.976         -12.018           0.255  
I05  23740108.577       12225.951         219.489           0.255  
I06  22336961.153        2057.694          35.868           0.255  
I07  23673414.253        -863.287         -14.278           0.255  
> 2019 05 08 04 26 01.3688020  0  6                     
I02  20905930.969         305.061           6.277           0.255  
I03  20626619.394       -1096.296         -20.993           0.255  
I04  21950123.672        -489.475         -14.587           0.255  
I05  23740105.785       12236.852         218.789           0.255  
I06  22336962.051        2059.473          38.186           0.255  
I07  23673413.896        -864.291         -16.116           0.255  
> 2019 05 08 04 26 01.4188020  0  6                     
I02  20905929.977         305.319           7.655           0.255  
I03  20626620.559       -1097.320         -20.620           0.255  
I04  21950122.423        -489.922          -9.165           0.255  
I05  23740103.495       12247.825         219.274           0.255  
I06  22336960.392        2061.310          40.280           0.255  
I07  23673414.001        -865.228         -17.751           0.255  
> 2019 05 08 04 26 01.4688020  0  6                     
I02  20905932.513         305.592          11.492           0.255  
I03  20626613.876       -1098.352         -18.239           0.255  
I04  21950131.754        -490.348         -10.331           0.255  
I05  23740099.929       12258.800         222.546           0.255  
I06  22336959.566        2063.103          37.318           0.255  
I07  23673416.294        -866.045         -13.801           0.255  
> 2019 05 08 04 26 01.5188020  0  6                     
I02  20905931.730         305.828           9.199           0.255  
I03  20626616.871       -1099.390         -23.412           0.255  
I04  21950130.844        -490.833          -9.073           0.255  
I05  23740100.858       12269.765         218.853           0.255  
I06  22336962.394        2064.922          33.863           0.255  
I07  23673415.747        -866.972          -9.457           0.255  
> 2019 05 08 04 26 01.5688020  0  6                     
I02  20905931.357         306.079           6.096           0.255  
I03  20626618.566       -1100.367         -22.938           0.255  
I04  21950126.030        -491.278         -15.328           0.255  
I05  23740096.359       12280.744         218.849           0.255  
I06  22336959.862        2066.765          34.255           0.255  
I07  23673415.575        -867.944         -12.280           0.255  
> 2019 05 08 04 26 01.6188020  0  6                     
I02  20905931.924         306.348           9.207           0.255  
I03  20626613.243       -1101.395         -25.875           0.255  
I04  21950121.264        -491.694          -8.634           0.255  
I05  23740092.423       12291.715         215.781           0.255  
I06  22336957.738        2068.601          33.773           0.255  
I07  23673415.433        -868.912         -16.866           0.255  
> 2019 05 08 04 26 01.6688020  0  6                     
I02  20905930.692         306.593          11.494           0.255  
I03  20626614.288       -1102.360         -16.770           0.255  
I04  21950121.072        -492.143          -4.283           0.255  
I05  23740087.199       12302.717         222.382           0.255  
I06  22336956.232        2070.434          38.025           0.255  
I07  23673418.469        -869.705         -10.931           0.255  
> 2019 05 08 04 26 01.7188020  0  6                     
I02  20905930.523         306.901           8.311           0.255  
I03  20626618.741       -1103.353         -17.633           0.255  
I04  21950120.498        -492.603          -4.620           0.255  
I05  23740084.981       12313.694         221.203           0.255  
I06  22336956.403        2072.294          39.431           0.255  
I07  23673403.569        -870.674         -18.990           0.255  
> 2019 05 08 04 26 01.7688020  0  6                     
I02  20905929.606         306.738         -12.179           0.255  
I03  20626614.566       -1104.366         -23.640           0.255  
I04  21950134.531        -493.032         -13.182           0.255  
I05  23740082.791       12324.706         219.790           0.255  
I06  22336958.516        2074.140          35.714           0.255  
I07  23673403.938        -871.485          -8.728           0.255  
> 2019 05 08 04 26 01.8188020  0  6                     
I02  20905929.362         307.454           6.913           0.255  
I03  20626619.223       -1105.347         -23.441           0.255  
I04  21950131.682        -493.477         -14.340           0.255  
I05  23740079.995       12335.657         215.760           0.255  
I06  22336955.634        2075.994          35.957           0.255  
I07  23673402.279        -872.549         -22.406           0.255  
> 2019 05 08 04 26 01.8688020  0  6                     
I02  20905933.053         307.752          10.182           0.255  
I03  20626613.826       -1106.361         -15.744           0.255  
I04  21950128.423        -493.875          -4.920           0.255  
I05  23740075.754       12346.659         222.913           0.255  
I06  22336951.794        2077.844          40.564           0.255  
I07  23673405.588        -873.366         -19.852           0.255  
> 2019 05 08 04 26 01.9188020  0  6                     
I02  20905932.343         308.020           9.030           0.255  
I03  20626618.133       -1107.304         -14.566           0.255  
I04  21950125.221        -494.286          -5.105           0.255  
I05  23740075.405       12357.694         224.310           0.255  
I06  22336953.265        2079.737          40.871           0.255  
I07  23673408.938        -874.265         -21.726           0.255  
> 2019 05 08 04 26 01.9688020  0  6                     
I02  20905933.467         308.315          11.576           0.255  
I03  20626620.025       -1108.302         -19.668           0.255  
I04  21950120.733        -494.680          -7.360           0.255  
I05  23740071.744       12368.688         222.458           0.255  
I06  22336953.620        2081.588          38.221           0.255  
I07  23673408.736        -875.106         -21.119           0.255  
> 2019 05 08 04 26 02.0188020  0  6                     
I02  20905931.591         308.621           6.849           0.255  
I03  20626614.125       -1109.297         -21.920           0.255  
I04  21950119.453        -495.122          -6.827           0.255  
I05  23740068.920       12379.679         216.365           0.255  
I06  22336953.872        2083.001          24.709           0.255  
I07  23673408.157        -875.959         -17.028           0.255  
> 2019 05 08 04 26 02.0688020  0  6                     
I02  20905930.537         308.885           1.173           0.255  
I03  20626618.099       -1110.271         -19.401           0.255  
I04  21950120.872        -495.595          -9.476           0.255  
I05  23740066.218       12390.668         218.482           0.255  
I06  22336953.403        2085.308          38.902           0.255  
I07  23673411.335        -876.819         -15.105           0.255  
> 2019 05 08 04 26 02.1188020  0  6                     
I02  20905931.306         309.170           2.621           0.255  
I03  20626620.991       -1111.223         -19.148           0.255  
I04  21950118.336        -495.961          -2.633           0.255  
I05  23740062.318       12401.688         218.360           0.255  
I06  22336950.675        2087.188          38.914           0.255  
I07  23673413.793        -877.717         -14.947           0.255  
> 2019 05 08 04 26 02.1688020  0  6                     
I02  20905930.521         309.515           8.205           0.255  
I03  20626617.679       -1112.215         -20.478           0.255  
I04  21950119.070        -496.411          -5.961           0.255  
I05  23740060.193       12412.711         219.954           0.255  
I06  22336951.705        2089.043          37.174           0.255  
I07  23673410.935        -878.617         -18.691           0.255  
> 2019 05 08 04 26 02.2188020  0  6                     
I02  20905929.997         309.777           7.315           0.255  
I03  20626612.885       -1113.213         -24.391           0.255  
I04  21950134.906        -496.861         -11.072           0.255  
I05  23740056.251       12423.717         221.588           0.255  
I06  22336949.631        2090.884          35.151           0.255  
I07  23673412.886        -879.470         -14.112           0.255  
> 2019 05 08 04 26 02.2688020  0  6                     
I02  20905931.896         310.084           8.881           0.255  
I03  20626616.275       -1114.196         -21.508           0.255  
I04  21950128.701        -497.267         -16.284           0.255  
I05  23740053.572       12434.697         219.362           0.255  
I06  22336948.493        2092.733          34.313           0.255  
I07  23673414.151        -880.332         -22.491           0.255  
> 2019 05 08 04 26 02.3188020  0  6                     
I02  20905930.449         310.406           8.835           0.255  
I03  20626619.968       -1115.155         -20.611           0.255  
I04  21950127.671        -497.661          -7.418           0.255  
I05  23740050.751       12445.751         220.939           0.255  
I06  22336950.223        2094.642          36.903           0.255  
I07  23673413.055        -881.209         -15.103           0.255  
> 2019 05 08 04 26 02.3688020  0  6                     
I02  20905929.840         310.709           8.346           0.255  
I03  20626612.701       -1116.136         -17.318           0.255  
I04  21950128.642        -498.082         -12.125           0.255  
I05  23740048.566       12456.731         221.186           0.255  
I06  22336951.763        2096.481          38.347           0.255  
I07  23673415.453        -882.047          -9.439           0.255  
> 2019 05 08 04 26 02.4188020  0  6                     
I02  20905930.305         310.939           0.528           0.255  
I03  20626618.807       -1117.162         -19.794           0.255  
I04  21950123.492        -498.566         -13.337           0.255  
I05  23740045.120       12467.693         216.746           0.255  
I06  22336951.835        2098.318          37.122           0.255  
I07  23673416.751        -882.984         -12.539           0.255  
> 2019 05 08 04 26 02.4688020  0  6                     
I02  20905928.793         311.140          -0.733           0.255  
I03  20626612.090       -1118.224         -23.541           0.255  
I04  21950126.213        -499.045         -12.524           0.255  
I05  23740042.573       12478.625         217.212           0.255  
I06  22336952.369        2100.077          30.018           0.255  
I07  23673417.791        -884.006         -27.885           0.255  
> 2019 05 08 04 26 02.5188020  0  6                     
I02  20905930.037         311.395           0.015           0.255  
I03  20626617.988       -1119.242         -23.128           0.255  
I04  21950122.452        -499.505         -11.464           0.255  
I05  23740041.120       12489.600         215.307           0.255  
I06  22336952.527        2101.909          32.328           0.255  
I07  23673401.835        -884.946         -22.292           0.255  
> 2019 05 08 04 26 02.5688020  0  6                     
I02  20905929.775         311.660           5.847           0.255  
I03  20626614.947       -1120.189         -17.808           0.255  
I04  21950132.449        -499.907         -13.806           0.255  
I05  23740038.416       12500.612         219.814           0.255  
I06  22336950.656        2103.798          38.087           0.255  
I07  23673405.949        -885.820         -22.318           0.255  
> 2019 05 08 04 26 02.6188020  0  6                     
I02  20905930.508         311.933           2.762           0.255  
I03  20626620.168       -1121.180         -17.494           0.255  
I04  21950125.368        -500.306          -6.226           0.255  
I05  23740034.948       12511.597         218.359           0.255  
I06  22336950.814        2105.649          37.044           0.255  
I07  23673410.933        -886.735         -20.793           0.255  
> 2019 05 08 04 26 02.6688020  0  6                     
I02  20905931.337         312.207           2.005           0.255  
I03  20626618.120       -1122.205         -18.925           0.255  
I04  21950121.312        -500.748         -10.962           0.255  
I05  23740033.175       12522.609         220.811           0.255  
I06  22336948.420        2107.324           2.842           0.255  
I07  23673411.908        -887.607         -19.259           0.255  
> 2019 05 08 04 26 02.7188020  0  6                     
I02  20905930.871         312.243          19.460           0.255  
I03  20626614.769       -1123.228         -21.499           0.255  
I04  21950121.590        -501.236         -13.344           0.255  
I05  23740031.336       12533.573         221.364           0.255  
I06  22336946.534        2108.911           8.969           0.255  
I07  23673417.369        -888.547         -29.321           0.255  
> 2019 05 08 04 26 02.7688020  0  6                     
I02  20905929.122         311.830         -25.282           0.255  
I03  20626619.208       -1124.228         -20.084           0.255  
I04  21950122.224        -501.644          -6.210           0.255  
I05  23740028.101       12544.583         224.477           0.255  
I06  22336943.612        2110.423          27.497           0.255  
I07  23673404.066        -889.340         -16.701           0.255  
> 2019 05 08 04 26 02.8188020  0  6                     
I02  20905929.439         313.056           8.057           0.255  
I03  20626613.974       -1125.193         -18.879           0.255  
I04  21950133.494        -502.041          -4.277           0.255  
I05  23740022.632       12555.563         222.893           0.255  
I06  22336945.343        2113.009          39.068           0.255  
I07  23673408.446        -890.223          -9.597           0.255  
> 2019 05 08 04 26 02.8688020  0  6                     
I02  20905930.449         313.321           7.091           0.255  
I03  20626620.179       -1126.187         -16.074           0.255  
I04  21950131.128        -502.486          -1.748           0.255  
I05  23740018.566       12566.530         221.924           0.255  
I06  22336943.733        2114.850          39.980           0.255  
I07  23673406.450        -891.151         -10.470           0.255  
> 2019 05 08 04 26 02.9188020  0  6                     
I02  20905929.112         313.585           3.320           0.255  
I03  20626618.322       -1127.200         -20.134           0.255  
I04  21950131.809        -502.940          -3.952           0.255  
I05  23740015.315       12577.530         218.531           0.255  
I06  22336942.395        2116.681          36.429           0.255  
I07  23673410.066        -892.044         -14.940           0.255  
> 2019 05 08 04 26 02.9688020  0  6                     
I02  20905928.832         313.824           4.434           0.255  
I03  20626614.709       -1128.195         -21.772           0.255  
I04  21950130.782        -504.158        -128.180           0.255  
I05  23740012.600       12588.544         219.398           0.255  
I06  22336940.410        2118.531          37.374           0.255  
I07  23673413.790        -892.949         -19.018           0.255  
> 2019 05 08 04 26 03.0188020  0  6                     
I02  20905931.649         314.178           8.321           0.255  
I03  20626621.689       -1129.186         -19.101           0.255  
I04  21950126.806        -503.751          88.842           0.255  
I05  23740012.500       12599.558         221.536           0.255  
I06  22336940.755        2120.418          38.861           0.255  
I07  23673417.394        -893.763         -10.082           0.255  
> 2019 05 08 04 26 03.0688020  0  6                     
I02  20905932.893         314.496          12.181           0.255  
I03  20626618.555       -1130.152         -20.005           0.255  
I04  21950123.955        -504.236          -4.858           0.255  
I05  23740008.116       12610.579         223.246           0.255  
I06  22336943.377        2122.263          35.077           0.255  
I07  23673418.359        -894.708         -16.393           0.255  
> 2019 05 08 04 26 03.1188020  0  6                     
I02  20905932.553         314.738           9.720           0.255  
I03  20626618.166       -1131.143         -21.449           0.255  
I04  21950133.142        -504.665          -6.897           0.255  
I05  23740006.217       12621.567         218.854           0.255  
I06  22336944.426        2124.131          35.172           0.255  
I07  23673403.015        -895.621         -18.286           0.255  
> 2019 05 08 04 26 03.1688020  0  6                     
I02  20905931.882         314.983           5.640           0.255  
I03  20626614.454       -1132.125         -20.523           0.255  
I04  21950126.873        -505.127         -15.575           0.255  
I05  23740001.244       12632.553         219.448           0.255  
I06  22336940.148        2125.985          36.004           0.255  
I07  23673404.874        -896.434         -11.236           0.255  
> 2019 05 08 04 26 03.2188020  0  6                     
I02  20905930.473         315.229           2.419           0.255  
I03  20626616.399       -1133.092         -19.901           0.255  
I04  21950124.691        -505.514          -6.081           0.255  
I05  23739998.344       12643.568         220.978           0.255  
I06  22336940.831        2127.830          37.831           0.255  
I07  23673408.774        -897.371         -14.690           0.255  
> 2019 05 08 04 26 03.2688020  0  6                     
I02  20905929.883         315.528           1.996           0.255  
I03  20626613.265       -1134.055         -18.217           0.255  
I04  21950127.476        -505.903          -4.892           0.255  
I05  23739996.012       12654.592         222.728           0.255  
I06  22336940.027        2129.700          36.720           0.255  
I07  23673409.862        -898.293         -15.504           0.255  
> 2019 05 08 04 26 03.3188020  0  6                     
I02  20905930.827         315.849           1.804           0.255  
I03  20626620.128       -1135.051         -17.571           0.255  
I04  21950122.977        -506.300          -2.646           0.255  
I05  23739992.871       12665.599         221.384           0.255  
I06  22336939.844        2131.568          37.290           0.255  
I07  23673417.274        -899.204         -29.271           0.255  
> 2019 05 08 04 26 03.3688020  0  6                     
I02  20905929.490         316.083           1.042           0.255  
I03  20626618.291       -1136.078         -17.252           0.255  
I04  21950120.434        -506.816          -3.062           0.255  
I05  23739990.698       12676.547         222.307           0.255  
I06  22336940.729        2133.369          36.718           0.255  
I07  23673404.841        -900.073         -20.102           0.255  
> 2019 05 08 04 26 03.4188020  0  6                     
I02  20905927.594         316.359           3.406           0.255  
I03  20626614.925       -1137.095         -20.550           0.255  
I04  21950121.513        -507.288          -2.314           0.255  
I05  23739990.499       12687.520         220.982           0.255  
I06  22336941.308        2135.201          36.998           0.255  
I07  23673405.772        -900.955         -24.945           0.255  
> 2019 05 08 04 26 03.4688020  0  6                     
I02  20905927.767         316.636           7.010           0.255  
I03  20626615.404       -1138.139         -21.293           0.255  
I04  21950138.669        -507.774          -8.480           0.255  
I05  23739987.741       12698.493         223.134           0.255  
I06  22336939.623        2137.028          37.886           0.255  
I07  23673407.371        -901.847         -22.278           0.255  
> 2019 05 08 04 26 03.5188020  0  6                     
I02  20905926.768         316.937           2.136           0.255  
I03  20626621.130       -1139.076         -22.152           0.255  
I04  21950119.992        -508.099          -8.696           0.255  
I05  23739983.517       12709.523         219.420           0.255  
I06  22336937.805        2138.933          36.617           0.255  
I07  23673409.275        -902.706         -20.535           0.255  
> 2019 05 08 04 26 03.5688020  0  6                     
I02  20905929.712         317.263           7.832           0.255  
I03  20626617.968       -1139.971         -15.799           0.255  
I04  21950136.222        -508.486         -12.138           0.255  
I05  23739981.385       12720.603         222.395           0.255  
I06  22336938.045        2140.854          38.407           0.255  
I07  23673411.021        -903.636         -22.420           0.255  
> 2019 05 08 04 26 03.6188020  0  6                     
I02  20905927.203         317.565           7.226           0.255  
I03  20626617.500       -1140.940         -21.366           0.255  
I04  21950137.171        -508.827          -5.748           0.255  
I05  23739978.971       12731.645         224.389           0.255  
I06  22336937.020        2142.952          50.567           0.255  
I07  23673409.856        -904.481         -23.488           0.255  
> 2019 05 08 04 26 03.6688020  0  6                     
I02  20905927.692         317.904           9.995           0.255  
I03  20626616.020       -1141.903         -17.191           0.255  
I04  21950118.623        -509.280          -2.934           0.255  
I05  23739974.338       12742.655         224.525           0.255  
I06  22336935.956        2144.625          37.767           0.255  
I07  23673417.154        -905.267         -14.831           0.255  
> 2019 05 08 04 26 03.7188020  0  6                     
I02  20905928.747         318.195           8.215           0.255  
I03  20626615.967       -1142.874         -21.076           0.255  
I04  21950131.857        -509.702          -4.823           0.255  
I05  23739970.708       12753.673         220.135           0.255  
I06  22336935.472        2146.516          37.571           0.255  
I07  23673404.329        -906.107         -14.852           0.255  
> 2019 05 08 04 26 03.7688020  0  6                     
I02  20905929.408         318.497           7.970           0.255  
I03  20626613.521       -1143.808         -16.839           0.255  
I04  21950132.190        -510.106          -8.840           0.255  
I05  23739970.319       12764.726         222.675           0.255  
I06  22336934.688        2148.400          37.965           0.255  
I07  23673408.385        -906.975         -16.627           0.255  
> 2019 05 08 04 26 03.8188020  0  6                     
I02  20905928.709         318.798           8.679           0.255  
I03  20626613.726       -1144.767         -21.870           0.255  
I04  21950127.954        -510.315         126.331           0.255  
I05  23739969.719       12775.750         220.111           0.255  
I06  22336934.438        2150.262          36.300           0.255  
I07  23673409.250        -907.875         -17.618           0.255  
> 2019 05 08 04 26 03.8688020  0  6                     
I02  20905928.214         319.124          12.504           0.255  
I03  20626619.889       -1145.709         -15.971           0.255  
I04  21950124.444        -510.865          -4.498           0.255  
I05  23739965.993       12786.792         223.877           0.255  
I06  22336935.135        2152.165          40.229           0.255  
I07  23673413.129        -908.739         -18.630           0.255  
> 2019 05 08 04 26 03.9188020  0  6                     
I02  20905926.468         319.437           8.802           0.255  
I03  20626620.085       -1146.689         -20.775           0.255  
I04  21950126.290        -511.819        -154.729           0.255  
I05  23739964.112       12797.833         221.012           0.255  
I06  22336927.293        2154.040          38.172           0.255  
I07  23673417.332        -909.555         -20.347           0.255  
> 2019 05 08 04 26 03.9688020  0  6                     
I02  20905928.477         319.750           9.742           0.255  
I03  20626619.029       -1147.601         -17.903           0.255  
I04  21950122.411        -511.713          -9.938           0.255  
I05  23739961.690       12808.871         222.924           0.255  
I06  22336926.652        2155.963          38.464           0.255  
I07  23673402.534        -910.403         -24.143           0.255  
> 2019 05 08 04 26 04.0188020  0  6                     
I02  20905928.082         320.096           6.776           0.255  
I03  20626618.241       -1148.587         -22.668           0.255  
I04  21950121.457        -512.078         -14.920           0.255  
I05  23739958.472       12819.919         219.076           0.255  
I06  22336928.073        2157.867          36.754           0.255  
I07  23673411.805        -911.134         -13.357           0.255  
> 2019 05 08 04 26 04.0688020  0  6                     
I02  20905926.975         320.407           8.015           0.255  
I03  20626620.277       -1149.544         -20.198           0.255  
I04  21950138.054        -512.504         -16.711           0.255  
I05  23739953.796       12830.918         219.016           0.255  
I06  22336931.015        2159.719          34.204           0.255  
I07  23673412.169        -912.124         -19.685           0.255  
> 2019 05 08 04 26 04.1188020  0  6                     
I02  20905926.777         320.630           3.343           0.255  
I03  20626619.663       -1150.498         -20.121           0.255  
I04  21950121.314        -512.837          -7.944           0.255  
I05  23739949.500       12841.947         218.086           0.255  
I06  22336930.764        2161.585          33.775           0.255  
I07  23673414.785        -913.010         -21.136           0.255  
> 2019 05 08 04 26 04.1688020  0  6                     
I02  20905927.673         320.928           3.769           0.255  
I03  20626618.942       -1151.459         -20.004           0.255  
I04  21950123.334        -513.228           0.473           0.255  
I05  23739948.267       12852.967         221.375           0.255  
I06  22336929.162        2163.457          37.094           0.255  
I07  23673401.761        -913.872         -22.167           0.255  
> 2019 05 08 04 26 04.2188020  0  6                     
I02  20905928.592         321.259           8.869           0.255  
I03  20626619.053       -1152.418         -19.182           0.255  
I04  21950119.001        -513.623          -4.946           0.255  
I05  23739944.762       12864.029         224.239           0.255  
I06  22336931.849        2165.368          40.582           0.255  
I07  23673405.629        -914.609          -9.742           0.255  
> 2019 05 08 04 26 04.2688020  0  6                     
I02  20905929.712         321.581           8.450           0.255  
I03  20626621.177       -1153.373         -20.227           0.255  
I04  21950131.877        -514.008          -8.695           0.255  
I05  23739941.874       12875.046         222.215           0.255  
I06  22336932.762        2167.238          36.920           0.255  
I07  23673411.012        -915.462          -7.184           0.255  
> 2019 05 08 04 26 04.3188020  0  6                     
I02  20905925.898         321.831          -0.627           0.255  
I03  20626614.435       -1154.327         -18.880           0.255  
I04  21950127.621        -514.372          -5.117           0.255  
I05  23739939.292       12886.059         217.520           0.255  
I06  22336934.783        2169.111          35.004           0.255  
I07  23673415.656        -916.359         -16.987           0.255  
> 2019 05 08 04 26 04.3688020  0  6                     
I02  20905928.018         322.166           4.226           0.255  
I03  20626613.887       -1155.382         -17.132           0.255  
I04  21950127.396        -514.841          -1.418           0.255  
I05  23739938.172       12897.042         220.691           0.255  
I06  22336932.948        2170.940          37.821           0.255  
I07  23673418.461        -917.335         -19.798           0.255  
> 2019 05 08 04 26 04.4188020  0  6                     
I02  20905926.691         322.451           7.901           0.255  
I03  20626613.971       -1156.375         -16.795           0.255  
I04  21950128.774        -515.299          -0.742           0.255  
I05  23739934.409       12908.045         224.496           0.255  
I06  22336936.007        2172.800          37.861           0.255  
I07  23673402.855        -918.209         -15.697           0.255  
> 2019 05 08 04 26 04.4688020  0  6                     
I02  20905926.597         322.682           2.239           0.255  
I03  20626614.799       -1157.371         -19.321           0.255  
I04  21950133.293        -515.813          -8.814           0.255  
I05  23739931.345       12919.032         223.100           0.255  
I06  22336930.387        2174.633          36.906           0.255  
I07  23673406.441        -919.118         -18.686           0.255  
> 2019 05 08 04 26 04.5188020  0  6                     
I02  20905927.589         322.936           1.322           0.255  
I03  20626613.935       -1158.384         -20.398           0.255  
I04  21950134.552        -516.234          -8.225           0.255  
I05  23739931.676       12930.004         219.507           0.255  
I06  22336930.580        2176.461          35.074           0.255  
I07  23673411.871        -920.036         -23.062           0.255  
> 2019 05 08 04 26 04.5688020  0  6                     
I02  20905930.181         323.246           6.428           0.255  
I03  20626613.663       -1159.396         -24.228           0.255  
I04  21950136.875        -516.682          -9.991           0.255  
I05  23739927.182       12941.015         219.498           0.255  
I06  22336929.302        2178.663         123.852           0.255  
I07  23673409.894        -920.950         -13.381           0.255  
> 2019 05 08 04 26 04.6188020  0  6                     
I02  20905928.341         323.504           6.205           0.255  
I03  20626617.947       -1160.357         -21.729           0.255  
I04  21950119.838        -517.099          -7.065           0.255  
I05  23739924.363       12952.023         218.986           0.255  
I06  22336929.901        2180.208          37.593           0.255  
I07  23673416.292        -921.835         -18.426           0.255  
> 2019 05 08 04 26 04.6688020  0  6                     
I02  20905928.380         323.787           9.323           0.255  
I03  20626620.878       -1161.316         -14.863           0.255  
I04  21950136.961        -517.032         -39.063           0.255  
I05  23739920.760       12963.033         221.787           0.255  
I06  22336927.344        2182.143         107.607           0.255  
I07  23673403.032        -922.737         -13.249           0.255  
> 2019 05 08 04 26 04.7188020  0  6                     
I02  20905928.345         324.071           8.714           0.255  
I03  20626621.785       -1162.317         -18.291           0.255  
I04  21950133.277        -517.064           2.147           0.255  
I05  23739916.034       12974.027         218.605           0.255  
I06  22336925.916        2183.920          61.939           0.255  
I07  23673407.526        -923.620         -19.611           0.255  
> 2019 05 08 04 26 04.7688020  0  6                     
I02  20905927.962         324.331           7.301           0.255  
I03  20626622.165       -1163.314         -18.506           0.255  
I04  21950135.734        -519.371         -62.282           0.255  
I05  23739914.150       12985.027         219.744           0.255  
I06  22336925.139        2184.188        -196.858           0.255  
I07  23673415.990        -924.526         -17.197           0.255  
> 2019 05 08 04 26 04.8188020  0  6                     
I02  20905927.110         324.562           3.055           0.255  
I03  20626613.182       -1164.341         -22.496           0.255  
I04  21950119.360        -519.283          11.184           0.255  
I05  23739912.937       12996.005         217.301           0.255  
I06  22336922.682        2187.373          93.260           0.255  
I07  23673404.747        -925.418         -20.226           0.255  
> 2019 05 08 04 26 04.8688020  0  6                     
I02  20905929.693         324.832           4.388           0.255  
I03  20626614.468       -1165.317         -13.681           0.255  
I04  21950135.709        -519.602          -3.280           0.255  
I05  23739907.372       13007.001         223.917           0.255  
I06  22336924.038        2190.017         157.525           0.255  
I07  23673409.732        -926.298         -11.109           0.255  
> 2019 05 08 04 26 04.9188020  0  6                     
I02  20905929.719         325.150           6.943           0.255  
I03  20626618.857       -1166.283         -16.077           0.255  
I04  21950134.358        -519.658          -6.386           0.255  
I05  23739904.794       13018.021         221.760           0.255  
I06  22336922.410        2191.838          50.961           0.255  
I07  23673409.543        -927.127          -9.921           0.255  
> 2019 05 08 04 26 04.9688020  0  6                     
I02  20905929.209         325.474           5.995           0.255  
I03  20626613.443       -1167.291         -19.193           0.255  
I04  21950135.027        -520.107          -4.810           0.255  
I05  23739905.341       13029.034         220.761           0.255  
I06  22336921.304        2193.141          36.451           0.255  
I07  23673413.894        -928.050         -18.284           0.255  
> 2019 05 08 04 26 05.0188020  0  6                     
I02  20905928.632         325.756           2.791           0.255  
I03  20626614.517       -1168.269         -20.362           0.255  
I04  21950118.783        -520.551         -14.033           0.255  
I05  23739901.927       13040.050         221.004           0.255  
I06  22336919.413        2195.006          36.173           0.255  
I07  23673417.990        -928.954         -16.949           0.255  
> 2019 05 08 04 26 05.0688020  0  6                     
I02  20905930.756         326.034           4.380           0.255  
I03  20626617.221       -1169.228         -18.283           0.255  
I04  21950133.518        -520.975         -10.610           0.255  
I05  23739899.744       13051.046         221.387           0.255  
I06  22336917.219        2196.864          38.496           0.255  
I07  23673405.281        -929.825         -23.478           0.255  
> 2019 05 08 04 26 05.1188020  0  6                     
I02  20905929.464         326.337           7.536           0.255  
I03  20626620.715       -1170.192         -17.073           0.255  
I04  21950128.646        -521.370          -9.361           0.255  
I05  23739896.147       13062.057         220.553           0.255  
I06  22336918.290        2198.747          39.348           0.255  
I07  23673408.575        -930.674         -19.137           0.255  
> 2019 05 08 04 26 05.1688020  0  6                     
I02  20905925.605         326.651           6.729           0.255  
I03  20626620.104       -1171.157         -16.665           0.255  
I04  21950129.563        -521.805         -11.734           0.255  
I05  23739892.726       13073.104         220.488           0.255  
I06  22336921.386        2200.613          37.393           0.255  
I07  23673417.390        -931.556         -19.336           0.255  
> 2019 05 08 04 26 05.2188020  0  6                     
I02  20905926.800         326.944           4.264           0.255  
I03  20626621.535       -1172.156         -22.319           0.255  
I04  21950126.328        -522.160         -12.453           0.255  
I05  23739889.341       13084.131         219.022           0.255  
I06  22336920.010        2202.489          36.118           0.255  
I07  23673406.552        -932.422         -21.294           0.255  
> 2019 05 08 04 26 05.2688020  0  6                     
I02  20905926.716         327.270           9.169           0.255  
I03  20626616.380       -1173.090         -20.628           0.255  
I04  21950127.724        -522.543          -5.541           0.255  
I05  23739885.001       13095.176         222.182           0.255  
I06  22336917.755        2204.395          37.703           0.255  
I07  23673410.514        -933.325         -15.441           0.255  
> 2019 05 08 04 26 05.3188020  0  6                     
I02  20905926.496         327.610           9.595           0.255  
I03  20626618.241       -1174.023         -16.567           0.255  
I04  21950128.354        -522.958          -5.430           0.255  
I05  23739883.936       13106.233         224.075           0.255  
I06  22336921.775        2206.309          38.411           0.255  
I07  23673418.604        -934.074          -7.585           0.255  
> 2019 05 08 04 26 05.3688020  0  6                     
I02  20905927.227         327.867          10.977           0.255  
I03  20626620.559       -1175.052         -18.396           0.255  
I04  21950129.470        -523.392          -1.381           0.255  
I05  23739879.684       13117.197         222.403           0.255  
I06  22336919.653        2208.116          37.803           0.255  
I07  23673406.837        -935.003         -11.952           0.255  
> 2019 05 08 04 26 05.4188020  0  6                     
I02  20905924.792         328.108           8.889           0.255  
I03  20626613.073       -1176.061         -22.157           0.255  
I04  21950128.070        -523.863          -4.946           0.255  
I05  23739877.976       13128.192         219.782           0.255  
I06  22336920.296        2209.934          36.632           0.255  
I07  23673410.330        -935.964         -20.708           0.255  
> 2019 05 08 04 26 05.4688020  0  6                     
I02  20905924.513         328.320           4.687           0.255  
I03  20626616.306       -1177.068         -22.262           0.255  
I04  21950130.669        -524.312          -5.742           0.255  
I05  23739874.640       13139.142         218.850           0.255  
I06  22336918.866        2211.744          34.004           0.255  
I07  23673415.264        -936.910         -19.504           0.255  
> 2019 05 08 04 26 05.5188020  0  6                     
I02  20905922.033         328.635           6.643           0.255  
I03  20626622.278       -1178.099         -18.454           0.255  
I04  21950135.749        -524.753          -5.259           0.255  
I05  23739872.006       13150.139         220.453           0.255  
I06  22336916.775        2213.594          36.880           0.255  
I07  23673404.969        -937.735         -15.055           0.255  
> 2019 05 08 04 26 05.5688020  0  6                     
I02  20905925.980         328.956          10.156           0.255  
I03  20626616.859       -1179.062         -17.993           0.255  
I04  21950132.391        -525.164          -7.295           0.255  
I05  23739868.851       13161.159         222.737           0.255  
I06  22336916.036        2215.468          37.316           0.255  
I07  23673412.259        -938.572         -14.018           0.255  
> 2019 05 08 04 26 05.6188020  0  6                     
I02  20905924.796         329.681         111.798           0.255  
I03  20626618.052       -1180.047         -20.414           0.255  
I04  21950131.575        -525.591          -9.700           0.255  
I05  23739866.528       13172.180         218.306           0.255  
I06  22336916.743        2217.179          26.250           0.255  
I07  23673415.994        -939.456         -12.417           0.255  
> 2019 05 08 04 26 05.6688020  0  6                     
I02  20905925.239         328.547        -172.292           0.255  
I03  20626621.693       -1181.046         -19.340           0.255  
I04  21950129.992        -526.031         -11.928           0.255  
I05  23739863.945       13183.172         219.029           0.255  
I06  22336915.124        2219.066          29.322           0.255  
I07  23673407.535        -940.422         -21.199           0.255  
> 2019 05 08 04 26 05.7188020  0  6                     
I02  20905928.785         329.754           4.361           0.255  
I03  20626615.419       -1182.005         -17.663           0.255  
I04  21950127.018        -526.432          -6.306           0.255  
I05  23739860.230       13194.184         219.411           0.255  
I06  22336913.152        2221.040          37.464           0.255  
I07  23673410.843        -941.316         -22.054           0.255  
> 2019 05 08 04 26 05.7688020  0  6                     
I02  20905929.235         330.071           7.488           0.255  
I03  20626618.248       -1182.979         -14.652           0.255  
I04  21950125.290        -526.851          -3.424           0.255  
I05  23739860.139       13205.194         222.191           0.255  
I06  22336913.828        2222.913          38.860           0.255  
I07  23673416.964        -942.107          -1.783           0.255  
> 2019 05 08 04 26 05.8188020  0  6                     
I02  20905928.238         330.415           7.496           0.255  
I03  20626621.645       -1183.982         -18.157           0.255  
I04  21950124.513        -527.251          -2.317           0.255  
I05  23739857.854       13216.228         222.895           0.255  
I06  22336913.207        2224.765          38.189           0.255  
I07  23673407.088        -943.028          -9.890           0.255  
> 2019 05 08 04 26 05.8688020  0  6                     
I02  20905926.218         330.405           4.813           0.255  
I03  20626618.510       -1184.988         -20.545           0.255  
I04  21950125.119        -527.713          -8.131           0.255  
I05  23739854.700       13227.223         225.385           0.255  
I06  22336915.066        2225.381        -211.577           0.255  
I07  23673409.256        -943.923         -16.193           0.255  
> 2019 05 08 04 26 05.9188020  0  6                     
I02  20905925.697         330.926           7.730           0.255  
I03  20626613.609       -1185.979         -22.471           0.255  
I04  21950126.073        -528.087          -9.487           0.255  
I05  23739853.521       13238.248         219.748           0.255  
I06  22336915.036        2228.435          34.906           0.255  
I07  23673415.042        -944.799         -20.551           0.255  
> 2019 05 08 04 26 05.9688020  0  6                     
I02  20905926.861         331.216           8.324           0.255  
I03  20626618.090       -1186.930         -17.133           0.255  
I04  21950125.170        -528.490          -9.152           0.255  
I05  23739848.778       13249.265         222.771           0.255  
I06  22336912.840        2230.328          38.124           0.255  
I07  23673402.260        -945.641          -6.530           0.255  
> 2019 05 08 04 26 06.0188020  0  6                     
I02  20905929.301         331.526           7.225           0.255  
I03  20626613.374       -1187.902         -17.764           0.255  
I04  21950125.322        -528.883          -8.100           0.255  
I05  23739844.594       13260.287         224.104           0.255  
I06  22336911.174        2232.216          39.870           0.255  
I07  23673410.226        -946.520          -9.218           0.255  
> 2019 05 08 04 26 06.0688020  0  6                     
I02  20905927.839         331.833           5.659           0.255  
I03  20626615.770       -1188.877         -19.969           0.255  
I04  21950121.752        -529.320          -8.858           0.255  
I05  23739840.617       13271.314         221.643           0.255  
I06  22336912.585        2234.085          38.191           0.255  
I07  23673417.763        -947.401         -14.656           0.255  
> 2019 05 08 04 26 06.1188020  0  6                     
I02  20905924.023         332.134           3.201           0.255  
I03  20626619.159       -1189.854         -20.588           0.255  
I04  21950126.702        -529.762         -13.775           0.255  
I05  23739839.476       13282.322         218.722           0.255  
I06  22336911.425        2235.935          35.855           0.255  
I07  23673404.643        -948.304         -24.244           0.255  
> 2019 05 08 04 26 06.1688020  0  6                     
I02  20905924.562         332.429           4.553           0.255  
I03  20626622.770       -1190.846         -19.702           0.255  
I04  21950126.219        -530.165          -8.953           0.255  
I05  23739837.078       13293.319         221.886           0.255  
I06  22336910.726        2237.799          34.980           0.255  
I07  23673409.488        -949.172         -25.809           0.255  
> 2019 05 08 04 26 06.2188020  0  6                     
I02  20905926.517         332.725           9.547           0.255  
I03  20626616.159       -1191.816         -17.187           0.255  
I04  21950126.327        -530.537          -1.399           0.255  
I05  23739834.579       13304.364         224.511           0.255  
I06  22336909.950        2239.677          37.436           0.255  
I07  23673413.779        -950.132         -31.611           0.255  
> 2019 05 08 04 26 06.2688020  0  6                     
I02  20905926.637         333.036           9.558           0.255  
I03  20626620.573       -1192.779         -18.055           0.255  
I04  21950124.019        -530.969          -6.335           0.255  
I05  23739830.036       13315.374         224.259           0.255  
I06  22336907.652        2241.547          36.470           0.255  
I07  23673404.587        -950.947         -16.421           0.255  
> 2019 05 08 04 26 06.3188020  0  6                     
I02  20905926.550         333.271           2.772           0.255  
I03  20626614.081       -1193.763         -18.114           0.255  
I04  21950124.164        -531.409          -7.721           0.255  
I05  23739828.759       13326.379         221.701           0.255  
I06  22336909.995        2243.424          37.442           0.255  
I07  23673409.291        -951.847         -24.242           0.255  
> 2019 05 08 04 26 06.3688020  0  6                     
I02  20905925.465         333.487           2.187           0.255  
I03  20626616.023       -1194.771         -16.326           0.255  
I04  21950124.431        -531.938         -13.016           0.255  
I05  23739825.971       13337.333         221.024           0.255  
I06  22336910.542        2245.229          37.340           0.255  
I07  23673413.499        -952.743         -21.569           0.255  
> 2019 05 08 04 26 06.4188020  0  6                     
I02  20905926.690         333.770           4.590           0.255  
I03  20626621.745       -1195.809         -21.351           0.255  
I04  21950123.911        -532.316          -8.529           0.255  
I05  23739823.706       13348.345         220.513           0.255  
I06  22336909.834        2247.053          38.573           0.255  
I07  23673419.032        -953.644         -16.125           0.255  
> 2019 05 08 04 26 06.4688020  0  6                     
I02  20905925.909         334.064           5.969           0.255  
I03  20626614.712       -1196.818         -18.609           0.255  
I04  21950121.230        -532.763          -6.939           0.255  
I05  23739819.317       13359.335         221.840           0.255  
I06  22336910.844        2248.897          36.693           0.255  
I07  23673406.011        -954.571         -18.685           0.255  
> 2019 05 08 04 26 06.5188020  0  6                     
I02  20905924.520         334.326           3.486           0.255  
I03  20626620.245       -1197.795         -17.628           0.255  
I04  21950124.143        -531.807         117.647           0.255  
I05  23739818.503       13370.349         220.405           0.255  
I06  22336907.818        2250.754          37.072           0.255  
I07  23673411.488        -955.486         -14.261           0.255  
> 2019 05 08 04 26 06.5688020  0  6                     
I02  20905922.983         334.598           4.396           0.255  
I03  20626614.618       -1198.752         -18.459           0.255  
I04  21950125.338        -533.604          -9.919           0.255  
I05  23739815.595       13381.385         223.393           0.255  
I06  22336907.372        2252.601          36.497           0.255  
I07  23673417.933        -956.391         -14.271           0.255  
> 2019 05 08 04 26 06.6188020  0  6                     
I02  20905923.808         334.846          -0.580           0.255  
I03  20626618.174       -1199.746         -18.517           0.255  
I04  21950123.401        -534.084         -11.916           0.255  
I05  23739812.391       13392.376         221.907           0.255  
I06  22336907.911        2254.455          36.411           0.255  
I07  23673405.832        -957.275         -21.733           0.255  
> 2019 05 08 04 26 06.6688020  0  6                     
I02  20905924.098         335.292          30.917           0.255  
I03  20626623.524       -1200.738         -15.527           0.255  
I04  21950120.967        -534.898         -20.624           0.255  
I05  23739811.529       13403.383         224.899           0.255  
I06  22336908.508        2256.326          40.826           0.255  
I07  23673416.584        -958.076          -9.521           0.255  
> 2019 05 08 04 26 06.7188020  0  6                     
I02  20905922.686         335.477           6.213           0.255  
I03  20626619.625       -1201.699         -15.244           0.255  
I04  21950122.543        -534.871          -5.936           0.255  
I05  23739808.027       13414.421         224.138           0.255  
I06  22336906.674        2258.179          37.985           0.255  
I07  23673406.481        -959.011         -18.631           0.255  
> 2019 05 08 04 26 06.7688020  0  6                     
I02  20905924.419         335.765           5.768           0.255  
I03  20626619.486       -1202.688         -21.662           0.255  
I04  21950121.070        -535.288          -5.459           0.255  
I05  23739805.662       13425.438         221.611           0.255  
I06  22336908.729        2260.051          37.212           0.255  
I07  23673413.745        -959.828         -10.928           0.255  
> 2019 05 08 04 26 06.8188020  0  6                     
I02  20905924.796         336.035           5.879           0.255  
I03  20626616.467       -1203.686         -22.772           0.255  
I04  21950136.841        -535.744         -13.554           0.255  
I05  23739805.918       13436.451         220.398           0.255  
I06  22336908.703        2261.899          35.777           0.255  
I07  23673403.395        -960.714         -14.480           0.255  
> 2019 05 08 04 26 06.8688020  0  6                     
I02  20905924.953         335.406         -42.129           0.255  
I03  20626621.852       -1204.705         -19.161           0.255  
I04  21950133.985        -536.229         141.259           0.255  
I05  23739800.320       13447.430         221.971           0.255  
I06  22336906.536        2263.736          40.710           0.255  
I07  23673410.482        -961.608         -11.703           0.255  
> 2019 05 08 04 26 06.9188020  0  6                     
I02  20905922.922         336.614           9.646           0.255  
I03  20626618.027       -1205.671         -17.663           0.255  
I04  21950136.673        -536.557          -2.165           0.255  
I05  23739797.174       13458.472         224.364           0.255  
I06  22336907.440        2265.623          40.546           0.255  
I07  23673416.832        -962.445         -11.464           0.255  
> 2019 05 08 04 26 06.9688020  0  6                     
I02  20905921.785         336.941           6.771           0.255  
I03  20626618.804       -1206.631         -17.702           0.255  
I04  21950122.650        -536.985          -6.623           0.255  
I05  23739795.896       13469.512         224.311           0.255  
I06  22336903.938        2267.477          37.522           0.255  
I07  23673407.451        -963.305          -2.580           0.255  
> 2019 05 08 04 26 07.0188020  0  6                     
I02  20905924.492         337.206           2.253           0.255  
I03  20626617.799       -1207.607         -20.093           0.255  
I04  21950122.708        -537.386          -8.500           0.255  
I05  23739791.109       13480.509         221.529           0.255  
I06  22336902.940        2269.348          36.487           0.255  
I07  23673411.155        -964.240         -15.990           0.255  
> 2019 05 08 04 26 07.0688020  0  6                     
I02  20905923.286         337.545           5.710           0.255  
I03  20626622.759       -1208.624         -22.083           0.255  
I04  21950124.090        -537.842          -8.133           0.255  
I05  23739789.594       13491.528         221.445           0.255  
I06  22336902.705        2271.195          35.894           0.255  
I07  23673418.438        -965.162         -20.538           0.255  
> 2019 05 08 04 26 07.1188020  0  6                     
I02  20905924.822         337.851           6.231           0.255  
I03  20626617.232       -1209.592         -19.614           0.255  
I04  21950122.931        -538.249          -5.922           0.255  
I05  23739785.684       13502.559         221.607           0.255  
I06  22336902.385        2273.084          36.970           0.255  
I07  23673406.949        -966.016         -18.665           0.255  
> 2019 05 08 04 26 07.1688020  0  6                     
I02  20905923.789         338.140           7.407           0.255  
I03  20626617.594       -1210.540         -17.983           0.255  
I04  21950123.397        -538.672          -8.094           0.255  
I05  23739782.431       13513.601         222.966           0.255  
I06  22336901.699        2274.982          39.585           0.255  
I07  23673409.638        -966.861          -9.671           0.255  
> 2019 05 08 04 26 07.2188020  0  6                     
I02  20905924.031         338.442           6.845           0.255  
I03  20626613.920       -1211.542         -21.419           0.255  
I04  21950120.663        -539.110         -11.664           0.255  
I05  23739780.602       13524.611         219.782           0.255  
I06  22336901.299        2276.829          37.692           0.255  
I07  23673438.907        -967.663          -8.484           0.255  
> 2019 05 08 04 26 07.2688020  0  6                     
I02  20905925.589         338.706           6.455           0.255  
I03  20626620.263       -1212.486         -20.431           0.255  
I04  21950120.626        -539.486         -11.759           0.255  
I05  23739778.218       13535.610         219.097           0.255  
I06  22336900.425        2278.674          34.508           0.255  
I07  23673475.815        -968.669         -13.685           0.255  
> 2019 05 08 04 26 07.3188020  0  6                     
I02  20905925.046         338.976           5.891           0.255  
I03  20626617.154       -1213.482         -21.306           0.255  
I04  21950120.961        -539.873          -8.611           0.255  
I05  23739771.662       13546.617         218.870           0.255  
I06  22336900.784        2280.546          37.422           0.255  
I07  23673484.699        -969.572         -13.449           0.255  
> 2019 05 08 04 26 07.3688020  0  6                     
I02  20905924.032         339.219           7.431           0.255  
I03  20626621.765       -1214.475         -14.541           0.255  
I04  21950121.897        -540.353          -0.550           0.255  
I05  23739770.080       13557.593         223.881           0.255  
I06  22336899.797        2282.371          39.846           0.255  
I07  23673477.916        -970.452          -8.864           0.255  
> 2019 05 08 04 26 07.4188020  0  6                     
I02  20905924.505         339.518           6.184           0.255  
I03  20626617.016       -1215.489         -19.840           0.255  
I04  21950123.516        -540.826         -11.004           0.255  
I05  23739768.151       13568.605         220.925           0.255  
I06  22336899.900        2284.209          38.027           0.255  
I07  23673482.129        -971.343         -17.696           0.255  
> 2019 05 08 04 26 07.4688020  0  6                     
I02  20905922.574         339.769           2.713           0.255  
I03  20626616.244       -1216.523         -21.759           0.255  
I04  21950124.207        -541.288         -15.637           0.255  
I05  23739764.623       13579.570         217.495           0.255  
I06  22336900.527        2286.020          34.602           0.255  
I07  23673488.352        -972.222         -12.947           0.255  
> 2019 05 08 04 26 07.5188020  0  6                     
I02  20905921.488         340.016           4.205           0.255  
I03  20626622.008       -1217.559         -25.405           0.255  
I04  21950128.017        -541.693         -13.150           0.255  
I05  23739763.364       13590.558         217.775           0.255  
I06  22336899.117        2287.843          33.842           0.255  
I07  23673481.672        -973.131         -14.556           0.255  
> 2019 05 08 04 26 07.5688020  0  6                     
I02  20905925.031         340.340          10.875           0.255  
I03  20626617.681       -1218.509         -19.234           0.255  
I04  21950126.058        -542.139         -10.721           0.255  
I05  23739759.151       13601.624         224.388           0.255  
I06  22336897.987        2289.727          38.337           0.255  
I07  23673483.924        -974.021         -20.877           0.255  
> 2019 05 08 04 26 07.6188020  0  6                     
I02  20905924.177         340.660           7.978           0.255  
I03  20626617.494       -1219.466         -17.207           0.255  
I04  21950132.687        -542.526         -10.993           0.255  
I05  23739755.760       13612.632         223.934           0.255  
I06  22336896.362        2291.611          40.494           0.255  
I07  23673487.584        -974.917         -16.379           0.255  
> 2019 05 08 04 26 07.6688020  0  6                     
I02  20905925.421         340.905           7.366           0.255  
I03  20626614.163       -1220.450         -18.674           0.255  
I04  21950130.561        -542.892          -8.465           0.255  
I05  23739752.006       13623.632         221.281           0.255  
I06  22336895.623        2293.461          38.583           0.255  
I07  23673488.692        -975.758         -15.430           0.255  
> 2019 05 08 04 26 07.7188020  0  6                     
I02  20905924.643         341.191           3.533           0.255  
I03  20626615.508       -1221.451         -20.922           0.255  
I04  21950128.798        -543.317          -8.762           0.255  
I05  23739751.892       13634.631         217.655           0.255  
I06  22336895.460        2295.301          36.224           0.255  
I07  23673479.882        -976.726         -18.708           0.255  
> 2019 05 08 04 26 07.7688020  0  6                     
I02  20905924.447         341.488           3.632           0.255  
I03  20626623.727       -1222.451         -18.326           0.255  
I04  21950129.035        -544.397          52.027           0.255  
I05  23739751.517       13645.650         219.109           0.255  
I06  22336897.728        2297.166          37.114           0.255  
I07  23673483.640        -977.647         -30.629           0.255  
> 2019 05 08 04 26 07.8188020  0  6                     
I02  20905923.955         341.762           4.549           0.255  
I03  20626621.842       -1223.399         -14.118           0.255  
I04  21950126.541        -544.017         169.498           0.255  
I05  23739746.945       13656.691         222.271           0.255  
I06  22336897.936        2298.475          42.281           0.255  
I07  23673483.767        -978.466         -18.849           0.255  
> 2019 05 08 04 26 07.8688020  0  6                     
I02  20905924.863         342.053          11.916           0.255  
I03  20626624.066       -1224.385         -14.609           0.255  
I04  21950130.593        -544.610          -0.787           0.255  
I05  23739744.735       13667.691         224.237           0.255  
I06  22336896.433        2300.875          40.694           0.255  
I07  23673485.437        -979.338         -15.679           0.255  
> 2019 05 08 04 26 07.9188020  0  6                     
I02  20905924.127         342.370           9.184           0.255  
I03  20626622.108       -1225.426         -22.439           0.255  
I04  21950130.941        -545.112         -13.437           0.255  
I05  23739742.967       13678.698         218.696           0.255  
I06  22336897.425        2302.734          38.274           0.255  
I07  23673488.870        -980.264         -16.160           0.255  
> 2019 05 08 04 26 07.9688020  0  6                     
I02  20905919.870         342.645           5.501           0.255  
I03  20626621.571       -1226.418         -20.085           0.255  
I04  21950133.820        -545.538         -12.061           0.255  
I05  23739741.468       13689.680         219.007           0.255  
I06  22336897.553        2304.572          35.677           0.255  
I07  23673479.197        -981.137         -17.939           0.255  
> 2019 05 08 04 26 08.0188020  0  6                     
I02  20905919.404         342.924           4.893           0.255  
I03  20626620.914       -1227.392         -18.633           0.255  
I04  21950119.132        -545.952         -13.675           0.255  
I05  23739737.117       13700.699         220.082           0.255  
I06  22336894.520        2306.444          38.689           0.255  
I07  23673482.463        -982.093         -25.632           0.255  
> 2019 05 08 04 26 08.0688020  0  6                     
I02  20905920.795         343.197           5.588           0.255  
I03  20626616.449       -1228.341         -18.322           0.255  
I04  21950119.744        -546.301          -3.916           0.255  
I05  23739732.915       13711.739         220.460           0.255  
I06  22336896.363        2308.299          38.705           0.255  
I07  23673482.062        -982.921         -14.981           0.255  
> 2019 05 08 04 26 08.1188020  0  6                     
I02  20905921.838         343.506           7.152           0.255  
I03  20626617.978       -1229.338         -20.464           0.255  
I04  21950121.359        -546.744         -12.492           0.255  
I05  23739729.416       13722.764         217.475           0.255  
I06  22336892.877        2310.168          37.796           0.255  
I07  23673488.843        -983.781         -18.718           0.255  
> 2019 05 08 04 26 08.1688020  0  6                     
I02  20905922.313         343.792           9.962           0.255  
I03  20626618.167       -1230.329         -23.058           0.255  
I04  21950119.437        -547.130          -9.439           0.255  
I05  23739728.246       13733.783         217.027           0.255  
I06  22336892.044        2312.014          35.538           0.255  
I07  23673479.447        -984.661         -13.687           0.255  
> 2019 05 08 04 26 08.2188020  0  6                     
I02  20905921.419         344.150           5.314           0.255  
I03  20626616.592       -1231.243         -21.784           0.255  
I04  21950122.438        -547.511         -10.739           0.255  
I05  23739724.646       13744.874         219.260           0.255  
I06  22336890.286        2313.958          36.587           0.255  
I07  23673481.619        -985.561         -29.483           0.255  
> 2019 05 08 04 26 08.2688020  0  6                     
I02  20905922.118         344.474           5.737           0.255  
I03  20626615.553       -1232.176         -21.104           0.255  
I04  21950126.214        -547.912         -13.733           0.255  
I05  23739720.399       13755.946         221.049           0.255  
I06  22336891.687        2315.840          35.969           0.255  
I07  23673484.929        -986.293         -14.745           0.255  
> 2019 05 08 04 26 08.3188020  0  6                     
I02  20905923.725         344.780           4.578           0.255  
I03  20626622.897       -1233.166         -21.235           0.255  
I04  21950123.781        -548.262          -9.551           0.255  
I05  23739716.287       13766.939         219.151           0.255  
I06  22336892.809        2317.717          37.557           0.255  
I07  23673486.931        -987.170         -12.374           0.255  
> 2019 05 08 04 26 08.3688020  0  6                     
I02  20905921.654         345.030           7.357           0.255  
I03  20626620.449       -1234.152         -17.858           0.255  
I04  21950124.909        -548.698          -2.017           0.255  
I05  23739713.168       13777.917         219.271           0.255  
I06  22336893.098        2319.554          37.708           0.255  
I07  23673477.814        -988.123         -15.264           0.255  
> 2019 05 08 04 26 08.4188020  0  6                     
I02  20905921.080         345.309           3.035           0.255  
I03  20626618.141       -1235.152         -18.725           0.255  
I04  21950127.676        -549.149          -3.080           0.255  
I05  23739707.189       13788.923         216.220           0.255  
I06  22336891.751        2321.404          38.069           0.255  
I07  23673480.213        -988.986         -20.619           0.255  
> 2019 05 08 04 26 08.4688020  0  6                     
I02  20905921.908         345.563           1.630           0.255  
I03  20626618.439       -1236.136         -16.199           0.255  
I04  21950125.110        -549.584          -0.969           0.255  
I05  23739703.994       13799.946         217.466           0.255  
I06  22336892.003        2323.218          33.472           0.255  
I07  23673483.153        -989.840         -16.580           0.255  
> 2019 05 08 04 26 08.5188020  0  6                     
I02  20905924.017         345.852           5.053           0.255  
I03  20626614.830       -1237.151         -20.414           0.255  
I04  21950124.275        -549.961          -4.019           0.255  
I05  23739700.586       13810.948         216.065           0.255  
I06  22336892.535        2325.085          38.410           0.255  
I07  23673486.713        -990.819         -21.600           0.255  
> 2019 05 08 04 26 08.5688020  0  6                     
I02  20905924.311         346.229         -64.263           0.255  
I03  20626613.737       -1238.093         -18.104           0.255  
I04  21950123.602        -550.427         -13.842           0.255  
I05  23739699.848       13821.984         219.142           0.255  
I06  22336891.579        2327.050          83.712           0.255  
I07  23673477.040        -991.630         -10.665           0.255  
> 2019 05 08 04 26 08.6188020  0  6                     
I02  20905920.833         346.422           3.421           0.255  
I03  20626616.553       -1239.069         -18.859           0.255  
I04  21950129.810        -550.811          -6.645           0.255  
I05  23739697.285       13833.000         218.190           0.255  
I06  22336890.736        2328.827          37.296           0.255  
I07  23673478.394        -992.524         -14.497           0.255  
> 2019 05 08 04 26 08.6688020  0  6                     
I02  20905920.126         346.688           3.295           0.255  
I03  20626613.653       -1240.035         -15.662           0.255  
I04  21950131.915        -551.244          -4.561           0.255  
I05  23739696.916       13844.035         222.285           0.255  
I06  22336889.237        2330.683          38.482           0.255  
I07  23673476.959        -993.357          -4.930           0.255  
> 2019 05 08 04 26 08.7188020  0  6                     
I02  20905920.283         347.053           8.190           0.255  
I03  20626621.827       -1240.979         -18.946           0.255  
I04  21950131.882        -551.602          -7.579           0.255  
I05  23739694.230       13855.108         223.062           0.255  
I06  22336890.678        2332.145          62.294           0.255  
I07  23673479.648        -994.251         -15.481           0.255  
> 2019 05 08 04 26 08.7688020  0  6                     
I02  20905919.798         347.292           8.326           0.255  
I03  20626620.989       -1241.991         -17.972           0.255  
I04  21950133.247        -552.077          -6.224           0.255  
I05  23739691.396       13866.094         225.364           0.255  
I06  22336889.656        2334.428          39.727           0.255  
I07  23673482.736        -995.139          -2.537           0.255  
> 2019 05 08 04 26 08.8188020  0  6                     
I02  20905920.124         347.591           9.516           0.255  
I03  20626619.475       -1243.033         -24.901           0.255  
I04  21950133.719        -552.466          -7.611           0.255  
I05  23739689.993       13877.083         222.372           0.255  
I06  22336886.886        2336.252          66.240           0.255  
I07  23673485.946        -996.073         -10.710           0.255  
> 2019 05 08 04 26 08.8688020  0  6                     
I02  20905920.249         347.862           7.445           0.255  
I03  20626618.496       -1244.050         -20.351           0.255  
I04  21950119.758        -552.895          -7.168           0.255  
I05  23739687.085       13888.062         221.902           0.255  
I06  22336887.915        2338.083          38.689           0.255  
I07  23673490.999        -997.011         -16.432           0.255  
> 2019 05 08 04 26 08.9188020  0  6                     
I02  20905920.382         348.097           2.666           0.255  
I03  20626618.769       -1245.036         -17.833           0.255  
I04  21950123.504        -553.432          -9.284           0.255  
I05  23739682.561       13899.038         218.360           0.255  
I06  22336885.855        2339.922          36.147           0.255  
I07  23673478.772        -997.946         -26.394           0.255  
> 2019 05 08 04 26 08.9688020  0  6                     
I02  20905920.290         348.400           6.818           0.255  
I03  20626618.380       -1246.034         -16.983           0.255  
I04  21950126.774        -553.818          -3.636           0.255  
I05  23739681.249       13910.069         221.587           0.255  
I06  22336887.396        2341.766          37.236           0.255  
I07  23673482.049        -998.740         -18.760           0.255  
> 2019 05 08 04 26 09.0188020  0  6                     
I02  20905919.289         348.681           3.754           0.255  
I03  20626619.173       -1246.977         -14.984           0.255  
I04  21950127.359        -554.186          -3.160           0.255  
I05  23739677.902       13921.114         222.279           0.255  
I06  22336884.491        2343.640          39.201           0.255  
I07  23673485.010        -999.645         -14.981           0.255  
> 2019 05 08 04 26 09.0688020  0  6                     
I02  20905919.496         348.984           1.287           0.255  
I03  20626618.274       -1247.981         -15.981           0.255  
I04  21950128.285        -554.641          -3.036           0.255  
I05  23739675.429       13932.140         221.150           0.255  
I06  22336884.042        2345.489          36.717           0.255  
I07  23673486.495       -1000.570         -25.471           0.255  
> 2019 05 08 04 26 09.1188020  0  6                     
I02  20905919.897         349.277           2.082           0.255  
I03  20626617.933       -1248.987         -18.862           0.255  
I04  21950131.692        -555.069          -6.984           0.255  
I05  23739672.467       13943.119         219.911           0.255  
I06  22336884.775        2347.339          36.253           0.255  
I07  23673475.372       -1001.451         -22.745           0.255  
> 2019 05 08 04 26 09.1688020  0  6                     
I02  20905922.052         349.571           7.690           0.255  
I03  20626619.128       -1249.999         -24.010           0.255  
I04  21950131.588        -555.509          -2.199           0.255  
I05  23739666.880       13954.120         219.014           0.255  
I06  22336881.804        2349.173          36.610           0.255  
I07  23673478.480       -1002.281         -11.807           0.255  
> 2019 05 08 04 26 09.2188020  0  6                     
I02  20905920.243         349.851           7.384           0.255  
I03  20626619.034       -1250.952         -19.988           0.255  
I04  21950133.930        -555.932          -0.408           0.255  
I05  23739663.265       13965.145         220.405           0.255  
I06  22336880.601        2351.058          38.738           0.255  
I07  23673481.574       -1003.223         -13.087           0.255  
> 2019 05 08 04 26 09.2688020  0  6                     
I02  20905919.480         350.165           4.682           0.255  
I03  20626621.218       -1251.922         -16.757           0.255  
I04  21950120.240        -556.398          -6.048           0.255  
I05  23739662.040       13976.190         220.187           0.255  
I06  22336882.414        2352.919          37.409           0.255  
I07  23673482.220       -1004.111         -15.987           0.255  
> 2019 05 08 04 26 09.3188020  0  6                     
I02  20905921.034         350.412           3.145           0.255  
I03  20626619.898       -1252.926         -21.680           0.255  
I04  21950120.024        -556.831         -11.936           0.255  
I05  23739660.511       13987.182         216.836           0.255  
I06  22336880.672        2354.766          37.751           0.255  
I07  23673483.886       -1005.046         -23.427           0.255  
> 2019 05 08 04 26 09.3688020  0  6                     
I02  20905918.995         350.665           7.621           0.255  
I03  20626619.773       -1254.015         -23.639           0.255  
I04  21950129.462        -557.289         -11.716           0.255  
I05  23739660.005       13998.126         219.996           0.255  
I06  22336881.733        2356.549          36.598           0.255  
I07  23673484.601       -1005.960         -19.730           0.255  
> 2019 05 08 04 26 09.4188020  0  6                     
I02  20905920.232         350.909           4.905           0.255  
I03  20626619.691       -1255.039         -20.409           0.255  
I04  21950125.756        -557.699          -8.870           0.255  
I05  23739658.100       14009.100         218.720           0.255  
I06  22336881.468        2358.373          38.522           0.255  
I07  23673488.061       -1006.876         -17.878           0.255  
> 2019 05 08 04 26 09.4688020  0  6                     
I02  20905921.693         351.184           6.124           0.255  
I03  20626619.320       -1256.050         -19.861           0.255  
I04  21950124.015        -558.201         -10.190           0.255  
I05  23739654.241       14020.103         221.941           0.255  
I06  22336881.710        2361.340         196.795           0.255  
I07  23673476.606       -1007.830         -22.591           0.255  
> 2019 05 08 04 26 09.5188020  0  6                     
I02  20905921.417         351.441           5.631           0.255  
I03  20626619.107       -1257.053         -18.161           0.255  
I04  21950127.867        -558.674          -9.426           0.255  
I05  23739651.800       14031.080         216.796           0.255  
I06  22336880.171        2362.549           4.193           0.255  
I07  23673478.410       -1008.758         -30.480           0.255  
> 2019 05 08 04 26 09.5688020  0  6                     
I02  20905920.242         351.721           6.600           0.255  
I03  20626618.857       -1258.046         -19.119           0.255  
I04  21950130.081        -559.096         -10.432           0.255  
I05  23739648.173       14042.077         217.486           0.255  
I06  22336881.356        2363.846          33.775           0.255  
I07  23673483.758       -1009.631         -21.665           0.255  
> 2019 05 08 04 26 09.6188020  0  6                     
I02  20905921.374         351.975           7.523           0.255  
I03  20626620.330       -1259.069         -23.068           0.255  
I04  21950130.272        -559.578         -10.246           0.255  
I05  23739645.651       14053.090         218.484           0.255  
I06  22336880.134        2365.686          35.891           0.255  
I07  23673488.803       -1010.538         -21.446           0.255  
> 2019 05 08 04 26 09.6688020  0  6                     
I02  20905919.886         352.233           9.840           0.255  
I03  20626621.325       -1260.050         -16.556           0.255  
I04  21950134.432        -559.975          -3.939           0.255  
I05  23739641.478       14064.107         223.824           0.255  
I06  22336879.007        2367.533          39.009           0.255  
I07  23673477.261       -1011.441         -21.798           0.255  
> 2019 05 08 04 26 09.7188020  0  6                     
I02  20905918.875         352.518           8.887           0.255  
I03  20626622.609       -1261.056         -15.120           0.255  
I04  21950121.017        -560.422          -5.299           0.255  
I05  23739638.465       14075.122         223.625           0.255  
I06  22336880.533        2369.066          82.555           0.255  
I07  23673480.573       -1012.258         -18.410           0.255  
> 2019 05 08 04 26 09.7688020  0  6                     
I02  20905920.338         352.826           5.814           0.255  
I03  20626624.686       -1262.029         -15.122           0.255  
I04  21950121.808        -562.832        -114.905           0.255  
I05  23739635.561       14086.122         224.961           0.255  
I06  22336879.507        2371.253          40.381           0.255  
I07  23673482.999       -1013.206         -22.725           0.255  
> 2019 05 08 04 26 09.8188020  0  6                     
I02  20905920.007         353.116           6.344           0.255  
I03  20626618.127       -1263.009         -21.442           0.255  
I04  21950129.169        -561.156          -2.020           0.255  
I05  23739632.415       14097.165         221.781           0.255  
I06  22336877.990        2373.125          38.490           0.255  
I07  23673490.030       -1014.091         -18.869           0.255  
> 2019 05 08 04 26 09.8688020  0  6                     
I02  20905918.820         353.450          11.665           0.255  
I03  20626617.721       -1263.971         -17.188           0.255  
I04  21950131.501        -561.571           2.822           0.255  
I05  23739630.424       14108.184         223.110           0.255  
I06  22336876.490        2374.976          37.781           0.255  
I07  23673480.020       -1014.925         -13.219           0.255  
> 2019 05 08 04 26 09.9188020  0  6                     
I02  20905919.893         353.822          12.085           0.255  
I03  20626618.027       -1264.919         -21.567           0.255  
I04  21950130.951        -561.898           5.178           0.255  
I05  23739626.742       14119.279         221.763           0.255  
I06  22336875.780        2376.901          37.546           0.255  
I07  23673485.538       -1015.725         -14.281           0.255  
> 2019 05 08 04 26 09.9688020  0  6                     
I02  20905920.307         354.123          14.168           0.255  
I03  20626619.574       -1265.909         -18.382           0.255  
I04  21950131.066        -562.378          -1.875           0.255  
I05  23739623.360       14130.298         225.342           0.255  
I06  22336876.125        2378.754          39.430           0.255  
I07  23673478.277       -1016.645         -14.934           0.255  
> 2019 05 08 04 26 10.0188020  0  6                     
I02  20905920.775         354.373           8.645           0.255  
I03  20626617.590       -1266.871         -20.853           0.255  
I04  21950129.637        -562.783          -0.259           0.255  
I05  23739622.402       14141.319         224.211           0.255  
I06  22336876.062        2380.607          38.209           0.255  
I07  23673483.354       -1017.554         -12.814           0.255  
> 2019 05 08 04 26 10.0688020  0  6                     
I02  20905919.458         354.642           4.637           0.255  
I03  20626619.164       -1267.858         -18.453           0.255  
I04  21950130.961        -563.286          -7.295           0.255  
I05  23739618.370       14152.318         220.021           0.255  
I06  22336875.085        2382.458          36.814           0.255  
I07  23673487.502       -1018.444         -24.464           0.255  
> 2019 05 08 04 26 10.1188020  0  6                     
I02  20905919.788         354.908           3.233           0.255  
I03  20626622.128       -1268.855         -19.772           0.255  
I04  21950129.476        -563.689         -11.173           0.255  
I05  23739615.839       14163.313         218.318           0.255  
I06  22336877.498        2384.305          36.043           0.255  
I07  23673476.980       -1019.324         -19.045           0.255  
> 2019 05 08 04 26 10.1688020  0  6                     
I02  20905918.401         355.225           5.105           0.255  
I03  20626614.857       -1269.866         -19.297           0.255  
I04  21950130.771        -564.143          -9.859           0.255  
I05  23739612.898       14174.353         222.065           0.255  
I06  22336878.291        2386.172          39.464           0.255  
I07  23673481.770       -1020.214         -17.015           0.255  
> 2019 05 08 04 26 10.2188020  0  6                     
I02  20905918.136         355.531           7.145           0.255  
I03  20626617.357       -1270.861         -18.246           0.255  
I04  21950129.826        -564.476          -4.996           0.255  
I05  23739610.078       14185.376         223.827           0.255  
I06  22336876.474        2388.033          40.191           0.255  
I07  23673487.246       -1021.006         -11.183           0.255  
> 2019 05 08 04 26 10.2688020  0  6                     
I02  20905920.247         355.801           2.724           0.255  
I03  20626618.165       -1271.785         -16.127           0.255  
I04  21950127.083        -564.924          -6.292           0.255  
I05  23739605.940       14196.398         221.185           0.255  
I06  22336876.060        2389.877          37.335           0.255  
I07  23673476.703       -1021.999         -12.497           0.255  
> 2019 05 08 04 26 10.3188020  0  6                     
I02  20905920.966         356.106           5.034           0.255  
I03  20626624.717       -1272.792         -19.377           0.255  
I04  21950128.934        -565.337          -7.987           0.255  
I05  23739603.028       14207.397         218.315           0.255  
I06  22336875.350        2391.729          35.131           0.255  
I07  23673478.683       -1022.857         -20.581           0.255  
> 2019 05 08 04 26 10.3688020  0  6                     
I02  20905921.828         356.330           5.376           0.255  
I03  20626614.812       -1273.860         -20.519           0.255  
I04  21950126.566        -565.832         -11.467           0.255  
I05  23739602.905       14218.342         218.635           0.255  
I06  22336874.709        2393.287          70.470           0.255  
I07  23673486.757       -1023.804         -21.099           0.255  
> 2019 05 08 04 26 10.4188020  0  6                     
I02  20905920.580         356.585           6.394           0.255  
I03  20626617.550       -1274.876         -19.930           0.255  
I04  21950126.802        -566.251          -6.635           0.255  
I05  23739600.751       14229.342         219.354           0.255  
I06  22336874.533        2395.350          37.751           0.255  
I07  23673476.167       -1024.699         -19.364           0.255  
> 2019 05 08 04 26 10.4688020  0  6                     
I02  20905920.559         356.836           8.117           0.255  
I03  20626619.827       -1275.924         -21.738           0.255  
I04  21950125.114        -566.748         -13.545           0.255  
I05  23739597.013       14240.323         219.379           0.255  
I06  22336873.493        2397.160          36.513           0.255  
I07  23673479.945       -1025.610          -8.312           0.255  
> 2019 05 08 04 26 10.5188020  0  6                     
I02  20905918.432         357.083           4.976           0.255  
I03  20626624.156       -1276.941         -19.847           0.255  
I04  21950124.077        -567.210         -12.992           0.255  
I05  23739595.146       14251.298         216.905           0.255  
I06  22336872.909        2398.966          34.709           0.255  
I07  23673483.452       -1026.627         -23.783           0.255  
> 2019 05 08 04 26 10.5688020  0  6                     
I02  20905918.981         357.346           3.865           0.255  
I03  20626616.325       -1277.940         -22.028           0.255  
I04  21950128.863        -567.452         -59.138           0.255  
I05  23739595.176       14262.305         217.471           0.255  
I06  22336872.371        2400.236           2.281           0.255  
I07  23673486.621       -1027.537         -19.136           0.255  
> 2019 05 08 04 26 10.6188020  0  6                     
I02  20905920.793         357.615           6.542           0.255  
I03  20626619.042       -1278.959         -23.007           0.255  
I04  21950126.002        -568.115         -12.502           0.255  
I05  23739590.039       14273.294         217.441           0.255  
I06  22336871.814        2402.640          36.884           0.255  
I07  23673478.112       -1028.442         -20.718           0.255  
> 2019 05 08 04 26 10.6688020  0  6                     
I02  20905919.441         357.884           8.151           0.255  
I03  20626620.757       -1279.967         -18.760           0.255  
I04  21950127.423        -568.556          -6.831           0.255  
I05  23739587.980       14284.302         221.737           0.255  
I06  22336870.783        2404.489          37.995           0.255  
I07  23673480.811       -1029.348         -10.203           0.255  
> 2019 05 08 04 26 10.7188020  0  6                     
I02  20905919.015         358.150           2.329           0.255  
I03  20626622.386       -1280.933         -15.663           0.255  
I04  21950126.407        -568.940          -7.861           0.255  
I05  23739584.123       14295.306         218.388           0.255  
I06  22336869.842        2406.319          36.782           0.255  
I07  23673485.777       -1030.221         -18.491           0.255  
> 2019 05 08 04 26 10.7688020  0  6                     
I02  20905918.555         358.418           2.265           0.255  
I03  20626623.737       -1281.920         -18.452           0.255  
I04  21950130.687        -569.383          -7.853           0.255  
I05  23739578.591       14306.321         218.210           0.255  
I06  22336868.189        2408.175          34.998           0.255  
I07  23673478.568       -1031.097         -10.904           0.255  
> 2019 05 08 04 26 10.8188020  0  6                     
I02  20905917.659         358.693           5.913           0.255  
I03  20626615.102       -1282.958         -23.139           0.255  
I04  21950128.817        -569.903         -11.044           0.255  
I05  23739574.747       14317.336         219.665           0.255  
I06  22336867.906        2410.016          36.572           0.255  
I07  23673485.533       -1032.009         -16.688           0.255  
> 2019 05 08 04 26 10.8688020  0  6                     
I02  20905917.651         358.940          10.277           0.255  
I03  20626620.340       -1283.982         -16.441           0.255  
I04  21950133.068        -570.317          -1.063           0.255  
I05  23739570.631       14328.315         223.891           0.255  
I06  22336868.500        2411.841          41.661           0.255  
I07  23673490.859       -1032.906         -14.214           0.255  
> 2019 05 08 04 26 10.9188020  0  6                     
I02  20905920.559         359.243           8.825           0.255  
I03  20626622.039       -1284.958         -16.119           0.255  
I04  21950132.528        -570.737           0.082           0.255  
I05  23739569.272       14339.330         222.610           0.255  
I06  22336866.825        2413.695          41.015           0.255  
I07  23673482.217       -1033.765         -17.109           0.255  
> 2019 05 08 04 26 10.9688020  0  6                     
I02  20905920.450         359.537           8.915           0.255  
I03  20626622.859       -1285.924         -18.358           0.255  
I04  21950135.247        -571.124          -8.481           0.255  
I05  23739567.214       14350.381         223.140           0.255  
I06  22336864.809        2415.563          38.654           0.255  
I07  23673477.385       -1034.573         -17.113           0.255  
> 2019 05 08 04 26 11.0188020  0  6                     
I02  20905918.602         359.839           6.711           0.255  
I03  20626616.225       -1286.865         -19.089           0.255  
I04  21950119.100        -571.444          -2.485           0.255  
I05  23739563.349       14361.440         221.053           0.255  
I06  22336865.931        2417.466          35.998           0.255  
I07  23673482.024       -1035.461         -15.735           0.255  
> 2019 05 08 04 26 11.0688020  0  6                     
I02  20905917.128         360.200           7.923           0.255  
I03  20626618.625       -1287.771         -18.519           0.255  
I04  21950124.187        -571.829           1.101           0.255  
I05  23739560.212       14372.549         221.939           0.255  
I06  22336864.939        2419.389          38.591           0.255  
I07  23673488.324       -1036.284         -15.980           0.255  
> 2019 05 08 04 26 11.1188020  0  6                     
I02  20905917.075         360.570           6.672           0.255  
I03  20626620.874       -1288.683         -19.472           0.255  
I04  21950126.574        -572.177          -3.413           0.255  
I05  23739557.994       14383.624         217.861           0.255  
I06  22336863.414        2421.309          36.163           0.255  
I07  23673479.097       -1037.098         -19.120           0.255  
> 2019 05 08 04 26 11.1688020  0  6                     
I02  20905916.451         360.847           6.308           0.255  
I03  20626623.993       -1289.647         -22.640           0.255  
I04  21950125.688        -572.596          -3.658           0.255  
I05  23739553.644       14394.652         218.524           0.255  
I06  22336863.135        2423.167          33.374           0.255  
I07  23673486.479       -1037.963         -13.855           0.255  
> 2019 05 08 04 26 11.2188020  0  6                     
I02  20905915.737         361.170           5.168           0.255  
I03  20626616.780       -1290.678         -22.778           0.255  
I04  21950130.933        -573.031         -10.502           0.255  
I05  23739552.255       14405.665         215.634           0.255  
I06  22336850.379        2425.028          34.739           0.255  
I07  23673479.506       -1038.872         -19.150           0.255  
> 2019 05 08 04 26 11.2688020  0  6                     
I02  20905916.448         361.458           7.992           0.255  
I03  20626618.513       -1291.666         -21.836           0.255  
I04  21950132.910        -573.489         -14.695           0.255  
I05  23739552.247       14416.692         219.028           0.255  
I06  22336851.637        2426.885          38.381           0.255  
I07  23673489.034       -1039.877         -29.090           0.255  
> 2019 05 08 04 26 11.3188020  0  6                     
I02  20905918.437         361.753           7.858           0.255  
I03  20626622.346       -1292.653         -18.875           0.255  
I04  21950135.092        -573.767         100.902           0.255  
I05  23739547.357       14427.726         221.566           0.255  
I06  22336854.608        2428.023         -39.558           0.255  
I07  23673481.333       -1040.702         -20.068           0.255  
> 2019 05 08 04 26 11.3688020  0  6                     
I02  20905918.845         363.240         196.231           0.255  
I03  20626617.970       -1293.676         -16.566           0.255  
I04  21950120.258        -574.299          -5.353           0.255  
I05  23739544.321       14438.705         224.126           0.255  
I06  22336856.185        2430.664          76.775           0.255  
I07  23673488.022       -1041.589         -15.748           0.255  
> 2019 05 08 04 26 11.4188020  0  6                     
I02  20905917.316         362.241           5.566           0.255  
I03  20626618.678       -1294.679         -21.968           0.255  
I04  21950122.620        -573.606         -86.763           0.255  
I05  23739540.515       14449.703         219.432           0.255  
I06  22336858.669        2431.834        -100.839           0.255  
I07  23673480.156       -1042.518         -15.353           0.255  
> 2019 05 08 04 26 11.4688020  0  6                     
I02  20905916.293         361.033        -228.689           0.255  
I03  20626637.292       -1295.708         -20.017           0.255  
I04  21950128.153        -574.970        -243.367           0.255  
I05  23739537.879       14460.633         214.742           0.255  
I06  22336859.567        2434.162         157.306           0.255  
I07  23673486.341       -1043.529         -31.563           0.255  
> 2019 05 08 04 26 11.5188020  0  6                     
I02  20905916.580         362.675           6.909           0.255  
I03  20626655.972       -1296.720         -19.998           0.255  
I04  21950132.469        -575.777         -18.685           0.255  
I05  23739536.205       14471.652         219.706           0.255  
I06  22336859.659        2436.029          39.602           0.255  
I07  23673480.302       -1044.383         -25.757           0.255  
> 2019 05 08 04 26 11.5688020  0  6                     
I02  20905914.542         362.955           7.423           0.255  
I03  20626668.055       -1297.702         -19.202           0.255  
I04  21950120.082        -576.155          -9.111           0.255  
I05  23739535.930       14482.683         221.774           0.255  
I06  22336850.273        2437.875          38.399           0.255  
I07  23673485.194       -1045.246         -16.328           0.255  
> 2019 05 08 04 26 11.6188020  0  6                     
I02  20905915.212         363.240           2.358           0.255  
I03  20626675.040       -1298.706         -22.919           0.255  
I04  21950124.190        -576.589         -13.861           0.255  
I05  23739528.938       14493.698         219.345           0.255  
I06  22336854.094        2439.729          36.553           0.255  
I07  23673475.738       -1046.131         -15.980           0.255  
> 2019 05 08 04 26 11.6688020  0  6                     
I02  20905915.506         363.548           5.824           0.255  
I03  20626679.827       -1299.725         -22.382           0.255  
I04  21950127.197        -577.003         -14.431           0.255  
I05  23739525.982       14504.683         217.649           0.255  
I06  22336853.866        2441.546          36.092           0.255  
I07  23673481.916       -1047.104         -21.799           0.255  
> 2019 05 08 04 26 11.7188020  0  6                     
I02  20905915.810         363.817           3.394           0.255  
I03  20626680.738       -1300.724         -20.069           0.255  
I04  21950131.722        -577.410          -7.675           0.255  
I05  23739524.397       14515.681         217.652           0.255  
I06  22336856.242        2443.389          36.999           0.255  
I07  23673478.881       -1048.070         -21.766           0.255  
> 2019 05 08 04 26 11.7688020  0  6                     
I02  20905917.241         364.112          10.609           0.255  
I03  20626679.670       -1301.705         -17.815           0.255  
I04  21950135.525        -577.861          -6.610           0.255  
I05  23739522.309       14526.722         221.431           0.255  
I06  22336856.866        2445.241          37.717           0.255  
I07  23673487.093       -1048.815         -13.868           0.255  
> 2019 05 08 04 26 11.8188020  0  6                     
I02  20905916.363         364.394           6.831           0.255  
I03  20626680.639       -1302.681         -18.879           0.255  
I04  21950120.171        -578.321         -10.682           0.255  
I05  23739519.195       14537.734         219.060           0.255  
I06  22336859.197        2447.105          37.185           0.255  
I07  23673479.101       -1049.705         -14.356           0.255  
> 2019 05 08 04 26 11.8688020  0  6                     
I02  20905915.876         364.688          11.295           0.255  
I03  20626679.753       -1303.704         -17.489           0.255  
I04  21950125.408        -578.794         -16.159           0.255  
I05  23739517.494       14548.717         218.125           0.255  
I06  22336856.991        2448.957          40.066           0.255  
I07  23673489.027       -1050.657         -16.918           0.255  
> 2019 05 08 04 26 11.9188020  0  6                     
I02  20905915.758         364.907           4.804           0.255  
I03  20626679.689       -1304.711         -20.962           0.255  
I04  21950127.429        -579.235         -15.702           0.255  
I05  23739514.129       14559.732         216.422           0.255  
I06  22336856.066        2450.784          38.890           0.255  
I07  23673481.047       -1051.626         -21.855           0.255  
> 2019 05 08 04 26 11.9688020  0  6                     
I02  20905917.812         365.211           5.990           0.255  
I03  20626680.450       -1305.720         -18.678           0.255  
I04  21950128.423        -579.605          -9.599           0.255  
I05  23739513.399       14570.776         220.861           0.255  
I06  22336855.980        2452.612          38.778           0.255  
I07  23673486.830       -1052.435         -18.653           0.255  
> 2019 05 08 04 26 12.0188020  0  6                     
I02  20905915.677         365.484           4.735           0.255  
I03  20626680.071       -1306.661         -15.172           0.255  
I04  21950136.590        -580.026         -10.059           0.255  
I05  23739512.528       14581.821         223.302           0.255  
I06  22336856.548        2454.481          39.214           0.255  
I07  23673480.402       -1053.351         -18.784           0.255  
> 2019 05 08 04 26 12.0688020  0  6                     
I02  20905918.270         365.780           4.896           0.255  
I03  20626679.621       -1307.679         -20.377           0.255  
I04  21950134.262        -580.445         -15.483           0.255  
I05  23739507.774       14592.845         222.870           0.255  
I06  22336856.236        2456.328          38.177           0.255  
I07  23673484.697       -1054.170         -22.930           0.255  
> 2019 05 08 04 26 12.1188020  0  6                     
I02  20905921.101         366.042           4.771           0.255  
I03  20626679.373       -1308.672         -21.473           0.255  
I04  21950135.689        -580.906         -14.161           0.255  
I05  23739504.809       14603.833         220.653           0.255  
I06  22336856.017        2458.155          35.325           0.255  
I07  23673477.804       -1055.115         -20.116           0.255  
> 2019 05 08 04 26 12.1688020  0  6                     
I02  20905918.614         366.296           2.006           0.255  
I03  20626679.093       -1309.666         -18.106           0.255  
I04  21950123.651        -581.316          -7.226           0.255  
I05  23739502.619       14614.816         220.557           0.255  
I06  22336856.952        2460.001          37.085           0.255  
I07  23673488.225       -1056.047         -18.595           0.255  
> 2019 05 08 04 26 12.2188020  0  6                     
I02  20905918.360         366.595           5.479           0.255  
I03  20626679.411       -1310.644         -14.337           0.255  
I04  21950128.739        -581.731          -8.065           0.255  
I05  23739499.225       14625.844         222.565           0.255  
I06  22336855.918        2461.883          40.766           0.255  
I07  23673480.205       -1056.880         -18.047           0.255  
> 2019 05 08 04 26 12.2688020  0  6                     
I02  20905919.122         366.914          11.880           0.255  
I03  20626679.321       -1311.649         -19.966           0.255  
I04  21950129.402        -582.141          -9.620           0.255  
I05  23739495.180       14636.863         220.550           0.255  
I06  22336855.269        2463.737          38.656           0.255  
I07  23673490.032       -1057.782         -12.449           0.255  
> 2019 05 08 04 26 12.3188020  0  6                     
I02  20905917.094         367.192           4.723           0.255  
I03  20626679.445       -1312.685         -23.395           0.255  
I04  21950136.808        -582.575          -7.546           0.255  
I05  23739493.250       14647.841         216.489           0.255  
I06  22336855.282        2464.541         -96.689           0.255  
I07  23673480.996       -1058.705         -17.191           0.255  
> 2019 05 08 04 26 12.3688020  0  6                     
I02  20905915.833         367.409           1.734           0.255  
I03  20626679.348       -1313.718         -18.625           0.255  
I04  21950123.227        -583.119         -10.445           0.255  
I05  23739491.022       14658.814         218.473           0.255  
I06  22336854.981        2467.352          36.744           0.255  
I07  23673477.218       -1059.642         -13.441           0.255  
> 2019 05 08 04 26 12.4188020  0  6                     
I02  20905917.212         367.608           3.020           0.255  
I03  20626679.008       -1314.741         -19.756           0.255  
I04  21950124.120        -583.543         -10.484           0.255  
I05  23739487.502       14669.807         222.092           0.255  
I06  22336853.862        2469.175          39.414           0.255  
I07  23673480.084       -1060.574         -17.748           0.255  
> 2019 05 08 04 26 12.4688020  0  6                     
I02  20905916.056         367.878           3.594           0.255  
I03  20626679.131       -1315.782         -20.916           0.255  
I04  21950125.386        -583.967          -6.994           0.255  
I05  23739484.154       14680.792         221.394           0.255  
I06  22336855.268        2470.985          38.480           0.255  
I07  23673477.872       -1061.561         -25.433           0.255  
> 2019 05 08 04 26 12.5188020  0  6                     
I02  20905914.899         368.160           1.991           0.255  
I03  20626679.582       -1316.805         -22.250           0.255  
I04  21950128.942        -584.465          -6.835           0.255  
I05  23739482.541       14691.778         218.443           0.255  
I06  22336853.443        2472.803          36.583           0.255  
I07  23673486.127       -1062.477         -18.641           0.255  
> 2019 05 08 04 26 12.5688020  0  6                     
I02  20905914.903         368.406          -0.487           0.255  
I03  20626679.594       -1317.780         -18.370           0.255  
I04  21950130.150        -584.948         -17.061           0.255  
I05  23739478.333       14702.792         220.193           0.255  
I06  22336850.949        2474.627          34.708           0.255  
I07  23673479.607       -1063.380         -23.070           0.255  
> 2019 05 08 04 26 12.6188020  0  6                     
I02  20905913.993         368.701           7.402           0.255  
I03  20626679.470       -1318.815         -22.005           0.255  
I04  21950121.067        -585.321         -17.394           0.255  
I05  23739473.708       14713.772         219.473           0.255  
I06  22336849.386        2476.448          35.468           0.255  
I07  23673487.668       -1064.287         -21.018           0.255  
> 2019 05 08 04 26 12.6688020  0  6                     
I02  20905915.767         368.410         -24.338           0.255  
I03  20626680.668       -1319.831         -17.104           0.255  
I04  21950123.072        -584.391         187.959           0.255  
I05  23739470.176       14724.793         223.422           0.255  
I06  22336848.802        2478.288          38.736           0.255  
I07  23673479.598       -1065.212         -16.174           0.255  
> 2019 05 08 04 26 12.7188020  0  6                     
I02  20905914.419         369.253           6.228           0.255  
I03  20626681.910       -1320.845         -19.009           0.255  
I04  21950131.466        -586.163          -9.173           0.255  
I05  23739468.523       14735.807         220.762           0.255  
I06  22336848.723        2480.142          37.800           0.255  
I07  23673476.277       -1066.060         -13.338           0.255  
> 2019 05 08 04 26 12.7688020  0  6                     
I02  20905917.127         369.504           2.542           0.255  
I03  20626680.399       -1321.848         -20.158           0.255  
I04  21950163.197        -586.644          -7.595           0.255  
I05  23739465.194       14746.805         220.413           0.255  
I06  22336847.227        2481.984          37.817           0.255  
I07  23673483.086       -1066.955         -15.311           0.255  
> 2019 05 08 04 26 12.8188020  0  6                     
I02  20905916.335         369.774           7.008           0.255  
I03  20626680.342       -1322.883         -26.454           0.255  
I04  21950193.125        -587.040          -4.289           0.255  
I05  23739464.278       14757.798         215.787           0.255  
I06  22336846.717        2483.799          37.035           0.255  
I07  23673477.350       -1067.839         -12.360           0.255  
> 2019 05 08 04 26 12.8688020  0  6                     
I02  20905916.253         369.979           8.590           0.255  
I03  20626680.874       -1323.882         -19.314           0.255  
I04  21950198.091        -587.465           0.099           0.255  
I05  23739460.013       14768.769         222.441           0.255  
I06  22336845.036        2485.616          41.443           0.255  
I07  23673489.752       -1068.791         -12.519           0.255  
> 2019 05 08 04 26 12.9188020  0  6                     
I02  20905916.471         370.283           7.605           0.255  
I03  20626681.815       -1324.868         -17.735           0.255  
I04  21950201.101        -587.901          -0.921           0.255  
I05  23739459.038       14779.808         222.328           0.255  
I06  22336844.150        2487.465          39.799           0.255  
I07  23673487.712       -1069.654         -12.280           0.255  
> 2019 05 08 04 26 12.9688020  0  6                     
I02  20905917.198         370.593           8.317           0.255  
I03  20626681.052       -1325.871         -17.831           0.255  
I04  21950204.196        -588.420          -6.464           0.255  
I05  23739456.744       14790.825         219.751           0.255  
I06  22336846.507        2489.293          36.466           0.255  
I07  23673480.920       -1070.608         -21.758           0.255  
> 2019 05 08 04 26 13.0188020  0  6                     
I02  20905914.604         370.801           1.795           0.255  
I03  20626680.558       -1326.860         -19.472           0.255  
I04  21950195.697        -588.844          -8.022           0.255  
I05  23739454.743       14801.825         219.590           0.255  
I06  22336847.734        2491.113          34.097           0.255  
I07  23673478.207       -1071.509         -19.121           0.255  
> 2019 05 08 04 26 13.0688020  0  6                     
I02  20905915.663         371.081           0.477           0.255  
I03  20626682.475       -1327.889         -18.903           0.255  
I04  21950194.436        -589.345         -12.292           0.255  
I05  23739450.798       14812.819         221.764           0.255  
I06  22336845.195        2492.934          33.519           0.255  
I07  23673486.276       -1072.435         -18.259           0.255  
> 2019 05 08 04 26 13.1188020  0  6                     
I02  20905915.925         371.354           2.053           0.255  
I03  20626682.710       -1328.911         -17.187           0.255  
I04  21950195.771        -589.753         -10.166           0.255  
I05  23739448.392       14823.830         223.562           0.255  
I06  22336844.685        2494.790          36.960           0.255  
I07  23673480.300       -1073.339         -13.584           0.255  
> 2019 05 08 04 26 13.1688020  0  6                     
I02  20905917.361         371.648           7.799           0.255  
I03  20626681.750       -1329.918         -21.687           0.255  
I04  21950196.774        -590.192         -10.218           0.255  
I05  23739443.074       14834.831         224.768           0.255  
I06  22336844.258        2496.614          36.388           0.255  
I07  23673477.828       -1074.230         -10.291           0.255  
> 2019 05 08 04 26 13.2188020  0  6                     
I02  20905917.181         371.876           5.361           0.255  
I03  20626681.460       -1330.932         -22.438           0.255  
I04  21950196.026        -590.622          -8.922           0.255  
I05  23739440.851       14845.822         221.576           0.255  
I06  22336845.303        2498.448          36.628           0.255  
I07  23673490.380       -1075.142         -13.610           0.255  
> 2019 05 08 04 26 13.2688020  0  6                     
I02  20905915.770         372.138           3.796           0.255  
I03  20626682.647       -1331.968         -21.947           0.255  
I04  21950195.749        -591.112         -13.990           0.255  
I05  23739436.704       14856.798         219.033           0.255  
I06  22336844.983        2500.239          34.844           0.255  
I07  23673485.995       -1076.057         -15.438           0.255  
> 2019 05 08 04 26 13.3188020  0  6                     
I02  20905913.739         372.362           3.430           0.255  
I03  20626682.859       -1332.980         -21.762           0.255  
I04  21950197.173        -591.563         -10.341           0.255  
I05  23739433.636       14867.768         217.940           0.255  
I06  22336845.304        2502.078          37.508           0.255  
I07  23673480.835       -1077.063         -22.859           0.255  
> 2019 05 08 04 26 13.3688020  0  6                     
I02  20905914.561         372.632           9.720           0.255  
I03  20626682.074       -1334.051         -17.658           0.255  
I04  21950197.173        -592.015          -2.037           0.255  
I05  23739434.168       14878.762         223.355           0.255  
I06  22336846.148        2503.882          41.313           0.255  
I07  23673480.781       -1077.987         -12.479           0.255  
> 2019 05 08 04 26 13.4188020  0  6                     
I02  20905914.052         372.837           5.096           0.255  
I03  20626684.165       -1335.090         -19.730           0.255  
I04  21950196.922        -592.506          -5.919           0.255  
I05  23739434.319       14889.725         220.028           0.255  
I06  22336843.617        2505.657          37.356           0.255  
I07  23673488.513       -1078.898         -10.431           0.255  
> 2019 05 08 04 26 13.4688020  0  6                     
I02  20905913.815         373.044          -0.057           0.255  
I03  20626684.875       -1336.164         -22.030           0.255  
I04  21950195.699        -593.034         -11.848           0.255  
I05  23739431.030       14900.652         217.741           0.255  
I06  22336844.271        2507.421          34.255           0.255  
I07  23673482.143       -1079.864         -27.725           0.255  
> 2019 05 08 04 26 13.5188020  0  6                     
I02  20905913.311         372.223        -132.285           0.255  
I03  20626685.362       -1337.243         -26.718           0.255  
I04  21950201.828        -594.749         -54.085           0.255  
I05  23739428.388       14911.586         215.883           0.255  
I06  22336840.670        2508.553          29.160           0.255  
I07  23673492.014       -1080.843         -18.753           0.255  
> 2019 05 08 04 26 13.5688020  0  6                     
I02  20905913.512         373.560           7.100           0.255  
I03  20626684.788       -1338.216         -19.351           0.255  
I04  21950205.454        -593.956          -5.299           0.255  
I05  23739423.446       14922.576         217.249           0.255  
I06  22336840.318        2511.028          38.471           0.255  
I07  23673487.723       -1081.775         -11.992           0.255  
> 2019 05 08 04 26 13.6188020  0  6                     
I02  20905914.973         373.823          10.357           0.255  
I03  20626684.932       -1339.238         -21.066           0.255  
I04  21950202.838        -594.338          -1.404           0.255  
I05  23739419.985       14933.598         219.301           0.255  
I06  22336840.973        2512.859          37.456           0.255  
I07  23673484.141       -1082.707         -16.564           0.255  
> 2019 05 08 04 26 13.6688020  0  6                     
I02  20905914.774         374.089           7.582           0.255  
I03  20626683.587       -1340.248         -17.712           0.255  
I04  21950197.982        -594.811          -3.233           0.255  
I05  23739416.693       14944.610         221.624           0.255  
I06  22336841.117        2514.687          35.396           0.255  
I07  23673482.246       -1083.588         -12.326           0.255  
> 2019 05 08 04 26 13.7188020  0  6                     
I02  20905915.076         374.315           1.597           0.255  
I03  20626683.136       -1341.299         -19.493           0.255  
I04  21950197.029        -595.333          -7.776           0.255  
I05  23739414.214       14955.564         220.000           0.255  
I06  22336840.263        2516.469          33.478           0.255  
I07  23673475.825       -1084.505         -17.190           0.255  
> 2019 05 08 04 26 13.7688020  0  6                     
I02  20905915.010         374.600           4.351           0.255  
I03  20626683.201       -1342.347         -20.243           0.255  
I04  21950200.916        -595.833         -11.835           0.255  
I05  23739412.271       14966.553         218.954           0.255  
I06  22336838.964        2518.300          36.143           0.255  
I07  23673486.878       -1085.398         -11.095           0.255  
> 2019 05 08 04 26 13.8188020  0  6                     
I02  20905913.524         374.863           5.932           0.255  
I03  20626684.520       -1343.338         -17.727           0.255  
I04  21950198.786        -596.227          -8.108           0.255  
I05  23739409.794       14977.583         223.164           0.255  
I06  22336838.888        2520.146          39.916           0.255  
I07  23673484.968       -1086.365         -10.163           0.255  
> 2019 05 08 04 26 13.8688020  0  6                     
I02  20905914.160         375.113          11.484           0.255  
I03  20626684.884       -1344.366         -15.483           0.255  
I04  21950198.206        -596.706          -8.849           0.255  
I05  23739407.311       14988.564         225.402           0.255  
I06  22336836.330        2521.954          41.313           0.255  
I07  23673478.889       -1087.289         -11.119           0.255  
> 2019 05 08 04 26 13.9188020  0  6                     
I02  20905913.850         375.320           9.111           0.255  
I03  20626684.961       -1345.387         -19.472           0.255  
I04  21950196.115        -597.148         -10.186           0.255  
I05  23739399.854       14999.548         219.885           0.255  
I06  22336835.901        2523.769          37.859           0.255  
I07  23673488.334       -1088.270         -24.091           0.255  
> 2019 05 08 04 26 13.9688020  0  6                     
I02  20905914.167         375.597           4.245           0.255  
I03  20626685.176       -1346.425         -17.740           0.255  
I04  21950205.687        -597.607         -11.162           0.255  
I05  23739397.884       15010.541         220.091           0.255  
I06  22336838.059        2525.559          34.535           0.255  
I07  23673481.392       -1089.189         -21.193           0.255  
> 2019 05 08 04 26 14.0188020  0  6                     
I02  20905914.557         375.912           9.900           0.255  
I03  20626685.280       -1347.382         -15.570           0.255  
I04  21950201.257        -597.999          -5.282           0.255  
I05  23739393.283       15021.585         224.795           0.255  
I06  22336835.797        2527.437          37.156           0.255  
I07  23673480.421       -1090.036         -14.203           0.255  
> 2019 05 08 04 26 14.0688020  0  6                     
I02  20905913.978         376.237           9.864           0.255  
I03  20626685.628       -1348.364         -18.282           0.255  
I04  21950199.499        -598.442          -6.332           0.255  
I05  23739393.230       15032.619         225.716           0.255  
I06  22336837.562        2529.300          35.178           0.255  
I07  23673482.264       -1090.939         -19.602           0.255  
> 2019 05 08 04 26 14.1188020  0  6                     
I02  20905914.550         376.484           4.134           0.255  
I03  20626686.907       -1349.373         -21.894           0.255  
I04  21950198.411        -598.847          -7.370           0.255  
I05  23739389.312       15043.603         219.856           0.255  
I06  22336837.775        2531.131          33.236           0.255  
I07  23673481.248       -1091.849         -22.612           0.255  
> 2019 05 08 04 26 14.1688020  0  6                     
I02  20905914.458         376.771           6.190           0.255  
I03  20626686.397       -1350.394         -25.243           0.255  
I04  21950195.464        -599.345         -11.908           0.255  
I05  23739386.673       15054.608         216.247           0.255  
I06  22336837.917        2532.959          31.348           0.255  
I07  23673478.361       -1092.743         -19.545           0.255  
> 2019 05 08 04 26 14.2188020  0  6                     
I02  20905913.677         377.004           8.761           0.255  
I03  20626687.025       -1351.386         -23.977           0.255  
I04  21950194.178        -599.763          -9.743           0.255  
I05  23739384.430       15065.634         219.558           0.255  
I06  22336838.843        2534.796          34.700           0.255  
I07  23673488.087       -1093.617         -12.357           0.255  
> 2019 05 08 04 26 14.2688020  0  6                     
I02  20905915.610         377.287          11.869           0.255  
I03  20626687.085       -1352.348         -19.639           0.255  
I04  21950203.015        -600.197          -9.142           0.255  
I05  23739381.953       15076.684         222.359           0.255  
I06  22336836.357        2536.656          33.889           0.255  
I07  23673481.312       -1094.607         -14.164           0.255  
> 2019 05 08 04 26 14.3188020  0  6                     
I02  20905915.544         377.494           5.642           0.255  
I03  20626688.700       -1353.357         -21.904           0.255  
I04  21950200.176        -600.619          -9.411           0.255  
I05  23739379.420       15087.690         219.411           0.255  
I06  22336835.668        2538.502          34.480           0.255  
I07  23673478.902       -1095.436         -17.779           0.255  
> 2019 05 08 04 26 14.3688020  0  6                     
I02  20905914.360         377.726           4.271           0.255  
I03  20626689.614       -1354.406         -18.226           0.255  
I04  21950193.754        -601.085          -8.138           0.255  
I05  23739373.987       15098.651         223.196           0.255  
I06  22336836.039        2540.281          34.119           0.255  
I07  23673490.029       -1096.399         -21.392           0.255  
> 2019 05 08 04 26 14.4188020  0  6                     
I02  20905914.557         377.962           3.798           0.255  
I03  20626689.172       -1355.479         -23.952           0.255  
I04  21950205.603        -601.579         -10.049           0.255  
I05  23739372.990       15109.608         220.695           0.255  
I06  22336835.841        2542.087          34.029           0.255  
I07  23673484.979       -1097.343         -22.689           0.255  
> 2019 05 08 04 26 14.4688020  0  6                     
I02  20905914.629         378.187         -20.943           0.255  
I03  20626688.943       -1356.503         -20.522           0.255  
I04  21950203.366        -602.051         -11.600           0.255  
I05  23739371.251       15120.577         221.185           0.255  
I06  22336836.687        2543.885          34.744           0.255  
I07  23673481.376       -1098.234          -8.779           0.255  
> 2019 05 08 04 26 14.5188020  0  6                     
I02  20905910.662         378.488           4.312           0.255  
I03  20626689.948       -1357.504         -19.930           0.255  
I04  21950206.292        -602.461          -8.308           0.255  
I05  23739364.977       15131.597         221.845           0.255  
I06  22336834.528        2545.904          10.467           0.255  
I07  23673490.794       -1099.223         -11.940           0.255  
> 2019 05 08 04 26 14.5688020  0  6                     
I02  20905912.128         378.787           2.303           0.255  
I03  20626687.954       -1358.501         -20.777           0.255  
I04  21950201.412        -602.891          -6.447           0.255  
I05  23739362.724       15142.622         219.586           0.255  
I06  22336831.976        2547.573          35.929           0.255  
I07  23673483.955       -1100.064         -12.975           0.255  
> 2019 05 08 04 26 14.6188020  0  6                     
I02  20905912.958         379.050           4.995           0.255  
I03  20626688.933       -1359.505         -22.384           0.255  
I04  21950199.234        -603.315          -6.758           0.255  
I05  23739362.936       15153.629         219.603           0.255  
I06  22336832.531        2549.411          35.299           0.255  
I07  23673481.169       -1100.997         -19.378           0.255  
> 2019 05 08 04 26 14.6688020  0  6                     
I02  20905912.519         379.336           9.658           0.255  
I03  20626689.683       -1360.493         -17.180           0.255  
I04  21950204.201        -603.740          -3.265           0.255  
I05  23739361.306       15164.631         220.395           0.255  
I06  22336832.376        2551.272          40.866           0.255  
I07  23673475.865       -1101.894         -20.748           0.255  
> 2019 05 08 04 26 14.7188020  0  6                     
I02  20905913.138         379.634           9.808           0.255  
I03  20626689.091       -1361.489         -17.250           0.255  
I04  21950203.538        -604.184          -7.146           0.255  
I05  23739358.294       15175.661         221.420           0.255  
I06  22336832.552        2553.130          41.808           0.255  
I07  23673487.589       -1102.713         -11.293           0.255  
> 2019 05 08 04 26 14.7688020  0  6                     
I02  20905911.369         379.930          11.791           0.255  
I03  20626690.516       -1362.500         -18.186           0.255  
I04  21950204.070        -604.579          -9.199           0.255  
I05  23739354.559       15186.696         219.566           0.255  
I06  22336831.804        2554.960          37.966           0.255  
I07  23673483.210       -1103.628         -14.257           0.255  
> 2019 05 08 04 26 14.8188020  0  6                     
I02  20905911.155         380.178           3.179           0.255  
I03  20626689.739       -1363.489         -19.269           0.255  
I04  21950203.681        -605.016         -10.712           0.255  
I05  23739351.742       15197.716         219.849           0.255  
I06  22336830.503        2556.813          36.297           0.255  
I07  23673479.711       -1104.547         -13.134           0.255  
> 2019 05 08 04 26 14.8688020  0  6                     
I02  20905912.590         380.449           4.847           0.255  
I03  20626690.140       -1364.508         -17.874           0.255  
I04  21950201.820        -605.502         -10.073           0.255  
I05  23739351.981       15208.686         218.638           0.255  
I06  22336830.297        2558.625          37.360           0.255  
I07  23673491.498       -1105.454         -13.230           0.255  
> 2019 05 08 04 26 14.9188020  0  6                     
I02  20905910.762         380.751           6.790           0.255  
I03  20626690.821       -1365.491         -17.659           0.255  
I04  21950202.804        -605.918          -8.786           0.255  
I05  23739348.669       15219.724         220.784           0.255  
I06  22336828.470        2560.470          38.668           0.255  
I07  23673489.221       -1106.380         -14.747           0.255  
> 2019 05 08 04 26 14.9688020  0  6                     
I02  20905913.370         381.061          12.923           0.255  
I03  20626691.257       -1366.461         -18.779           0.255  
I04  21950196.601        -606.305         -11.065           0.255  
I05  23739345.082       15230.803         222.678           0.255  
I06  22336827.140        2562.346          39.668           0.255  
I07  23673479.243       -1107.285         -22.476           0.255  
> 2019 05 08 04 26 15.0188020  0  6                     
I02  20905913.277         381.376           9.972           0.255  
I03  20626691.231       -1367.466         -20.102           0.255  
I04  21950195.298        -606.707          -9.081           0.255  
I05  23739338.180       15241.841         221.059           0.255  
I06  22336828.341        2564.217          39.131           0.255  
I07  23673481.362       -1108.192         -32.847           0.255  
> 2019 05 08 04 26 15.0688020  0  6                     
I02  20905913.510         381.652           8.907           0.255  
I03  20626691.008       -1368.438         -19.846           0.255  
I04  21950193.301        -607.157         -13.164           0.255  
I05  23739334.832       15252.866         222.052           0.255  
I06  22336827.657        2566.051          35.764           0.255  
I07  23673476.832       -1109.082         -35.889           0.255  
> 2019 05 08 04 26 15.1188020  0  6                     
I02  20905911.931         381.909           4.680           0.255  
I03  20626690.631       -1369.449         -20.216           0.255  
I04  21950195.510        -607.564          -8.843           0.255  
I05  23739333.545       15263.868         218.595           0.255  
I06  22336828.535        2567.920          37.944           0.255  
I07  23673486.541       -1109.956         -28.039           0.255  
> 2019 05 08 04 26 15.1688020  0  6                     
I02  20905913.784         382.199           5.975           0.255  
I03  20626690.789       -1370.386         -15.510           0.255  
I04  21950202.480        -607.947          -6.497           0.255  
I05  23739331.479       15274.920         222.885           0.255  
I06  22336828.599        2569.790          37.682           0.255  
I07  23673482.506       -1110.777         -19.334           0.255  
> 2019 05 08 04 26 15.2188020  0  6                     
I02  20905914.495         382.498           3.150           0.255  
I03  20626690.859       -1371.384         -19.691           0.255  
I04  21950202.044        -608.333          -5.715           0.255  
I05  23739327.222       15285.972         222.174           0.255  
I06  22336826.861        2571.642          36.175           0.255  
I07  23673478.386       -1111.651         -15.945           0.255  
> 2019 05 08 04 26 15.2688020  0  6                     
I02  20905912.943         382.803           5.486           0.255  
I03  20626691.867       -1372.386         -22.660           0.255  
I04  21950203.939        -608.774         -10.074           0.255  
I05  23739323.522       15297.004         218.952           0.255  
I06  22336827.388        2573.510          35.539           0.255  
I07  23673490.871       -1112.582         -20.095           0.255  
> 2019 05 08 04 26 15.3188020  0  6                     
I02  20905913.536         383.129           6.567           0.255  
I03  20626691.010       -1373.307         -22.007           0.255  
I04  21950201.856        -609.154          -6.567           0.255  
I05  23739319.738       15308.046         216.339           0.255  
I06  22336825.302        2575.419          36.346           0.255  
I07  23673492.240       -1113.450         -30.753           0.255  
> 2019 05 08 04 26 15.3688020  0  6                     
I02  20905913.625         383.425          10.688           0.255  
I03  20626692.804       -1374.296         -16.490           0.255  
I04  21950199.489        -609.590          -6.400           0.255  
I05  23739316.827       15319.093         220.435           0.255  
I06  22336826.878        2577.267          38.070           0.255  
I07  23673489.150       -1114.297         -18.169           0.255  
> 2019 05 08 04 26 15.4188020  0  6                     
I02  20905911.574         383.712           4.162           0.255  
I03  20626694.170       -1375.284         -17.136           0.255  
I04  21950200.340        -609.987          -7.494           0.255  
I05  23739314.833       15330.132         220.686           0.255  
I06  22336826.071        2579.120          37.107           0.255  
I07  23673487.125       -1115.141         -19.168           0.255  
> 2019 05 08 04 26 15.4688020  0  6                     
I02  20905913.370         383.960           3.810           0.255  
I03  20626692.892       -1376.271         -16.445           0.255  
I04  21950195.881        -610.460         -11.790           0.255  
I05  23739313.096       15341.115         218.774           0.255  
I06  22336824.365        2580.928          34.722           0.255  
I07  23673481.751       -1116.026         -20.490           0.255  
> 2019 05 08 04 26 15.5188020  0  6                     
I02  20905912.408         384.225           6.450           0.255  
I03  20626693.857       -1377.296         -22.933           0.255  
I04  21950195.203        -610.853         -13.273           0.255  
I05  23739310.522       15352.146         216.704           0.255  
I06  22336824.473        2582.577         -50.165           0.255  
I07  23673477.438       -1116.903         -18.219           0.255  
> 2019 05 08 04 26 15.5688020  0  6                     
I02  20905912.801         384.567           7.645           0.255  
I03  20626693.959       -1378.247         -18.479           0.255  
I04  21950192.962        -611.239          -8.889           0.255  
I05  23739308.202       15363.209         217.979           0.255  
I06  22336825.942        2584.665          35.709           0.255  
I07  23673491.214       -1117.844         -26.415           0.255  
> 2019 05 08 04 26 15.6188020  0  6                     
I02  20905913.076         384.875           3.277           0.255  
I03  20626693.969       -1379.201         -18.594           0.255  
I04  21950207.321        -611.645          -7.164           0.255  
I05  23739303.859       15374.270         221.063           0.255  
I06  22336824.226        2586.542          37.596           0.255  
I07  23673487.702       -1118.692         -21.564           0.255  
> 2019 05 08 04 26 15.6688020  0  6                     
I02  20905912.474         385.178           5.914           0.255  
I03  20626694.224       -1380.187         -17.128           0.255  
I04  21950206.394        -612.029          -4.154           0.255  
I05  23739301.916       15385.305         221.393           0.255  
I06  22336823.549        2588.407          38.075           0.255  
I07  23673487.551       -1119.524         -10.453           0.255  
> 2019 05 08 04 26 15.7188020  0  6                     
I02  20905912.980         385.488           2.813           0.255  
I03  20626693.287       -1381.176         -19.873           0.255  
I04  21950203.941        -612.439          -6.866           0.255  
I05  23739298.792       15396.368         221.536           0.255  
I06  22336822.842        2590.293          38.229           0.255  
I07  23673480.958       -1120.394         -16.930           0.255  
> 2019 05 08 04 26 15.7688020  0  6                     
I02  20905913.656         385.805           4.772           0.255  
I03  20626693.307       -1382.128         -18.833           0.255  
I04  21950201.988        -612.854          -6.120           0.255  
I05  23739294.603       15407.419         222.086           0.255  
I06  22336821.887        2592.169          37.906           0.255  
I07  23673483.036       -1121.242          -8.169           0.255  
> 2019 05 08 04 26 15.8188020  0  6                     
I02  20905913.113         386.119           1.385           0.255  
I03  20626693.097       -1383.058         -18.558           0.255  
I04  21950204.411        -613.247         -10.535           0.255  
I05  23739293.782       15418.478         219.687           0.255  
I06  22336820.720        2594.047          36.008           0.255  
I07  23673482.069       -1122.126         -21.929           0.255  
> 2019 05 08 04 26 15.8688020  0  6                     
I02  20905912.622         386.358           2.877           0.255  
I03  20626694.841       -1384.069         -15.658           0.255  
I04  21950201.197        -613.689          -6.368           0.255  
I05  23739292.515       15429.496         223.561           0.255  
I06  22336821.974        2595.879          40.263           0.255  
I07  23673482.250       -1123.075         -18.239           0.255  
> 2019 05 08 04 26 15.9188020  0  6                     
I02  20905911.914         386.632           2.074           0.255  
I03  20626694.844       -1385.113         -19.504           0.255  
I04  21950201.350        -614.122          -8.062           0.255  
I05  23739290.013       15440.502         221.359           0.255  
I06  22336821.142        2597.696          38.126           0.255  
I07  23673480.925       -1123.986         -26.883           0.255  
> 2019 05 08 04 26 15.9688020  0  6                     
I02  20905911.122         386.958           7.533           0.255  
I03  20626693.952       -1386.093         -18.426           0.255  
I04  21950205.992        -614.564          -9.166           0.255  
I05  23739287.449       15451.540         224.118           0.255  
I06  22336820.254        2599.545          38.224           0.255  
I07  23673490.994       -1124.891         -25.699           0.255  
> 2019 05 08 04 26 16.0188020  0  6                     
I02  20905911.968         387.217           4.706           0.255  
I03  20626695.330       -1387.041         -14.704           0.255  
I04  21950202.985        -614.943          -7.721           0.255  
I05  23739286.045       15462.604         225.690           0.255  
I06  22336821.195        2601.429          38.708           0.255  
I07  23673487.433       -1125.795         -23.388           0.255  
> 2019 05 08 04 26 16.0688020  0  6                     
I02  20905913.631         387.530           7.441           0.255  
I03  20626687.394       -1388.055         -18.754           0.255  
I04  21950196.079        -615.340          -7.632           0.255  
I05  23739282.208       15473.630         224.021           0.255  
I06  22336821.300        2603.271          36.913           0.255  
I07  23673491.894       -1126.670         -19.814           0.255  
> 2019 05 08 04 26 16.1188020  0  6                     
I02  20905912.155         387.812           4.143           0.255  
I03  20626691.276       -1389.056         -21.038           0.255  
I04  21950197.951        -615.800         -10.482           0.255  
I05  23739278.478       15484.636         219.770           0.255  
I06  22336821.581        2605.125          36.239           0.255  
I07  23673490.296       -1127.587         -18.312           0.255  
> 2019 05 08 04 26 16.1688020  0  6                     
I02  20905914.730         387.302          69.912           0.255  
I03  20626693.514       -1390.073         -22.720           0.255  
I04  21950194.868        -616.358         -43.336           0.255  
I05  23739276.020       15495.638         218.970           0.255  
I06  22336818.721        2606.976          36.358           0.255  
I07  23673491.961       -1128.470         -19.315           0.255  
> 2019 05 08 04 26 16.2188020  0  6                     
I02  20905912.527         388.432          12.074           0.255  
I03  20626695.023       -1391.044         -18.012           0.255  
I04  21950196.076        -616.641          -8.796           0.255  
I05  23739273.043       15506.712         224.328           0.255  
I06  22336817.762        2608.830          38.646           0.255  
I07  23673488.087       -1129.304         -20.167           0.255  
> 2019 05 08 04 26 16.2688020  0  6                     
I02  20905914.780         388.732          13.374           0.255  
I03  20626694.524       -1392.023         -20.701           0.255  
I04  21950194.904        -617.040         -10.589           0.255  
I05  23739272.717       15517.724         222.249           0.255  
I06  22336814.661        2610.679          36.740           0.255  
I07  23673488.426       -1130.177         -17.928           0.255  
> 2019 05 08 04 26 16.3188020  0  6                     
I02  20905913.280         388.956          10.782           0.255  
I03  20626687.703       -1393.020         -21.396           0.255  
I04  21950194.924        -617.472         -10.219           0.255  
I05  23739269.714       15528.737         219.432           0.255  
I06  22336815.238        2612.531          35.501           0.255  
I07  23673486.217       -1131.075         -17.316           0.255  
> 2019 05 08 04 26 16.3688020  0  6                     
I02  20905911.061         389.160          10.357           0.255  
I03  20626692.504       -1394.071         -21.989           0.255  
I04  21950195.762        -617.971         -12.196           0.255  
I05  23739267.318       15539.711         220.238           0.255  
I06  22336816.612        2614.487         106.664           0.255  
I07  23673486.242       -1132.029         -16.878           0.255  
> 2019 05 08 04 26 16.4188020  0  6                     
I02  20905913.165         389.371           5.586           0.255  
I03  20626694.716       -1395.091         -20.781           0.255  
I04  21950193.951        -618.397          -8.642           0.255  
I05  23739266.444       15550.713         221.014           0.255  
I06  22336815.634        2616.017          44.577           0.255  
I07  23673483.454       -1132.959         -23.054           0.255  
> 2019 05 08 04 26 16.4688020  0  6                     
I02  20905912.481         389.581           1.624           0.255  
I03  20626687.731       -1396.104         -19.767           0.255  
I04  21950206.588        -618.831          -8.348           0.255  
I05  23739259.027       15561.706         220.079           0.255  
I06  22336815.427        2617.963          37.153           0.255  
I07  23673483.126       -1133.828         -12.365           0.255  
> 2019 05 08 04 26 16.5188020  0  6                     
I02  20905912.151         389.907           2.795           0.255  
I03  20626691.587       -1397.122         -19.418           0.255  
I04  21950202.027        -619.297          -8.805           0.255  
I05  23739256.550       15572.702         218.958           0.255  
I06  22336815.617        2619.783          35.828           0.255  
I07  23673480.133       -1134.741         -19.351           0.255  
> 2019 05 08 04 26 16.5688020  0  6                     
I02  20905913.361         390.194           1.425           0.255  
I03  20626693.444       -1398.150         -21.986           0.255  
I04  21950197.194        -619.742         -12.171           0.255  
I05  23739254.152       15583.727         218.316           0.255  
I06  22336814.942        2621.615          34.525           0.255  
I07  23673478.443       -1135.674         -25.135           0.255  
> 2019 05 08 04 26 16.6188020  0  6                     
I02  20905911.314         390.470           0.055           0.255  
I03  20626689.530       -1399.149         -20.387           0.255  
I04  21950199.182        -620.193         -11.754           0.255  
I05  23739250.991       15594.744         218.544           0.255  
I06  22336814.368        2623.457          35.118           0.255  
I07  23673477.469       -1136.600         -22.128           0.255  
> 2019 05 08 04 26 16.6688020  0  6                     
I02  20905912.707         390.774           9.081           0.255  
I03  20626692.189       -1400.144         -16.541           0.255  
I04  21950194.193        -620.627          -9.694           0.255  
I05  23739248.020       15605.781         223.275           0.255  
I06  22336812.595        2625.302          38.934           0.255  
I07  23673490.505       -1137.519         -16.176           0.255  
> 2019 05 08 04 26 16.7188020  0  6                     
I02  20905909.890         391.021           5.738           0.255  
I03  20626694.105       -1401.118         -16.512           0.255  
I04  21950194.922        -621.009          -9.060           0.255  
I05  23739244.133       15616.831         224.957           0.255  
I06  22336813.527        2627.162          37.940           0.255  
I07  23673492.130       -1138.342         -16.484           0.255  
> 2019 05 08 04 26 16.7688020  0  6                     
I02  20905909.788         391.298           5.650           0.255  
I03  20626688.270       -1402.092         -19.489           0.255  
I04  21950192.658        -621.442         -10.729           0.255  
I05  23739242.069       15627.829         222.340           0.255  
I06  22336813.770        2628.994          36.668           0.255  
I07  23673488.947       -1139.316         -14.501           0.255  
> 2019 05 08 04 26 16.8188020  0  6                     
I02  20905910.391         391.560           1.544           0.255  
I03  20626692.760       -1403.103         -20.408           0.255  
I04  21950197.644        -621.849          -9.846           0.255  
I05  23739238.652       15638.835         219.300           0.255  
I06  22336813.108        2630.840          36.780           0.255  
I07  23673488.477       -1140.266         -25.158           0.255  
> 2019 05 08 04 26 16.8688020  0  6                     
I02  20905912.406         391.854          10.231           0.255  
I03  20626689.699       -1404.129         -17.470           0.255  
I04  21950194.102        -622.279          -6.294           0.255  
I05  23739232.015       15649.840         222.447           0.255  
I06  22336812.290        2632.672          39.956           0.255  
I07  23673489.839       -1141.109         -10.892           0.255  
> 2019 05 08 04 26 16.9188020  0  6                     
I02  20905911.375         392.144           7.265           0.255  
I03  20626695.762       -1405.089         -14.715           0.255  
I04  21950194.659        -622.688          -7.334           0.255  
I05  23739229.365       15660.901         223.206           0.255  
I06  22336810.399        2634.539          40.388           0.255  
I07  23673486.888       -1141.960         -11.490           0.255  
> 2019 05 08 04 26 16.9688020  0  6                     
I02  20905912.342         392.484           7.424           0.255  
I03  20626691.344       -1406.047         -19.500           0.255  
I04  21950194.482        -623.099          -8.324           0.255  
I05  23739225.157       15671.944         218.876           0.255  
I06  22336808.140        2636.425          36.215           0.255  
I07  23673484.669       -1142.853         -21.649           0.255  
> 2019 05 08 04 26 17.0188020  0  6                     
I02  20905911.415         392.767           3.868           0.255  
I03  20626687.020       -1407.029         -21.814           0.255  
I04  21950197.799        -623.534         -13.027           0.255  
I05  23739224.229       15682.997         218.594           0.255  
I06  22336808.169        2638.270          34.836           0.255  
I07  23673483.936       -1143.689         -22.323           0.255  
> 2019 05 08 04 26 17.0688020  0  6                     
I02  20905910.412         393.071           4.821           0.255  
I03  20626692.403       -1407.995         -19.580           0.255  
I04  21950200.511        -623.905          -4.710           0.255  
I05  23739225.570       15694.047         220.019           0.255  
I06  22336808.956        2640.153          38.262           0.255  
I07  23673481.755       -1144.560         -17.491           0.255  
> 2019 05 08 04 26 17.1188020  0  6                     
I02  20905909.528         393.352           6.724           0.255  
I03  20626689.089       -1408.965         -15.924           0.255  
I04  21950202.213        -624.326          -3.090           0.255  
I05  23739223.075       15705.096         221.324           0.255  
I06  22336807.137        2642.020          38.943           0.255  
I07  23673480.743       -1145.489         -17.715           0.255  
> 2019 05 08 04 26 17.1688020  0  6                     
I02  20905908.436         393.635           4.568           0.255  
I03  20626695.692       -1409.952         -16.568           0.255  
I04  21950203.340        -624.735          -5.159           0.255  
I05  23739220.206       15716.126         220.245           0.255  
I06  22336804.298        2643.871          37.401           0.255  
I07  23673481.591       -1146.375         -20.509           0.255  
> 2019 05 08 04 26 17.2188020  0  6                     
I02  20905909.331         394.637          18.591           0.255  
I03  20626693.459       -1411.002         -22.808           0.255  
I04  21950202.487        -625.955         -86.718           0.255  
I05  23739216.050       15727.114         217.358           0.255  
I06  22336804.533        2645.143         -46.613           0.255  
I07  23673484.566       -1147.255         -14.655           0.255  
> 2019 05 08 04 26 17.2688020  0  6                     
I02  20905908.993         394.170           2.659           0.255  
I03  20626689.334       -1411.993         -20.564           0.255  
I04  21950204.885        -627.347        -140.950           0.255  
I05  23739215.354       15738.118         218.089           0.255  
I06  22336804.811        2646.512          92.855           0.255  
I07  23673480.284       -1148.242         -23.523           0.255  
> 2019 05 08 04 26 17.3188020  0  6                     
I02  20905907.193         394.420           2.541           0.255  
I03  20626695.219       -1413.009         -19.832           0.255  
I04  21950196.260        -625.999         128.492           0.255  
I05  23739202.974       15749.144         222.181           0.255  
I06  22336806.108        2649.370          41.369           0.255  
I07  23673478.240       -1149.164         -23.175           0.255  
> 2019 05 08 04 26 17.3688020  0  6                     
I02  20905909.685         394.616           4.661           0.255  
I03  20626691.539       -1414.060         -15.743           0.255  
I04  21950193.898        -625.499         107.458           0.255  
I05  23739204.852       15760.121         226.359           0.255  
I06  22336805.947        2651.527         195.662           0.255  
I07  23673477.166       -1150.037         -14.030           0.255  
> 2019 05 08 04 26 17.4188020  0  6                     
I02  20905909.515         394.862           3.763           0.255  
I03  20626696.172       -1415.110         -22.064           0.255  
I04  21950195.607        -627.014         -10.588           0.255  
I05  23739203.811       15771.104         220.812           0.255  
I06  22336805.857        2652.945          39.323           0.255  
I07  23673477.985       -1150.986         -16.155           0.255  
> 2019 05 08 04 26 17.4688020  0  6                     
I02  20905908.156         396.064          -7.104           0.255  
I03  20626692.433       -1416.195         -24.514           0.255  
I04  21950196.478        -627.522         -11.483           0.255  
I05  23739202.421       15782.027         215.405           0.255  
I06  22336805.838        2654.628          18.157           0.255  
I07  23673476.908       -1151.937         -12.755           0.255  
> 2019 05 08 04 26 17.5188020  0  6                     
I02  20905908.010         395.314          -1.905           0.255  
I03  20626687.154       -1417.258         -21.955           0.255  
I04  21950194.527        -628.021         -11.798           0.255  
I05  23739202.523       15792.983         214.789           0.255  
I06  22336805.440        2656.472          35.391           0.255  
I07  23673478.077       -1152.872         -20.514           0.255  
> 2019 05 08 04 26 17.5688020  0  6                     
I02  20905909.961         395.629           5.223           0.255  
I03  20626694.344       -1418.207         -16.472           0.255  
I04  21950195.031        -628.413          -8.787           0.255  
I05  23739196.728       15804.046         222.825           0.255  
I06  22336804.977        2658.330          38.260           0.255  
I07  23673479.270       -1153.855         -16.881           0.255  
> 2019 05 08 04 26 17.6188020  0  6                     
I02  20905909.567         395.899          11.652           0.255  
I03  20626690.556       -1419.267         -22.679           0.255  
I04  21950200.058        -628.856          -9.451           0.255  
I05  23739194.381       15815.040         221.925           0.255  
I06  22336803.034        2660.150          38.301           0.255  
I07  23673483.432       -1154.806         -20.596           0.255  
> 2019 05 08 04 26 17.6688020  0  6                     
I02  20905910.909         396.140          10.980           0.255  
I03  20626689.866       -1420.311         -21.474           0.255  
I04  21950199.660        -629.351          -8.737           0.255  
I05  23739190.630       15826.014         221.409           0.255  
I06  22336802.878        2661.948          36.939           0.255  
I07  23673483.157       -1155.755         -18.533           0.255  
> 2019 05 08 04 26 17.7188020  0  6                     
I02  20905910.035         396.334           7.274           0.255  
I03  20626687.819       -1421.349         -21.581           0.255  
I04  21950202.051        -629.855         -12.299           0.255  
I05  23739188.876       15836.993         218.833           0.255  
I06  22336804.049        2663.745          34.814           0.255  
I07  23673482.961       -1156.657         -21.304           0.255  
> 2019 05 08 04 26 17.7688020  0  6                     
I02  20905911.547         396.623          12.260           0.255  
I03  20626694.014       -1422.367         -19.751           0.255  
I04  21950199.670        -630.292          -9.568           0.255  
I05  23739183.559       15848.011         220.721           0.255  
I06  22336803.236        2665.565          36.487           0.255  
I07  23673483.394       -1157.551         -19.273           0.255  
> 2019 05 08 04 26 17.8188020  0  6                     
I02  20905910.446         396.897          13.432           0.255  
I03  20626691.951       -1423.400         -19.339           0.255  
I04  21950199.586        -630.743          -8.175           0.255  
I05  23739182.612       15859.040         222.704           0.255  
I06  22336802.529        2667.403          38.161           0.255  
I07  23673486.205       -1158.390         -14.661           0.255  
> 2019 05 08 04 26 17.8688020  0  6                     
I02  20905909.474         397.145           9.382           0.255  
I03  20626688.264       -1424.441         -17.349           0.255  
I04  21950199.637        -631.225          -7.268           0.255  
I05  23739179.125       15870.021         225.189           0.255  
I06  22336803.363        2669.201          39.497           0.255  
I07  23673481.785       -1159.383         -16.109           0.255  
> 2019 05 08 04 26 17.9188020  0  6                     
I02  20905909.266         397.376           7.614           0.255  
I03  20626695.550       -1425.470         -22.439           0.255  
I04  21950200.038        -631.653          -8.228           0.255  
I05  23739178.199       15881.001         218.687           0.255  
I06  22336801.493        2670.999          35.844           0.255  
I07  23673483.348       -1160.353         -19.992           0.255  
> 2019 05 08 04 26 17.9688020  0  6                     
I02  20905908.702         397.617           8.263           0.255  
I03  20626696.950       -1426.485         -23.122           0.255  
I04  21950205.313        -632.104          -7.871           0.255  
I05  23739172.935       15892.020         220.372           0.255  
I06  22336800.424        2672.838          37.169           0.255  
I07  23673483.315       -1161.279         -26.175           0.255  
> 2019 05 08 04 26 18.0188020  0  6                     
I02  20905909.782         397.928          11.713           0.255  
I03  20626696.017       -1427.470         -19.840           0.255  
I04  21950194.227        -632.533          -9.388           0.255  
I05  23739171.162       15903.056         225.243           0.255  
I06  22336802.258        2674.693          40.505           0.255  
I07  23673482.184       -1162.093         -15.291           0.255  
> 2019 05 08 04 26 18.0688020  0  6                     
I02  20905910.248         398.214          13.525           0.255  
I03  20626693.198       -1428.445         -19.846           0.255  
I04  21950205.932        -632.917          -8.506           0.255  
I05  23739168.206       15914.069         221.538           0.255  
I06  22336802.027        2676.537          37.567           0.255  
I07  23673482.921       -1162.947         -12.888           0.255  
> 2019 05 08 04 26 18.1188020  0  6                     
I02  20905909.715         398.466           4.084           0.255  
I03  20626690.639       -1429.458         -21.416           0.255  
I04  21950201.626        -633.350         -11.906           0.255  
I05  23739165.798       15925.090         219.439           0.255  
I06  22336800.745        2678.379          36.026           0.255  
I07  23673483.633       -1163.921         -15.277           0.255  
> 2019 05 08 04 26 18.1688020  0  6                     
I02  20905907.793         398.741           3.053           0.255  
I03  20626690.400       -1430.485         -22.493           0.255  
I04  21950193.631        -633.822         -14.013           0.255  
I05  23739162.949       15936.112         219.151           0.255  
I06  22336802.492        2680.199          34.497           0.255  
I07  23673485.433       -1164.873         -20.377           0.255  
> 2019 05 08 04 26 18.2188020  0  6                     
I02  20905909.309         399.006           6.400           0.255  
I03  20626689.886       -1431.468         -23.048           0.255  
I04  21950206.487        -634.235          -9.592           0.255  
I05  23739158.863       15947.127         220.444           0.255  
I06  22336801.903        2682.054          38.133           0.255  
I07  23673487.890       -1165.824         -22.599           0.255  
> 2019 05 08 04 26 18.2688020  0  6                     
I02  20905911.799         399.281           7.767           0.255  
I03  20626689.324       -1432.440         -18.531           0.255  
I04  21950205.729        -634.650          -9.289           0.255  
I05  23739158.704       15958.166         222.382           0.255  
I06  22336800.413        2683.896          40.112           0.255  
I07  23673485.404       -1166.689         -14.265           0.255  
> 2019 05 08 04 26 18.3188020  0  6                     
I02  20905910.451         399.559           3.291           0.255  
I03  20626687.692       -1433.449         -20.534           0.255  
I04  21950196.088        -635.086         -10.337           0.255  
I05  23739155.430       15969.181         220.606           0.255  
I06  22336799.251        2685.740          37.960           0.255  
I07  23673485.909       -1167.619         -14.991           0.255  
> 2019 05 08 04 26 18.3688020  0  6                     
I02  20905909.759         399.775           4.595           0.255  
I03  20626696.226       -1434.477         -18.332           0.255  
I04  21950195.741        -635.572          -9.235           0.255  
I05  23739154.023       15980.161         219.931           0.255  
I06  22336798.111        2687.528          37.745           0.255  
I07  23673489.240       -1168.523         -14.148           0.255  
> 2019 05 08 04 26 18.4188020  0  6                     
I02  20905907.741         400.029           5.490           0.255  
I03  20626687.987       -1435.532         -24.314           0.255  
I04  21950207.324        -636.919         -97.420           0.255  
I05  23739150.972       15991.161         217.791           0.255  
I06  22336798.565        2689.354          37.572           0.255  
I07  23673492.185       -1169.413         -15.157           0.255  
> 2019 05 08 04 26 18.4688020  0  6                     
I02  20905909.493         400.237           4.876           0.255  
I03  20626695.247       -1436.582         -22.884           0.255  
I04  21950195.599        -636.483          -7.745           0.255  
I05  23739149.373       16002.171         219.285           0.255  
I06  22336800.476        2691.164          36.535           0.255  
I07  23673477.348       -1170.290         -12.634           0.255  
> 2019 05 08 04 26 18.5188020  0  6                     
I02  20905908.410         400.531           4.987           0.255  
I03  20626693.991       -1437.558         -20.600           0.255  
I04  21950198.748        -636.927          -8.570           0.255  
I05  23739144.038       16013.167         219.703           0.255  
I06  22336797.804        2692.990          36.901           0.255  
I07  23673483.095       -1171.223         -13.144           0.255  
> 2019 05 08 04 26 18.5688020  0  6                     
I02  20905909.307         400.831           5.615           0.255  
I03  20626694.493       -1438.540         -21.846           0.255  
I04  21950199.454        -637.335         -10.366           0.255  
I05  23739140.977       16024.227         221.624           0.255  
I06  22336796.112        2694.835          36.300           0.255  
I07  23673484.293       -1172.113          -1.679           0.255  
> 2019 05 08 04 26 18.6188020  0  6                     
I02  20905908.074         401.108           4.965           0.255  
I03  20626693.921       -1439.571         -24.560           0.255  
I04  21950200.059        -637.751          -9.988           0.255  
I05  23739138.008       16035.265         220.123           0.255  
I06  22336796.026        2696.674          34.980           0.255  
I07  23673488.997       -1173.038         -13.876           0.255  
> 2019 05 08 04 26 18.6688020  0  6                     
I02  20905907.466         401.374           6.971           0.255  
I03  20626694.151       -1440.570         -20.761           0.255  
I04  21950202.569        -638.177          -6.936           0.255  
I05  23739135.456       16046.260         221.563           0.255  
I06  22336796.327        2698.510          37.453           0.255  
I07  23673488.415       -1173.960         -14.536           0.255  
> 2019 05 08 04 26 18.7188020  0  6                     
I02  20905906.672         401.683           9.292           0.255  
I03  20626693.480       -1441.545         -17.290           0.255  
I04  21950205.380        -638.618          -7.905           0.255  
I05  23739134.324       16057.314         223.382           0.255  
I06  22336797.363        2700.373          40.078           0.255  
I07  23673486.806       -1174.817         -10.945           0.255  
> 2019 05 08 04 26 18.7688020  0  6                     
I02  20905908.410         401.941           3.198           0.255  
I03  20626693.468       -1442.541         -17.930           0.255  
I04  21950204.111        -639.022          -7.702           0.255  
I05  23739130.776       16068.360         223.442           0.255  
I06  22336796.082        2702.224          37.454           0.255  
I07  23673489.712       -1175.679          -7.856           0.255  
> 2019 05 08 04 26 18.8188020  0  6                     
I02  20905910.762         402.233           1.642           0.255  
I03  20626694.813       -1443.540         -19.647           0.255  
I04  21950204.023        -639.471         -12.407           0.255  
I05  23739128.583       16079.380         222.150           0.255  
I06  22336795.557        2704.062          35.202           0.255  
I07  23673489.372       -1176.622         -16.730           0.255  
> 2019 05 08 04 26 18.8688020  0  6                     
I02  20905907.737         402.454           7.217           0.255  
I03  20626695.814       -1444.561         -18.965           0.255  
I04  21950205.029        -639.928          -9.483           0.255  
I05  23739125.942       16090.383         225.037           0.255  
I06  22336796.016        2705.880          37.901           0.255  
I07  23673477.760       -1177.533         -11.172           0.255  
> 2019 05 08 04 26 18.9188020  0  6                     
I02  20905908.238         402.766           6.006           0.255  
I03  20626697.391       -1445.557         -18.645           0.255  
I04  21950204.203        -640.349          -4.980           0.255  
I05  23739123.107       16101.409         221.754           0.255  
I06  22336793.209        2707.742          40.412           0.255  
I07  23673479.868       -1178.461         -12.018           0.255  
> 2019 05 08 04 26 18.9688020  0  6                     
I02  20905906.990         403.043           6.043           0.255  
I03  20626689.753       -1446.515         -17.890           0.255  
I04  21950195.021        -640.731          -5.103           0.255  
I05  23739119.581       16112.458         222.074           0.255  
I06  22336791.174        2709.603          38.435           0.255  
I07  23673483.845       -1179.275          -2.852           0.255  
> 2019 05 08 04 26 19.0188020  0  6                     
I02  20905905.706         403.343           4.510           0.255  
I03  20626691.614       -1447.513         -19.051           0.255  
I04  21950195.638        -641.180          -7.265           0.255  
I05  23739116.096       16123.488         220.938           0.255  
I06  22336791.196        2711.438          35.802           0.255  
I07  23673483.746       -1180.248         -13.257           0.255  
> 2019 05 08 04 26 19.0688020  0  6                     
I02  20905906.877         403.603           2.361           0.255  
I03  20626695.064       -1448.514         -18.432           0.255  
I04  21950194.463        -641.600         -12.457           0.255  
I05  23739114.975       16134.500         220.514           0.255  
I06  22336790.196        2713.271          35.889           0.255  
I07  23673485.612       -1181.089         -11.040           0.255  
> 2019 05 08 04 26 19.1188020  0  6                     
I02  20905907.351         403.860           3.802           0.255  
I03  20626695.854       -1449.513         -20.047           0.255  
I04  21950198.279        -642.016         -10.125           0.255  
I05  23739110.957       16145.538         222.690           0.255  
I06  22336790.187        2715.120          35.773           0.255  
I07  23673488.804       -1182.035         -14.166           0.255  
> 2019 05 08 04 26 19.1688020  0  6                     
I02  20905907.386         404.154           4.500           0.255  
I03  20626697.070       -1450.478         -15.714           0.255  
I04  21950196.642        -642.397          -6.427           0.255  
I05  23739109.201       16156.604         224.843           0.255  
I06  22336789.491        2716.996          38.446           0.255  
I07  23673494.464       -1182.915         -16.223           0.255  
> 2019 05 08 04 26 19.2188020  0  6                     
I02  20905907.932         404.454           4.789           0.255  
I03  20626696.793       -1451.483         -22.055           0.255  
I04  21950200.742        -642.807          -4.947           0.255  
I05  23739106.382       16167.607         219.808           0.255  
I06  22336789.548        2718.836          37.741           0.255  
I07  23673477.514       -1183.750         -10.516           0.255  
> 2019 05 08 04 26 19.2688020  0  6                     
I02  20905906.387         404.753           5.720           0.255  
I03  20626695.066       -1452.481         -25.036           0.255  
I04  21950193.939        -643.213          -5.323           0.255  
I05  23739102.622       16178.659         218.756           0.255  
I06  22336789.246        2720.692          35.547           0.255  
I07  23673481.500       -1184.731         -14.332           0.255  
> 2019 05 08 04 26 19.3188020  0  6                     
I02  20905907.880         405.014           2.411           0.255  
I03  20626695.604       -1453.471         -22.765           0.255  
I04  21950199.045        -643.642          -7.687           0.255  
I05  23739099.579       16189.691         218.127           0.255  
I06  22336790.333        2722.521          33.131           0.255  
I07  23673482.093       -1185.602         -19.357           0.255  
> 2019 05 08 04 26 19.3688020  0  6                     
I02  20905910.324         405.275           6.093           0.255  
I03  20626694.154       -1454.473         -16.326           0.255  
I04  21950202.050        -644.080          -3.134           0.255  
I05  23739095.446       16200.697         220.374           0.255  
I06  22336789.336        2724.371          39.106           0.255  
I07  23673486.125       -1186.537         -19.917           0.255  
> 2019 05 08 04 26 19.4188020  0  6                     
I02  20905910.233         405.566           4.544           0.255  
I03  20626695.786       -1455.467         -17.237           0.255  
I04  21950203.987        -644.533          -2.746           0.255  
I05  23739092.980       16211.749         223.159           0.255  
I06  22336788.671        2726.206          38.814           0.255  
I07  23673489.528       -1187.411         -14.765           0.255  
> 2019 05 08 04 26 19.4688020  0  6                     
I02  20905906.438         405.800           2.310           0.255  
I03  20626690.716       -1456.487         -20.561           0.255  
I04  21950205.526        -644.998          -7.858           0.255  
I05  23739089.389       16222.729         217.571           0.255  
I06  22336786.700        2728.019          36.545           0.255  
I07  23673488.588       -1188.377         -22.820           0.255  
> 2019 05 08 04 26 19.5188020  0  6                     
I02  20905906.406         406.071           6.064           0.255  
I03  20626692.389       -1457.533         -22.266           0.255  
I04  21950194.838        -645.435         -10.911           0.255  
I05  23739085.700       16233.734         215.606           0.255  
I06  22336775.814        2729.836          34.149           0.255  
I07  23673493.908       -1189.254         -26.826           0.255  
> 2019 05 08 04 26 19.5688020  0  6                     
I02  20905906.539         406.362           6.655           0.255  
I03  20626695.809       -1458.524         -20.137           0.255  
I04  21950194.195        -645.849          -9.657           0.255  
I05  23739081.902       16244.788         217.515           0.255  
I06  22336779.868        2731.690          35.144           0.255  
I07  23673479.713       -1190.087         -20.277           0.255  
> 2019 05 08 04 26 19.6188020  0  6                     
I02  20905909.210         406.667           7.073           0.255  
I03  20626697.085       -1459.444         -14.660           0.255  
I04  21950195.802        -646.238          -7.672           0.255  
I05  23739079.875       16255.877         223.089           0.255  
I06  22336783.853        2733.567          38.506           0.255  
I07  23673478.112       -1191.001         -12.852           0.255  
> 2019 05 08 04 26 19.6688020  0  6                     
I02  20905904.529         406.986           7.600           0.255  
I03  20626691.033       -1460.432         -15.648           0.255  
I04  21950201.874        -646.651         -10.271           0.255  
I05  23739078.904       16266.924         221.950           0.255  
I06  22336784.130        2735.448          38.603           0.255  
I07  23673480.491       -1191.859          -9.856           0.255  
> 2019 05 08 04 26 19.7188020  0  6                     
I02  20905903.432         407.253           3.951           0.255  
I03  20626691.040       -1461.421         -17.964           0.255  
I04  21950207.260        -647.082         -12.289           0.255  
I05  23739075.953       16277.946         218.256           0.255  
I06  22336785.117        2737.297          36.205           0.255  
I07  23673483.345       -1192.838         -20.981           0.255  
> 2019 05 08 04 26 19.7688020  0  6                     
I02  20905904.172         407.532           4.555           0.255  
I03  20626694.118       -1462.425         -20.610           0.255  
I04  21950204.667        -647.493          -9.674           0.255  
I05  23739075.031       16288.973         217.288           0.255  
I06  22336784.402        2739.142          36.799           0.255  
I07  23673486.355       -1193.760         -26.618           0.255  
> 2019 05 08 04 26 19.8188020  0  6                     
I02  20905905.835         407.801           2.019           0.255  
I03  20626697.452       -1463.385         -18.232           0.255  
I04  21950193.898        -647.870          -3.880           0.255  
I05  23739071.381       16300.035         222.832           0.255  
I06  22336783.062        2741.017          39.127           0.255  
I07  23673477.735       -1194.600         -19.927           0.255  
> 2019 05 08 04 26 19.8688020  0  6                     
I02  20905906.589         408.162          12.673           0.255  
I03  20626694.001       -1464.362         -16.729           0.255  
I04  21950194.776        -648.299          -4.418           0.255  
I05  23739068.844       16311.103         228.437           0.255  
I06  22336784.337        2742.878          41.840           0.255  
I07  23673486.945       -1195.421         -13.123           0.255  
