     3.03           OBSERVATION DATA    M: Mixed            RINEX VERSION / TYPE
GNSS-SDRLIB v1.1                        20230702 155511 UTC PGM / RUN BY / DATE 
                                                            MARKER NAME         
                                                            MARKER NUMBER       
                                                            MARKER TYPE         
                                                            OBSERVER / AGENCY   
GNSS-SDRLIB         GNSS-SDRLIB         1.1                 REC # / TYPE / VERS 
                                                            ANT # / TYPE        
        0.0000        0.0000        0.0000                  APPROX POSITION XYZ 
        0.0000        0.0000        0.0000                  ANTENNA: DELTA H/E/N
G    4 C5A L5A D5A S5A                                      SYS / # / OBS TYPES 
R    4 C5A L5A D5A S5A                                      SYS / # / OBS TYPES 
E    4 C5A L5A D5A S5A                                      SYS / # / OBS TYPES 
J    4 C5A L5A D5A S5A                                      SYS / # / OBS TYPES 
S    4 C5A L5A D5A S5A                                      SYS / # / OBS TYPES 
C    4 C5A L5A D5A S5A                                      SYS / # / OBS TYPES 
I    4 C5A L5A D5A S5A                                      SYS / # / OBS TYPES 
  1970    01    01    00    00   00.0000000     GPS         TIME OF FIRST OBS   
  1970    01    01    00    00   00.0000000     GPS         TIME OF LAST OBS    
G L5A  0.00000                                              SYS / PHASE SHIFT   
R L5A  0.00000                                              SYS / PHASE SHIFT   
E L5A  0.00000                                              SYS / PHASE SHIFT   
J L5A  0.00000                                              SYS / PHASE SHIFT   
S L5A  0.00000                                              SYS / PHASE SHIFT   
C L5A  0.00000                                              SYS / PHASE SHIFT   
I L5A                                                       SYS / PHASE SHIFT   
  0                                                         GLONASS SLOT / FRQ #
 C1C    0.000 C1P    0.000 C2C    0.000 C2P    0.000        GLONASS COD/PHS/BIS 
                                                            END OF HEADER       
> 2019 05 08 04 25 48.0688020  0  1                     
I05  20625694.564        9990.100         235.785           0.191  
> 2019 05 08 04 25 48.1688020  0  1                     
I05  20625690.985       10013.605         232.836           0.191  
> 2019 05 08 04 25 48.2688020  0  1                     
I05  20625688.161       10037.150         243.896           0.185  
> 2019 05 08 04 25 48.3688020  0  1                     
I05  20625686.827       10060.865         243.660           0.189  
> 2019 05 08 04 25 48.4688020  0  1                     
I05  20625682.536       10084.547         246.589           0.189  
> 2019 05 08 04 25 48.5688020  0  1                     
I05  20625681.250       10108.220         234.786           0.190  
> 2019 05 08 04 25 48.6688020  0  1                     
I05  20625677.477       10131.707         235.917           0.190  
> 2019 05 08 04 25 48.7688020  0  1                     
I05  20625677.040       10155.319         235.163           0.189  
> 2019 05 08 04 25 48.8688020  0  1                     
I05  20625672.210       10178.860         232.776           0.190  
> 2019 05 08 04 25 48.9688020  0  1                     
I05  20625667.049       10202.537         242.260           0.190  
> 2019 05 08 04 25 49.0688020  0  1                     
I05  20625663.347       10226.139         231.379           0.190  
> 2019 05 08 04 25 49.1688020  0  1                     
I05  20625661.342       10249.836         239.228           0.189  
> 2019 05 08 04 25 49.2688020  0  1                     
I05  20625660.343       10273.543         237.652           0.192  
> 2019 05 08 04 25 49.3688020  0  1                     
I05  20625658.949       10297.197         239.456           0.191  
> 2019 05 08 04 25 49.4688020  0  1                     
I05  20625656.326       10320.812         240.116           0.191  
> 2019 05 08 04 25 49.5688020  0  1                     
I05  20625655.486       10344.415         236.808           0.193  
> 2019 05 08 04 25 49.6688020  0  1                     
I05  20625649.186       10368.084         242.629           0.192  
> 2019 05 08 04 25 49.7688020  0  1                     
I05  20625644.690       10391.576         228.228           0.190  
> 2019 05 08 04 25 49.8688020  0  1                     
I05  20625642.902       10415.311         245.817           0.190  
> 2019 05 08 04 25 49.9688020  0  1                     
I05  20625641.639       10439.036         233.187           0.189  
> 2019 05 08 04 25 50.0688020  0  1                     
I05  20625638.480       10462.835         239.299           0.187  
> 2019 05 08 04 25 50.1688020  0  1                     
I05  20625633.643       10486.499         236.630           0.192  
> 2019 05 08 04 25 50.2688020  0  1                     
I05  20625631.344       10510.141         235.347           0.188  
> 2019 05 08 04 25 50.3688020  0  1                     
I05  20625629.239       10534.012         241.521           0.187  
> 2019 05 08 04 25 50.4688020  0  1                     
I05  20625627.397       10557.541         231.300           0.189  
> 2019 05 08 04 25 50.5688020  0  1                     
I05  20625627.207       10581.202         241.456           0.190  
> 2019 05 08 04 25 50.6688020  0  1                     
I05  20625624.860       10604.790         235.565           0.191  
> 2019 05 08 04 25 50.7688020  0  1                     
I05  20625620.079       10628.536         244.721           0.187  
> 2019 05 08 04 25 50.8688020  0  1                     
I05  20625618.109       10652.447         241.132           0.191  
> 2019 05 08 04 25 50.9688020  0  1                     
I05  20625614.815       10676.318         241.313           0.188  
> 2019 05 08 04 25 51.0688020  0  1                     
I05  20625610.483       10700.285         240.702           0.192  
> 2019 05 08 04 25 51.1688020  0  1                     
I05  20625607.183       10724.138         236.776           0.188  
> 2019 05 08 04 25 51.2688020  0  1                     
I05  20625604.406       10748.074         243.950           0.187  
> 2019 05 08 04 25 51.3688020  0  1                     
I05  20625599.790       10771.987         232.613           0.188  
> 2019 05 08 04 25 51.4688020  0  1                     
I05  20625596.787       10795.952         245.724           0.190  
> 2019 05 08 04 25 51.5688020  0  1                     
I05  20625595.426       10819.911         240.541           0.191  
> 2019 05 08 04 25 51.6688020  0  1                     
I05  20625590.768       10843.870         244.308           0.190  
> 2019 05 08 04 25 51.7688020  0  1                     
I05  20625587.191       10867.997         239.197           0.190  
> 2019 05 08 04 25 51.8688020  0  1                     
I05  20625587.844       10892.271         248.151           0.191  
> 2019 05 08 04 25 51.9688020  0  1                     
I05  20625582.893       10916.599         243.361           0.188  
> 2019 05 08 04 25 52.0688020  0  1                     
I05  20625580.652       10940.738         232.625           0.188  
> 2019 05 08 04 25 52.1688020  0  1                     
I05  20625579.218       10965.066         247.863           0.190  
> 2019 05 08 04 25 52.2688020  0  1                     
I05  20625572.673       10989.195         237.630           0.189  
> 2019 05 08 04 25 52.3688020  0  1                     
I05  20625569.085       11013.435         245.272           0.191  
> 2019 05 08 04 25 52.4688020  0  1                     
I05  20625567.971       11037.624         238.842           0.190  
> 2019 05 08 04 25 52.5688020  0  1                     
I05  20625565.631       11061.861         244.309           0.189  
> 2019 05 08 04 25 52.6688020  0  1                     
I05  20625564.137       11086.040         240.306           0.192  
> 2019 05 08 04 25 52.7688020  0  1                     
I05  20625559.737       11110.165         240.942           0.189  
> 2019 05 08 04 25 52.8688020  0  1                     
I05  20625557.406       11134.602         247.022           0.186  
> 2019 05 08 04 25 52.9688020  0  1                     
I05  20625552.879       11158.705         233.392           0.188  
> 2019 05 08 04 25 53.0688020  0  1                     
I05  20625551.957       11182.856         243.478           0.190  
> 2019 05 08 04 25 53.1688020  0  1                     
I05  20625549.957       11206.872         241.482           0.192  
> 2019 05 08 04 25 53.2688020  0  1                     
I05  20625547.293       11231.176         252.154           0.188  
> 2019 05 08 04 25 53.3688020  0  1                     
I05  20625542.932       11255.618         242.098           0.192  
> 2019 05 08 04 25 53.4688020  0  1                     
I05  20625540.076       11280.034         248.931           0.189  
> 2019 05 08 04 25 53.5688020  0  1                     
I05  20625537.853       11304.448         243.377           0.191  
> 2019 05 08 04 25 53.6688020  0  1                     
I05  20625529.827       11328.848         248.718           0.191  
> 2019 05 08 04 25 53.7688020  0  1                     
I05  20625528.573       11353.302         250.071           0.187  
> 2019 05 08 04 25 53.8688020  0  1                     
I05  20625526.927       11377.685         246.023           0.192  
> 2019 05 08 04 25 53.9688020  0  1                     
I05  20625526.180       11402.062         242.759           0.188  
> 2019 05 08 04 25 54.0688020  0  1                     
I05  20625524.516       11426.110         237.082           0.190  
> 2019 05 08 04 25 54.1688020  0  1                     
I05  20625520.037       11449.997         238.701           0.191  
> 2019 05 08 04 25 54.2688020  0  1                     
I05  20625516.869       11473.803         233.444           0.191  
> 2019 05 08 04 25 54.3688020  0  1                     
I05  20625512.710       11497.726         238.915           0.190  
> 2019 05 08 04 25 54.4688020  0  1                     
I05  20625510.608       11521.464         227.060           0.189  
> 2019 05 08 04 25 54.5688020  0  1                     
I05  20625506.547       11545.394         234.682           0.188  
> 2019 05 08 04 25 54.6688020  0  1                     
I05  20625504.733       11569.572         246.335           0.190  
> 2019 05 08 04 25 54.7688020  0  1                     
I05  20625504.340       11593.652         237.270           0.191  
> 2019 05 08 04 25 54.8688020  0  1                     
I05  20625499.892       11617.810         250.933           0.191  
> 2019 05 08 04 25 54.9688020  0  1                     
I05  20625498.060       11641.947         236.464           0.187  
> 2019 05 08 04 25 55.0688020  0  1                     
I05  20625495.018       11666.101         240.794           0.189  
> 2019 05 08 04 25 55.1688020  0  1                     
I05  20625492.907       11690.301         242.596           0.189  
> 2019 05 08 04 25 55.2688020  0  1                     
I05  20625490.329       11714.290         235.516           0.188  
> 2019 05 08 04 25 55.3688020  0  1                     
I05  20625487.287       11738.572         248.456           0.187  
> 2019 05 08 04 25 55.4688020  0  1                     
I05  20625487.633       11762.608         241.633           0.190  
> 2019 05 08 04 25 55.5688020  0  1                     
I05  20625480.946       11786.782         251.113           0.188  
> 2019 05 08 04 25 55.6688020  0  1                     
I05  20625474.961       11810.936         243.067           0.190  
> 2019 05 08 04 25 55.7688020  0  1                     
I05  20625472.247       11835.032         251.962           0.189  
> 2019 05 08 04 25 55.8688020  0  1                     
I05  20625471.646       11859.306         244.757           0.187  
> 2019 05 08 04 25 55.9688020  0  1                     
I05  20625467.682       11883.471         245.567           0.190  
> 2019 05 08 04 25 56.0688020  0  1                     
I05  20625466.536       11907.565         242.478           0.187  
> 2019 05 08 04 25 56.1688020  0  1                     
I05  20625463.289       11931.583         236.241           0.188  
> 2019 05 08 04 25 56.2688020  0  1                     
I05  20625457.360       11955.794         245.605           0.187  
> 2019 05 08 04 25 56.3688020  0  1                     
I05  20625455.656       11980.068         248.986           0.190  
> 2019 05 08 04 25 56.4688020  0  1                     
I05  20625451.311       12004.196         252.176           0.188  
> 2019 05 08 04 25 56.5688020  0  1                     
I05  20625449.344       12028.303         239.115           0.193  
> 2019 05 08 04 25 56.6688020  0  1                     
I05  20625449.002       12052.479         249.390           0.190  
> 2019 05 08 04 25 56.7688020  0  1                     
I05  20625445.410       12076.632         236.982           0.190  
> 2019 05 08 04 25 56.8688020  0  1                     
I05  20625441.366       12100.815         243.776           0.191  
> 2019 05 08 04 25 56.9688020  0  1                     
I05  20625514.530       12124.978         241.762           0.188  
> 2019 05 08 04 25 57.0688020  0  1                     
I05  20625512.429       12148.929         233.294           0.190  
> 2019 05 08 04 25 57.1688020  0  1                     
I05  20625511.533       12173.027         248.869           0.189  
> 2019 05 08 04 25 57.2688020  0  1                     
I05  20625506.409       12196.943         238.320           0.191  
> 2019 05 08 04 25 57.3688020  0  1                     
I05  20625499.385       12221.016         248.507           0.187  
> 2019 05 08 04 25 57.4688020  0  1                     
I05  20625497.077       12244.863         231.759           0.189  
> 2019 05 08 04 25 57.5688020  0  1                     
I05  20625492.856       12268.790         238.491           0.189  
> 2019 05 08 04 25 57.6688020  0  1                     
I05  20625488.705       12292.725         235.814           0.188  
> 2019 05 08 04 25 57.7688020  0  1                     
I05  20625412.607       12316.560         232.476           0.189  
> 2019 05 08 04 25 57.8688020  0  1                     
I05  20625411.292       12340.641         249.002           0.189  
> 2019 05 08 04 25 57.9688020  0  1                     
I05  20625411.820       12364.430         231.326           0.189  
> 2019 05 08 04 25 58.0688020  0  1                     
I05  20625408.664       12388.388         239.329           0.190  
> 2019 05 08 04 25 58.1688020  0  1                     
I05  20625405.024       12412.195         228.710           0.187  
> 2019 05 08 04 25 58.2688020  0  1                     
I05  20625402.441       12436.028         244.579           0.188  
> 2019 05 08 04 25 58.3688020  0  1                     
I05  20625397.718       12459.867         237.014           0.189  
> 2019 05 08 04 25 58.4688020  0  1                     
I05  20625396.887       12483.521         235.909           0.190  
> 2019 05 08 04 25 58.5688020  0  1                     
I05  20625395.234       12507.156         233.979           0.190  
> 2019 05 08 04 25 58.6688020  0  1                     
I05  20625387.510       12530.784         223.778           0.187  
> 2019 05 08 04 25 58.7688020  0  1                     
I05  20625384.371       12554.292         232.566           0.191  
> 2019 05 08 04 25 58.8688020  0  1                     
I05  20625378.162       12577.929         240.978           0.190  
> 2019 05 08 04 25 58.9688020  0  1                     
I05  20625380.069       12601.306         226.533           0.191  
> 2019 05 08 04 25 59.0688020  0  1                     
I05  20625378.052       12624.803         229.683           0.189  
> 2019 05 08 04 25 59.1688020  0  1                     
I05  20625375.628       12648.401         232.124           0.191  
> 2019 05 08 04 25 59.2688020  0  1                     
I05  20625371.358       12671.879         238.258           0.189  
> 2019 05 08 04 25 59.3688020  0  1                     
I05  20625364.587       12695.508         232.977           0.189  
> 2019 05 08 04 25 59.4688020  0  1                     
I05  20625363.339       12719.189         246.466           0.189  
> 2019 05 08 04 25 59.5688020  0  1                     
I05  20625359.633       12742.800         235.311           0.189  
> 2019 05 08 04 25 59.6688020  0  1                     
I05  20625355.268       12766.430         238.881           0.190  
> 2019 05 08 04 25 59.7688020  0  1                     
I05  20625355.995       12790.080         239.205           0.189  
> 2019 05 08 04 25 59.8688020  0  1                     
I05  20625350.750       12813.640         238.542           0.190  
> 2019 05 08 04 25 59.9688020  0  1                     
I05  20625346.583       12837.270         236.584           0.190  
> 2019 05 08 04 26 00.0688020  0  1                     
I05  20625344.659       12860.716         228.681           0.189  
> 2019 05 08 04 26 00.1688020  0  1                     
I05  20625343.922       12884.323         244.320           0.188  
> 2019 05 08 04 26 00.2688020  0  1                     
I05  20625341.075       12907.775         236.709           0.189  
> 2019 05 08 04 26 00.3688020  0  1                     
I05  20625339.664       12931.388         236.710           0.189  
> 2019 05 08 04 26 00.4688020  0  1                     
I05  20625337.799       12954.738         236.220           0.190  
> 2019 05 08 04 26 00.5688020  0  1                     
I05  20625335.130       12978.306         245.849           0.190  
> 2019 05 08 04 26 00.6688020  0  1                     
I05  20625330.941       13001.904         240.256           0.190  
> 2019 05 08 04 26 00.7688020  0  1                     
I05  20625326.996       13025.480         239.476           0.189  
> 2019 05 08 04 26 00.8688020  0  1                     
I05  20625326.509       13049.245         240.660           0.187  
> 2019 05 08 04 26 00.9688020  0  1                     
I05  20625324.831       13072.778         236.198           0.191  
> 2019 05 08 04 26 01.0688020  0  1                     
I05  20625321.763       13096.429         237.412           0.190  
> 2019 05 08 04 26 01.1688020  0  1                     
I05  20625315.591       13119.959         234.267           0.190  
> 2019 05 08 04 26 01.2688020  0  1                     
I05  20625311.654       13143.598         240.961           0.189  
> 2019 05 08 04 26 01.3688020  0  1                     
I05  20625308.780       13167.554         239.334           0.185  
> 2019 05 08 04 26 01.4688020  0  1                     
I05  20625305.656       13191.157         239.977           0.189  
> 2019 05 08 04 26 01.5688020  0  1                     
I05  20625305.954       13214.698         232.190           0.192  
> 2019 05 08 04 26 01.6688020  0  1                     
I05  20625302.477       13238.301         242.984           0.189  
> 2019 05 08 04 26 01.7688020  0  1                     
I05  20625299.103       13261.962         234.120           0.189  
> 2019 05 08 04 26 01.8688020  0  1                     
I05  20625299.744       13285.598         248.455           0.187  
> 2019 05 08 04 26 01.9688020  0  1                     
I05  20625296.825       13309.169         241.346           0.189  
> 2019 05 08 04 26 02.0688020  0  1                     
I05  20625292.572       13332.623         238.248           0.191  
> 2019 05 08 04 26 02.1688020  0  1                     
I05  20625290.156       13356.214         242.615           0.188  
> 2019 05 08 04 26 02.2688020  0  1                     
I05  20625285.678       13379.513         229.290           0.192  
> 2019 05 08 04 26 02.3688020  0  1                     
I05  20625281.879       13403.120         243.789           0.189  
> 2019 05 08 04 26 02.4688020  0  1                     
I05  20625279.447       13426.484         227.874           0.191  
> 2019 05 08 04 26 02.5688020  0  1                     
I05  20625275.253       13450.060         241.266           0.191  
> 2019 05 08 04 26 02.6688020  0  1                     
I05  20625274.370       13473.570         234.925           0.191  
> 2019 05 08 04 26 02.7688020  0  1                     
I05  20625272.191       13497.056         237.530           0.191  
> 2019 05 08 04 26 02.8688020  0  1                     
I05  20625266.729       13520.713         242.701           0.190  
> 2019 05 08 04 26 02.9688020  0  1                     
I05  20625264.729       13544.098         227.141           0.187  
> 2019 05 08 04 26 03.0688020  0  1                     
I05  20625264.114       13567.695         235.046           0.191  
> 2019 05 08 04 26 03.1688020  0  1                     
I05  20625261.783       13591.094         228.901           0.190  
> 2019 05 08 04 26 03.2688020  0  1                     
I05  20625256.997       13614.645         237.005           0.186  
> 2019 05 08 04 26 03.3688020  0  1                     
I05  20625255.750       13638.387         233.169           0.190  
> 2019 05 08 04 26 03.4688020  0  1                     
I05  20625253.628       13662.026         243.181           0.191  
> 2019 05 08 04 26 03.5688020  0  1                     
I05  20625249.646       13685.671         232.674           0.190  
> 2019 05 08 04 26 03.6688020  0  1                     
I05  20625245.801       13709.150         233.551           0.190  
> 2019 05 08 04 26 03.7688020  0  1                     
I05  20625241.973       13732.673         231.668           0.190  
> 2019 05 08 04 26 03.8688020  0  1                     
I05  20625239.697       13756.120         232.008           0.190  
> 2019 05 08 04 26 03.9688020  0  1                     
I05  20625237.748       13779.669         242.133           0.190  
> 2019 05 08 04 26 04.0688020  0  1                     
I05  20625233.190       13803.212         231.519           0.190  
> 2019 05 08 04 26 04.1688020  0  1                     
I05  20625228.756       13826.918         242.988           0.190  
> 2019 05 08 04 26 04.2688020  0  1                     
I05  20625226.564       13850.622         235.189           0.192  
> 2019 05 08 04 26 04.3688020  0  1                     
I05  20625228.243       13874.453         246.688           0.190  
> 2019 05 08 04 26 04.4688020  0  1                     
I05  20625226.457       13898.081         235.449           0.192  
> 2019 05 08 04 26 04.5688020  0  1                     
I05  20625224.238       13921.691         234.917           0.191  
> 2019 05 08 04 26 04.6688020  0  1                     
I05  20625217.523       13945.331         241.962           0.190  
> 2019 05 08 04 26 04.7688020  0  1                     
I05  20625215.550       13968.833         232.884           0.191  
> 2019 05 08 04 26 04.8688020  0  1                     
I05  20625213.819       13992.495         242.230           0.187  
> 2019 05 08 04 26 04.9688020  0  1                     
I05  20625207.943       14015.960         230.313           0.188  
> 2019 05 08 04 26 05.0688020  0  1                     
I05  20625205.344       14039.733         237.116           0.190  
> 2019 05 08 04 26 05.1688020  0  1                     
I05  20625205.862       14063.469         230.528           0.189  
> 2019 05 08 04 26 05.2688020  0  1                     
I05  20625200.543       14087.300         245.524           0.187  
> 2019 05 08 04 26 05.3688020  0  1                     
I05  20625195.272       14111.193         237.322           0.189  
> 2019 05 08 04 26 05.4688020  0  1                     
I05  20625181.346       14134.870         238.729           0.191  
> 2019 05 08 04 26 05.5688020  0  1                     
I05  20625183.993       14158.498         239.608           0.192  
> 2019 05 08 04 26 05.6688020  0  1                     
I05  20625184.708       14181.978         235.490           0.191  
> 2019 05 08 04 26 05.7688020  0  1                     
I05  20625185.803       14205.666         231.468           0.190  
> 2019 05 08 04 26 05.8688020  0  1                     
I05  20625183.928       14229.177         231.433           0.191  
> 2019 05 08 04 26 05.9688020  0  1                     
I05  20625183.951       14252.690         234.452           0.191  
> 2019 05 08 04 26 06.0688020  0  1                     
I05  20625180.304       14276.240         225.920           0.189  
> 2019 05 08 04 26 06.1688020  0  1                     
I05  20625176.345       14299.816         230.658           0.192  
> 2019 05 08 04 26 06.2688020  0  1                     
I05  20625174.918       14323.428         229.576           0.187  
> 2019 05 08 04 26 06.3688020  0  1                     
I05  20625175.585       14347.117         235.084           0.192  
> 2019 05 08 04 26 06.4688020  0  1                     
I05  20625172.132       14370.876         244.969           0.191  
> 2019 05 08 04 26 06.5688020  0  1                     
I05  20625169.227       14394.594         235.633           0.192  
> 2019 05 08 04 26 06.6688020  0  1                     
I05  20625165.219       14418.372         242.543           0.189  
> 2019 05 08 04 26 06.7688020  0  1                     
I05  20625161.130       14442.114         234.913           0.189  
> 2019 05 08 04 26 06.8688020  0  1                     
I05  20625154.265       14465.831         237.406           0.192  
> 2019 05 08 04 26 06.9688020  0  1                     
I05  20625152.220       14489.563         237.907           0.190  
> 2019 05 08 04 26 07.0688020  0  1                     
I05  20625148.323       14513.159         233.048           0.189  
> 2019 05 08 04 26 07.1688020  0  1                     
I05  20625144.388       14536.870         238.788           0.191  
> 2019 05 08 04 26 07.2688020  0  1                     
I05  20625145.492       14560.487         234.879           0.190  
> 2019 05 08 04 26 07.3688020  0  1                     
I05  20625141.288       14584.279         248.584           0.189  
> 2019 05 08 04 26 07.4688020  0  1                     
I05  20625137.567       14607.913         237.955           0.190  
> 2019 05 08 04 26 07.5688020  0  1                     
I05  20625135.195       14631.543         239.333           0.191  
> 2019 05 08 04 26 07.6688020  0  1                     
I05  20625132.453       14655.247         236.994           0.192  
> 2019 05 08 04 26 07.7688020  0  1                     
I05  20625129.320       14678.872         237.713           0.189  
> 2019 05 08 04 26 07.8688020  0  1                     
I05  20625127.853       14702.530         240.169           0.188  
> 2019 05 08 04 26 07.9688020  0  1                     
I05  20625125.076       14725.982         234.524           0.190  
> 2019 05 08 04 26 08.0688020  0  1                     
I05  20625121.115       14749.690         240.497           0.191  
> 2019 05 08 04 26 08.1688020  0  1                     
I05  20625110.488       14773.223         233.729           0.192  
> 2019 05 08 04 26 08.2688020  0  1                     
I05  20625113.104       14796.883         239.269           0.191  
> 2019 05 08 04 26 08.3688020  0  1                     
I05  20625115.349       14820.724         233.208           0.189  
> 2019 05 08 04 26 08.4688020  0  1                     
I05  20625113.452       14844.402         236.167           0.190  
> 2019 05 08 04 26 08.5688020  0  1                     
I05  20625111.124       14868.133         236.015           0.191  
> 2019 05 08 04 26 08.6688020  0  1                     
I05  20625109.285       14891.707         235.947           0.190  
> 2019 05 08 04 26 08.7688020  0  1                     
I05  20625105.830       14915.314         238.955           0.188  
> 2019 05 08 04 26 08.8688020  0  1                     
I05  20625100.378       14938.795         233.125           0.188  
> 2019 05 08 04 26 08.9688020  0  1                     
I05  20625096.584       14962.386         241.195           0.190  
> 2019 05 08 04 26 09.0688020  0  1                     
I05  20625093.299       14986.068         232.035           0.190  
> 2019 05 08 04 26 09.1688020  0  1                     
I05  20625092.179       15009.821         246.464           0.190  
> 2019 05 08 04 26 09.2688020  0  1                     
I05  20625090.161       15033.501         239.505           0.190  
> 2019 05 08 04 26 09.3688020  0  1                     
I05  20625088.293       15057.147         243.421           0.190  
> 2019 05 08 04 26 09.4688020  0  1                     
I05  20625083.458       15080.755         242.851           0.188  
> 2019 05 08 04 26 09.5688020  0  1                     
I05  20625076.113       15104.161         234.682           0.190  
> 2019 05 08 04 26 09.6688020  0  1                     
I05  20625073.629       15127.707         234.488           0.190  
> 2019 05 08 04 26 09.7688020  0  1                     
I05  20625073.063       15151.223         236.120           0.191  
> 2019 05 08 04 26 09.8688020  0  1                     
I05  20625069.297       15174.852         243.055           0.190  
> 2019 05 08 04 26 09.9688020  0  1                     
I05  20625068.747       15198.458         235.562           0.189  
> 2019 05 08 04 26 10.0688020  0  1                     
I05  20625062.377       15222.135         241.292           0.189  
> 2019 05 08 04 26 10.1688020  0  1                     
I05  20625061.936       15245.916         232.435           0.190  
> 2019 05 08 04 26 10.2688020  0  1                     
I05  20625059.766       15269.580         237.608           0.190  
> 2019 05 08 04 26 10.3688020  0  1                     
I05  20625054.220       15293.407         244.753           0.186  
> 2019 05 08 04 26 10.4688020  0  1                     
I05  20625055.254       15317.012         236.228           0.190  
> 2019 05 08 04 26 10.5688020  0  1                     
I05  20625053.907       15340.596         236.930           0.189  
> 2019 05 08 04 26 10.6688020  0  1                     
I05  20625047.586       15364.260         238.023           0.191  
> 2019 05 08 04 26 10.7688020  0  1                     
I05  20625044.710       15387.793         235.788           0.190  
> 2019 05 08 04 26 10.8688020  0  1                     
I05  20625042.871       15411.386         234.933           0.191  
> 2019 05 08 04 26 10.9688020  0  1                     
I05  20625040.309       15434.962         244.640           0.187  
> 2019 05 08 04 26 11.0688020  0  1                     
I05  20625037.303       15458.508         242.012           0.190  
> 2019 05 08 04 26 11.1688020  0  1                     
I05  20625037.336       15482.031         226.923           0.189  
> 2019 05 08 04 26 11.2688020  0  1                     
I05  20625033.747       15505.807         243.461           0.188  
> 2019 05 08 04 26 11.3688020  0  1                     
I05  20625030.779       15529.646         240.857           0.189  
> 2019 05 08 04 26 11.4688020  0  1                     
I05  20625025.385       15553.388         247.481           0.188  
> 2019 05 08 04 26 11.5688020  0  1                     
I05  20625023.771       15577.064         240.622           0.190  
> 2019 05 08 04 26 11.6688020  0  1                     
I05  20625022.506       15600.706         240.566           0.193  
> 2019 05 08 04 26 11.7688020  0  1                     
I05  20625018.139       15624.416         240.734           0.186  
> 2019 05 08 04 26 11.8688020  0  1                     
I05  20625016.311       15647.933         235.269           0.189  
> 2019 05 08 04 26 11.9688020  0  1                     
I05  20625012.372       15671.618         246.788           0.186  
> 2019 05 08 04 26 12.0688020  0  1                     
I05  20625007.914       15695.338         238.346           0.189  
> 2019 05 08 04 26 12.1688020  0  1                     
I05  20625006.933       15718.931         237.150           0.190  
> 2019 05 08 04 26 12.2688020  0  1                     
I05  20625002.920       15742.501         236.935           0.192  
> 2019 05 08 04 26 12.3688020  0  1                     
I05  20625002.717       15766.210         239.092           0.189  
> 2019 05 08 04 26 12.4688020  0  1                     
I05  20624998.756       15789.817         239.708           0.189  
> 2019 05 08 04 26 12.5688020  0  1                     
I05  20624993.685       15813.325         247.136           0.188  
> 2019 05 08 04 26 12.6688020  0  1                     
I05  20624991.567       15836.852         230.663           0.191  
> 2019 05 08 04 26 12.7688020  0  1                     
I05  20624988.829       15860.577         244.569           0.187  
> 2019 05 08 04 26 12.8688020  0  1                     
I05  20624984.946       15884.390         237.035           0.188  
> 2019 05 08 04 26 12.9688020  0  1                     
I05  20624982.506       15908.082         233.421           0.189  
> 2019 05 08 04 26 13.0688020  0  1                     
I05  20624975.755       15931.794         233.325           0.193  
> 2019 05 08 04 26 13.1688020  0  1                     
I05  20624977.007       15955.284         228.078           0.189  
> 2019 05 08 04 26 13.2688020  0  1                     
I05  20624974.271       15978.944         237.666           0.189  
> 2019 05 08 04 26 13.3688020  0  1                     
I05  20624970.756       16002.716         237.166           0.190  
> 2019 05 08 04 26 13.4688020  0  1                     
I05  20624957.273       16026.392         244.088           0.190  
> 2019 05 08 04 26 13.5688020  0  1                     
I05  20624960.288       16050.241         235.355           0.191  
> 2019 05 08 04 26 13.6688020  0  1                     
I05  20624961.250       16073.869         237.540           0.190  
> 2019 05 08 04 26 13.7688020  0  1                     
I05  20624962.813       16097.523         239.144           0.190  
> 2019 05 08 04 26 13.8688020  0  1                     
I05  20624960.329       16121.109         238.683           0.191  
> 2019 05 08 04 26 13.9688020  0  1                     
I05  20624959.769       16144.762         243.721           0.188  
> 2019 05 08 04 26 14.0688020  0  1                     
I05  20624956.420       16168.319         245.042           0.185  
> 2019 05 08 04 26 14.1688020  0  1                     
I05  20624949.281       16191.975         238.553           0.188  
> 2019 05 08 04 26 14.2688020  0  1                     
I05  20624948.097       16215.487         231.685           0.188  
> 2019 05 08 04 26 14.3688020  0  1                     
I05  20624945.421       16239.296         237.750           0.190  
> 2019 05 08 04 26 14.4688020  0  1                     
I05  20624943.490       16262.706         228.666           0.188  
> 2019 05 08 04 26 14.5688020  0  1                     
I05  20624941.322       16286.341         243.446           0.189  
> 2019 05 08 04 26 14.6688020  0  1                     
I05  20624934.747       16309.770         236.215           0.191  
> 2019 05 08 04 26 14.7688020  0  1                     
I05  20624930.875       16333.310         245.511           0.185  
> 2019 05 08 04 26 14.8688020  0  1                     
I05  20624925.944       16356.916         233.359           0.189  
> 2019 05 08 04 26 14.9688020  0  1                     
I05  20624924.405       16380.340         235.791           0.189  
> 2019 05 08 04 26 15.0688020  0  1                     
I05  20624924.138       16404.005         231.814           0.190  
> 2019 05 08 04 26 15.1688020  0  1                     
I05  20624920.986       16427.481         234.715           0.192  
> 2019 05 08 04 26 15.2688020  0  1                     
I05  20624915.513       16450.955         239.386           0.188  
> 2019 05 08 04 26 15.3688020  0  1                     
I05  20624911.000       16474.496         233.449           0.191  
> 2019 05 08 04 26 15.4688020  0  1                     
I05  20624907.444       16498.038         240.133           0.188  
> 2019 05 08 04 26 15.5688020  0  1                     
I05  20624906.159       16521.498         236.485           0.188  
> 2019 05 08 04 26 15.6688020  0  1                     
I05  20624907.340       16545.078         247.247           0.187  
> 2019 05 08 04 26 15.7688020  0  1                     
I05  20624904.522       16568.581         238.305           0.189  
> 2019 05 08 04 26 15.8688020  0  1                     
I05  20624904.889       16592.041         235.539           0.192  
> 2019 05 08 04 26 15.9688020  0  1                     
I05  20624899.407       16615.532         232.464           0.190  
> 2019 05 08 04 26 16.0688020  0  1                     
I05  20624899.632       16639.042         227.911           0.188  
> 2019 05 08 04 26 16.1688020  0  1                     
I05  20624894.624       16662.570         239.662           0.188  
> 2019 05 08 04 26 16.2688020  0  1                     
I05  20624889.368       16685.988         226.985           0.191  
> 2019 05 08 04 26 16.3688020  0  1                     
I05  20624887.153       16709.685         242.120           0.189  
> 2019 05 08 04 26 16.4688020  0  1                     
I05  20624886.037       16733.237         231.353           0.190  
> 2019 05 08 04 26 16.5688020  0  1                     
I05  20624882.187       16757.004         250.747           0.188  
> 2019 05 08 04 26 16.6688020  0  1                     
I05  20624878.212       16780.432         230.787           0.191  
> 2019 05 08 04 26 16.7688020  0  1                     
I05  20624875.920       16803.955         239.695           0.189  
> 2019 05 08 04 26 16.8688020  0  1                     
I05  20624871.270       16827.631         236.850           0.190  
> 2019 05 08 04 26 16.9688020  0  1                     
I05  20624872.980       16851.115         233.515           0.192  
> 2019 05 08 04 26 17.0688020  0  1                     
I05  20624874.448       16874.775         237.295           0.188  
> 2019 05 08 04 26 17.1688020  0  1                     
I05  20624869.608       16898.114         227.473           0.188  
> 2019 05 08 04 26 17.2688020  0  1                     
I05  20624863.236       16921.709         244.079           0.186  
> 2019 05 08 04 26 17.3688020  0  1                     
I05  20624861.889       16945.281         237.296           0.189  
> 2019 05 08 04 26 17.4688020  0  1                     
I05  20624857.904       16968.907         247.608           0.189  
> 2019 05 08 04 26 17.5688020  0  1                     
I05  20624856.202       16992.442         231.397           0.189  
> 2019 05 08 04 26 17.6688020  0  1                     
I05  20624850.451       17015.981         236.584           0.190  
> 2019 05 08 04 26 17.7688020  0  1                     
I05  20624845.786       17039.596         238.320           0.188  
> 2019 05 08 04 26 17.8688020  0  1                     
I05  20624843.080       17062.999         234.579           0.189  
> 2019 05 08 04 26 17.9688020  0  1                     
I05  20624842.295       17086.472         240.425           0.190  
> 2019 05 08 04 26 18.0688020  0  1                     
I05  20624838.944       17109.986         231.382           0.190  
> 2019 05 08 04 26 18.1688020  0  1                     
I05  20624835.988       17133.646         241.635           0.189  
> 2019 05 08 04 26 18.2688020  0  1                     
I05  20624835.555       17157.361         237.742           0.190  
> 2019 05 08 04 26 18.3688020  0  1                     
I05  20624833.227       17181.105         240.147           0.191  
> 2019 05 08 04 26 18.4688020  0  1                     
I05  20624830.848       17204.779         239.757           0.190  
> 2019 05 08 04 26 18.5688020  0  1                     
I05  20624828.112       17228.315         231.977           0.189  
> 2019 05 08 04 26 18.6688020  0  1                     
I05  20624824.492       17252.045         237.346           0.190  
> 2019 05 08 04 26 18.7688020  0  1                     
I05  20624818.028       17275.594         229.071           0.189  
> 2019 05 08 04 26 18.8688020  0  1                     
I05  20624815.398       17299.247         249.278           0.187  
> 2019 05 08 04 26 18.9688020  0  1                     
I05  20624812.774       17322.808         236.947           0.188  
> 2019 05 08 04 26 19.0688020  0  1                     
I05  20624812.497       17346.391         236.577           0.188  
> 2019 05 08 04 26 19.1688020  0  1                     
I05  20624810.939       17370.097         239.352           0.190  
> 2019 05 08 04 26 19.2688020  0  1                     
I05  20624805.575       17393.544         230.870           0.190  
> 2019 05 08 04 26 19.3688020  0  1                     
I05  20624800.089       17417.276         240.297           0.191  
> 2019 05 08 04 26 19.4688020  0  1                     
I05  20624801.044       17440.772         231.240           0.189  
> 2019 05 08 04 26 19.5688020  0  1                     
I05  20624798.506       17464.440         239.821           0.189  
> 2019 05 08 04 26 19.6688020  0  1                     
I05  20624797.354       17487.963         233.136           0.190  
> 2019 05 08 04 26 19.7688020  0  1                     
I05  20624790.240       17511.648         246.199           0.187  
> 2019 05 08 04 26 19.8688020  0  1                     
I05  20624787.442       17535.385         242.075           0.193  
> 2019 05 08 04 26 19.9688020  0  1                     
I05  20624785.184       17558.954         238.888           0.188  
> 2019 05 08 04 26 20.0688020  0  1                     
I05  20624781.014       17582.616         231.829           0.190  
> 2019 05 08 04 26 20.1688020  0  1                     
I05  20624779.593       17606.155         232.905           0.191  
> 2019 05 08 04 26 20.2688020  0  1                     
I05  20624777.171       17629.786         242.950           0.186  
> 2019 05 08 04 26 20.3688020  0  1                     
I05  20624772.908       17653.382         235.841           0.190  
> 2019 05 08 04 26 20.4688020  0  1                     
I05  20624773.412       17677.015         242.652           0.191  
> 2019 05 08 04 26 20.5688020  0  1                     
I05  20624767.251       17700.600         230.698           0.189  
> 2019 05 08 04 26 20.6688020  0  1                     
I05  20624764.281       17724.311         247.152           0.189  
> 2019 05 08 04 26 20.7688020  0  1                     
I05  20624760.043       17747.904         236.475           0.191  
> 2019 05 08 04 26 20.8688020  0  1                     
I05  20624759.596       17771.375         235.283           0.190  
> 2019 05 08 04 26 20.9688020  0  1                     
I05  20624754.399       17795.007         237.455           0.191  
> 2019 05 08 04 26 21.0688020  0  1                     
I05  20624754.136       17818.471         226.861           0.188  
> 2019 05 08 04 26 21.1688020  0  1                     
I05  20624750.765       17842.091         236.434           0.191  
> 2019 05 08 04 26 21.2688020  0  1                     
I05  20624750.755       17865.558         228.654           0.191  
> 2019 05 08 04 26 21.3688020  0  1                     
I05  20624749.941       17889.256         246.512           0.189  
> 2019 05 08 04 26 21.4688020  0  1                     
I05  20624743.719       17912.831         239.322           0.191  
> 2019 05 08 04 26 21.5688020  0  1                     
I05  20624743.268       17936.433         240.063           0.192  
> 2019 05 08 04 26 21.6688020  0  1                     
I05  20624737.360       17960.002         235.943           0.188  
> 2019 05 08 04 26 21.7688020  0  1                     
I05  20624735.543       17983.423         231.382           0.189  
> 2019 05 08 04 26 21.8688020  0  1                     
I05  20624733.698       18007.119         240.602           0.188  
> 2019 05 08 04 26 21.9688020  0  1                     
I05  20624729.933       18030.488         230.327           0.192  
> 2019 05 08 04 26 22.0688020  0  1                     
I05  20624728.703       18054.110         241.219           0.192  
> 2019 05 08 04 26 22.1688020  0  1                     
I05  20624726.715       18077.564         229.892           0.190  
> 2019 05 08 04 26 22.2688020  0  1                     
I05  20624723.078       18101.214         242.355           0.188  
> 2019 05 08 04 26 22.3688020  0  1                     
I05  20624720.820       18124.919         234.757           0.190  
> 2019 05 08 04 26 22.4688020  0  1                     
I05  20624715.552       18148.622         250.159           0.189  
> 2019 05 08 04 26 22.5688020  0  1                     
I05  20624709.219       18172.104         230.821           0.190  
> 2019 05 08 04 26 22.6688020  0  1                     
I05  20624706.646       18195.598         234.356           0.191  
> 2019 05 08 04 26 22.7688020  0  1                     
I05  20624703.474       18219.156         237.635           0.191  
> 2019 05 08 04 26 22.8688020  0  1                     
I05  20624703.691       18242.539         238.954           0.193  
> 2019 05 08 04 26 22.9688020  0  1                     
I05  20624698.611       18266.091         230.791           0.192  
> 2019 05 08 04 26 23.0688020  0  1                     
I05  20624695.449       18289.697         231.614           0.191  
> 2019 05 08 04 26 23.1688020  0  1                     
I05  20624695.026       18313.338         234.066           0.190  
> 2019 05 08 04 26 23.2688020  0  1                     
I05  20624690.599       18336.952         237.202           0.189  
> 2019 05 08 04 26 23.3688020  0  1                     
I05  20624683.858       18360.592         237.680           0.190  
> 2019 05 08 04 26 23.4688020  0  1                     
I05  20624684.445       18384.245         235.950           0.190  
> 2019 05 08 04 26 23.5688020  0  1                     
I05  20624683.246       18407.631         232.046           0.190  
> 2019 05 08 04 26 23.6688020  0  1                     
I05  20624679.100       18431.164         240.380           0.190  
> 2019 05 08 04 26 23.7688020  0  1                     
I05  20624675.889       18454.771         232.839           0.191  
> 2019 05 08 04 26 23.8688020  0  1                     
I05  20624668.238       18478.283         244.031           0.187  
> 2019 05 08 04 26 23.9688020  0  1                     
I05  20624669.441       18501.786         230.504           0.187  
> 2019 05 08 04 26 24.0688020  0  1                     
I05  20624667.629       18525.300         230.958           0.187  
> 2019 05 08 04 26 24.1688020  0  1                     
I05  20624665.230       18548.860         236.908           0.189  
> 2019 05 08 04 26 24.2688020  0  1                     
I05  20624662.938       18572.264         228.817           0.191  
> 2019 05 08 04 26 24.3688020  0  1                     
I05  20624659.729       18595.984         242.439           0.188  
> 2019 05 08 04 26 24.4688020  0  1                     
I05  20624655.972       18619.622         237.575           0.187  
> 2019 05 08 04 26 24.5688020  0  1                     
I05  20624654.361       18643.238         236.672           0.190  
> 2019 05 08 04 26 24.6688020  0  1                     
I05  20624651.141       18666.898         236.549           0.190  
> 2019 05 08 04 26 24.7688020  0  1                     
I05  20624645.419       18690.520         238.284           0.191  
> 2019 05 08 04 26 24.8688020  0  1                     
I05  20624645.352       18714.150         239.652           0.187  
> 2019 05 08 04 26 24.9688020  0  1                     
I05  20624641.283       18737.705         246.366           0.187  
> 2019 05 08 04 26 25.0688020  0  1                     
I05  20624638.460       18761.222         235.355           0.188  
> 2019 05 08 04 26 25.1688020  0  1                     
I05  20624637.366       18784.781         242.825           0.187  
> 2019 05 08 04 26 25.2688020  0  1                     
I05  20624634.437       18808.375         230.414           0.189  
> 2019 05 08 04 26 25.3688020  0  1                     
I05  20624631.442       18832.020         244.982           0.187  
> 2019 05 08 04 26 25.4688020  0  1                     
I05  20624627.988       18855.553         237.814           0.191  
> 2019 05 08 04 26 25.5688020  0  1                     
I05  20624624.121       18879.028         237.463           0.189  
> 2019 05 08 04 26 25.6688020  0  1                     
I05  20624623.182       18902.622         235.752           0.189  
> 2019 05 08 04 26 25.7688020  0  1                     
I05  20624620.003       18926.063         230.570           0.189  
> 2019 05 08 04 26 25.8688020  0  1                     
I05  20624617.249       18949.646         244.409           0.188  
> 2019 05 08 04 26 25.9688020  0  1                     
I05  20624614.135       18973.157         236.924           0.187  
> 2019 05 08 04 26 26.0688020  0  1                     
I05  20624609.019       18996.777         237.407           0.189  
> 2019 05 08 04 26 26.1688020  0  1                     
I05  20624606.588       19020.431         237.771           0.189  
> 2019 05 08 04 26 26.2688020  0  1                     
I05  20624601.561       19044.019         235.633           0.189  
> 2019 05 08 04 26 26.3688020  0  1                     
I05  20624600.660       19067.711         234.351           0.190  
> 2019 05 08 04 26 26.4688020  0  1                     
I05  20624598.934       19091.400         244.987           0.187  
> 2019 05 08 04 26 26.5688020  0  1                     
I05  20624596.758       19114.848         232.411           0.189  
> 2019 05 08 04 26 26.6688020  0  1                     
I05  20624592.783       19138.359         238.581           0.190  
> 2019 05 08 04 26 26.7688020  0  1                     
I05  20624593.152       19161.942         238.608           0.189  
> 2019 05 08 04 26 26.8688020  0  1                     
I05  20624588.728       19185.351         237.586           0.190  
> 2019 05 08 04 26 26.9688020  0  1                     
I05  20624585.425       19208.768         235.830           0.189  
> 2019 05 08 04 26 27.0688020  0  1                     
I05  20624582.986       19232.196         229.000           0.189  
> 2019 05 08 04 26 27.1688020  0  1                     
I05  20624580.794       19255.755         239.929           0.189  
> 2019 05 08 04 26 27.2688020  0  1                     
I05  20624580.352       19279.249         237.476           0.192  
> 2019 05 08 04 26 27.3688020  0  1                     
I05  20624581.137       19302.753         247.336           0.186  
> 2019 05 08 04 26 27.4688020  0  1                     
I05  20624574.828       19326.295         234.050           0.191  
> 2019 05 08 04 26 27.5688020  0  1                     
I05  20624571.531       19349.866         242.765           0.188  
> 2019 05 08 04 26 27.6688020  0  1                     
I05  20624568.380       19373.397         233.967           0.189  
> 2019 05 08 04 26 27.7688020  0  1                     
I05  20624566.740       19396.901         236.554           0.188  
> 2019 05 08 04 26 27.8688020  0  1                     
I05  20624562.227       19420.451         241.189           0.186  
> 2019 05 08 04 26 27.9688020  0  1                     
I05  20624559.927       19443.720         226.891           0.188  
> 2019 05 08 04 26 28.0688020  0  1                     
I05  20624553.288       19467.311         235.086           0.188  
> 2019 05 08 04 26 28.1688020  0  1                     
I05  20624552.581       19490.803         229.254           0.187  
> 2019 05 08 04 26 28.2688020  0  1                     
I05  20624545.490       19514.553         246.161           0.184  
> 2019 05 08 04 26 28.3688020  0  1                     
I05  20624544.896       19538.084         231.224           0.187  
> 2019 05 08 04 26 28.4688020  0  1                     
I05  20624541.337       19561.687         239.352           0.190  
> 2019 05 08 04 26 28.5688020  0  1                     
I05  20624535.774       19585.225         231.203           0.186  
> 2019 05 08 04 26 28.6688020  0  1                     
I05  20624533.273       19608.779         239.535           0.187  
> 2019 05 08 04 26 28.7688020  0  1                     
I05  20624533.224       19632.363         234.997           0.186  
> 2019 05 08 04 26 28.8688020  0  1                     
I05  20624530.111       19655.745         233.481           0.189  
> 2019 05 08 04 26 28.9688020  0  1                     
I05  20624528.411       19679.231         235.714           0.188  
> 2019 05 08 04 26 29.0688020  0  1                     
I05  20624527.036       19702.682         228.606           0.185  
> 2019 05 08 04 26 29.1688020  0  1                     
I05  20624521.370       19726.334         242.256           0.190  
> 2019 05 08 04 26 29.2688020  0  1                     
I05  20624509.346       19749.898         235.605           0.188  
> 2019 05 08 04 26 29.3688020  0  1                     
I05  20624509.890       19773.481         245.974           0.188  
> 2019 05 08 04 26 29.4688020  0  1                     
I05  20624513.095       19797.091         230.605           0.189  
> 2019 05 08 04 26 29.5688020  0  1                     
I05  20624510.335       19820.662         236.330           0.188  
> 2019 05 08 04 26 29.6688020  0  1                     
I05  20624505.838       19844.316         237.983           0.190  
> 2019 05 08 04 26 29.7688020  0  1                     
I05  20624501.482       19867.715         230.693           0.190  
> 2019 05 08 04 26 29.8688020  0  1                     
I05  20624500.158       19891.373         243.425           0.187  
> 2019 05 08 04 26 29.9688020  0  1                     
I05  20624498.853       19914.722         230.402           0.188  
> 2019 05 08 04 26 30.0688020  0  1                     
I05  20624497.193       19938.351         236.459           0.188  
> 2019 05 08 04 26 30.1688020  0  1                     
I05  20624494.038       19961.986         232.301           0.188  
> 2019 05 08 04 26 30.2688020  0  1                     
I05  20624493.614       19985.628         243.543           0.188  
> 2019 05 08 04 26 30.3688020  0  1                     
I05  20624489.986       20009.394         241.199           0.189  
> 2019 05 08 04 26 30.4688020  0  1                     
I05  20624484.429       20032.907         234.028           0.187  
> 2019 05 08 04 26 30.5688020  0  1                     
I05  20624480.990       20056.607         242.268           0.189  
> 2019 05 08 04 26 30.6688020  0  1                     
I05  20624480.840       20080.294         235.577           0.189  
> 2019 05 08 04 26 30.7688020  0  1                     
I05  20624478.268       20103.967         236.021           0.190  
> 2019 05 08 04 26 30.8688020  0  1                     
I05  20624474.755       20127.676         237.738           0.191  
> 2019 05 08 04 26 30.9688020  0  1                     
I05  20624471.742       20151.252         233.053           0.190  
> 2019 05 08 04 26 31.0688020  0  1                     
I05  20624471.109       20174.993         238.715           0.191  
> 2019 05 08 04 26 31.1688020  0  1                     
I05  20624468.841       20198.759         238.613           0.190  
> 2019 05 08 04 26 31.2688020  0  1                     
I05  20624464.511       20222.315         233.324           0.190  
> 2019 05 08 04 26 31.3688020  0  1                     
I05  20624461.257       20246.093         246.209           0.187  
> 2019 05 08 04 26 31.4688020  0  1                     
I05  20624460.186       20269.633         232.421           0.190  
> 2019 05 08 04 26 31.5688020  0  1                     
I05  20624455.125       20293.275         240.780           0.191  
> 2019 05 08 04 26 31.6688020  0  1                     
I05  20624451.655       20316.935         235.735           0.188  
> 2019 05 08 04 26 31.7688020  0  1                     
I05  20624448.238       20340.504         238.973           0.189  
> 2019 05 08 04 26 31.8688020  0  1                     
I05  20624446.088       20364.245         240.070           0.189  
> 2019 05 08 04 26 31.9688020  0  1                     
I05  20624443.098       20387.723         236.187           0.189  
> 2019 05 08 04 26 32.0688020  0  1                     
I05  20624440.704       20411.314         235.991           0.189  
> 2019 05 08 04 26 32.1688020  0  1                     
I05  20624438.092       20434.752         226.925           0.191  
> 2019 05 08 04 26 32.2688020  0  1                     
I05  20624437.766       20458.446         241.567           0.188  
> 2019 05 08 04 26 32.3688020  0  1                     
I05  20624434.004       20482.075         237.590           0.191  
> 2019 05 08 04 26 32.4688020  0  1                     
I05  20624431.377       20505.720         242.845           0.189  
> 2019 05 08 04 26 32.5688020  0  1                     
I05  20624427.121       20529.329         234.820           0.191  
> 2019 05 08 04 26 32.6688020  0  1                     
I05  20624423.566       20552.962         242.240           0.190  
> 2019 05 08 04 26 32.7688020  0  1                     
I05  20624422.843       20576.595         234.990           0.191  
> 2019 05 08 04 26 32.8688020  0  1                     
I05  20624422.996       20600.032         228.595           0.191  
> 2019 05 08 04 26 32.9688020  0  1                     
I05  20624416.630       20623.596         236.816           0.189  
> 2019 05 08 04 26 33.0688020  0  1                     
I05  20624413.033       20647.151         231.336           0.190  
> 2019 05 08 04 26 33.1688020  0  1                     
I05  20624410.767       20670.796         241.649           0.189  
> 2019 05 08 04 26 33.2688020  0  1                     
I05  20624407.167       20694.371         231.774           0.190  
> 2019 05 08 04 26 33.3688020  0  1                     
I05  20624400.048       20718.025         244.664           0.190  
> 2019 05 08 04 26 33.4688020  0  1                     
I05  20624399.067       20741.655         238.276           0.188  
> 2019 05 08 04 26 33.5688020  0  1                     
I05  20624396.721       20765.161         236.347           0.189  
> 2019 05 08 04 26 33.6688020  0  1                     
I05  20624392.979       20788.837         238.910           0.189  
> 2019 05 08 04 26 33.7688020  0  1                     
I05  20624392.485       20812.361         230.419           0.188  
> 2019 05 08 04 26 33.8688020  0  1                     
I05  20624387.972       20835.976         243.346           0.188  
> 2019 05 08 04 26 33.9688020  0  1                     
I05  20624384.555       20859.386         234.182           0.189  
> 2019 05 08 04 26 34.0688020  0  1                     
I05  20624377.844       20883.043         241.262           0.191  
> 2019 05 08 04 26 34.1688020  0  1                     
I05  20624378.628       20906.787         235.223           0.189  
> 2019 05 08 04 26 34.2688020  0  1                     
I05  20624376.498       20930.377         244.904           0.188  
> 2019 05 08 04 26 34.3688020  0  1                     
I05  20624377.303       20954.078         242.331           0.190  
> 2019 05 08 04 26 34.4688020  0  1                     
I05  20624372.516       20977.687         243.292           0.189  
> 2019 05 08 04 26 34.5688020  0  1                     
I05  20624368.562       21001.282         241.151           0.190  
> 2019 05 08 04 26 34.6688020  0  1                     
I05  20624368.985       21024.761         232.487           0.189  
> 2019 05 08 04 26 34.7688020  0  1                     
I05  20624364.871       21048.423         235.070           0.190  
> 2019 05 08 04 26 34.8688020  0  1                     
I05  20624361.175       21071.857         230.793           0.191  
> 2019 05 08 04 26 34.9688020  0  1                     
I05  20624356.825       21095.329         237.160           0.190  
> 2019 05 08 04 26 35.0688020  0  1                     
I05  20624354.190       21118.897         232.048           0.191  
> 2019 05 08 04 26 35.1688020  0  1                     
I05  20624351.669       21142.451         244.264           0.189  
> 2019 05 08 04 26 35.2688020  0  1                     
I05  20624350.766       21166.053         232.521           0.191  
> 2019 05 08 04 26 35.3688020  0  1                     
I05  20624349.065       21189.865         237.394           0.189  
> 2019 05 08 04 26 35.4688020  0  1                     
I05  20624344.437       21213.579         238.974           0.192  
> 2019 05 08 04 26 35.5688020  0  1                     
I05  20624341.860       21237.365         244.465           0.190  
> 2019 05 08 04 26 35.6688020  0  1                     
I05  20624334.243       21261.107         240.204           0.190  
> 2019 05 08 04 26 35.7688020  0  1                     
I05  20624331.273       21284.860         243.811           0.189  
> 2019 05 08 04 26 35.8688020  0  1                     
I05  20624327.853       21308.416         236.553           0.188  
> 2019 05 08 04 26 35.9688020  0  1                     
I05  20624326.568       21331.771         236.381           0.191  
> 2019 05 08 04 26 36.0688020  0  1                     
I05  20624321.710       21355.415         238.555           0.190  
> 2019 05 08 04 26 36.1688020  0  1                     
I05  20624321.692       21378.893         229.942           0.189  
> 2019 05 08 04 26 36.2688020  0  1                     
I05  20624317.074       21402.503         235.567           0.189  
> 2019 05 08 04 26 36.3688020  0  1                     
I05  20624316.982       21426.099         240.222           0.190  
> 2019 05 08 04 26 36.4688020  0  1                     
I05  20624314.510       21449.693         249.744           0.189  
> 2019 05 08 04 26 36.5688020  0  1                     
I05  20624312.242       21473.269         236.847           0.190  
> 2019 05 08 04 26 36.6688020  0  1                     
I05  20624311.456       21496.850         236.098           0.191  
> 2019 05 08 04 26 36.7688020  0  1                     
I05  20624306.153       21520.471         233.332           0.189  
> 2019 05 08 04 26 36.8688020  0  1                     
I05  20624303.987       21544.131         235.819           0.190  
> 2019 05 08 04 26 36.9688020  0  1                     
I05  20624300.640       21567.752         236.314           0.192  
> 2019 05 08 04 26 37.0688020  0  1                     
I05  20624298.031       21591.622         235.790           0.191  
> 2019 05 08 04 26 37.1688020  0  1                     
I05  20624293.340       21615.460         234.011           0.192  
> 2019 05 08 04 26 37.2688020  0  1                     
I05  20624290.904       21639.272         236.335           0.190  
> 2019 05 08 04 26 37.3688020  0  1                     
I05  20624289.638       21663.109         244.610           0.185  
> 2019 05 08 04 26 37.4688020  0  1                     
I05  20624287.432       21686.586         236.717           0.192  
> 2019 05 08 04 26 37.5688020  0  1                     
I05  20624286.368       21710.262         244.375           0.190  
> 2019 05 08 04 26 37.6688020  0  1                     
I05  20624284.171       21733.822         236.284           0.189  
> 2019 05 08 04 26 37.7688020  0  1                     
I05  20624279.011       21757.446         243.641           0.187  
> 2019 05 08 04 26 37.8688020  0  1                     
I05  20624274.459       21780.962         239.440           0.190  
> 2019 05 08 04 26 37.9688020  0  1                     
I05  20624271.865       21804.382         235.783           0.191  
> 2019 05 08 04 26 38.0688020  0  1                     
I05  20624268.455       21828.059         240.463           0.189  
> 2019 05 08 04 26 38.1688020  0  1                     
I05  20624265.382       21851.556         232.692           0.192  
> 2019 05 08 04 26 38.2688020  0  1                     
I05  20624264.060       21875.228         236.510           0.189  
> 2019 05 08 04 26 38.3688020  0  1                     
I05  20624256.505       21899.105         244.463           0.188  
> 2019 05 08 04 26 38.4688020  0  1                     
I05  20624255.293       21922.865         239.757           0.190  
> 2019 05 08 04 26 38.5688020  0  1                     
I05  20624254.542       21946.672         234.838           0.190  
> 2019 05 08 04 26 38.6688020  0  1                     
I05  20624248.428       21970.423         234.674           0.191  
> 2019 05 08 04 26 38.7688020  0  1                     
I05  20624246.525       21994.295         236.975           0.190  
> 2019 05 08 04 26 38.8688020  0  1                     
I05  20624245.453       22017.826         232.178           0.188  
> 2019 05 08 04 26 38.9688020  0  1                     
I05  20624243.840       22041.369         237.608           0.191  
> 2019 05 08 04 26 39.0688020  0  1                     
I05  20624241.693       22064.955         232.645           0.190  
> 2019 05 08 04 26 39.1688020  0  1                     
I05  20624239.805       22088.624         244.060           0.189  
> 2019 05 08 04 26 39.2688020  0  1                     
I05  20624237.234       22112.193         231.570           0.191  
> 2019 05 08 04 26 39.3688020  0  1                     
I05  20624233.906       22135.782         235.989           0.190  
> 2019 05 08 04 26 39.4688020  0  1                     
I05  20624232.145       22159.492         232.167           0.191  
> 2019 05 08 04 26 39.5688020  0  1                     
I05  20624227.896       22183.056         228.563           0.189  
> 2019 05 08 04 26 39.6688020  0  1                     
I05  20624225.505       22206.735         239.295           0.192  
> 2019 05 08 04 26 39.7688020  0  1                     
I05  20624208.217       22230.362         229.267           0.191  
> 2019 05 08 04 26 39.8688020  0  1                     
I05  20624212.999       22253.887         240.585           0.190  
> 2019 05 08 04 26 39.9688020  0  1                     
I05  20624213.421       22277.434         234.308           0.191  
> 2019 05 08 04 26 40.0688020  0  1                     
I05  20624213.572       22301.193         242.947           0.192  
> 2019 05 08 04 26 40.1688020  0  1                     
I05  20624212.169       22324.795         229.680           0.187  
> 2019 05 08 04 26 40.2688020  0  1                     
I05  20624211.256       22348.407         237.582           0.190  
> 2019 05 08 04 26 40.3688020  0  1                     
I05  20624207.605       22372.148         237.076           0.190  
> 2019 05 08 04 26 40.4688020  0  1                     
I05  20624203.158       22395.728         234.214           0.191  
> 2019 05 08 04 26 40.5688020  0  1                     
I05  20624202.513       22419.505         238.805           0.190  
> 2019 05 08 04 26 40.6688020  0  1                     
I05  20624198.632       22443.097         234.317           0.191  
> 2019 05 08 04 26 40.7688020  0  1                     
I05  20624197.461       22466.754         244.554           0.188  
> 2019 05 08 04 26 40.8688020  0  1                     
I05  20624195.036       22490.214         238.229           0.190  
> 2019 05 08 04 26 40.9688020  0  1                     
I05  20624189.813       22513.736         243.706           0.187  
> 2019 05 08 04 26 41.0688020  0  1                     
I05  20624188.779       22537.346         234.934           0.191  
> 2019 05 08 04 26 41.1688020  0  1                     
I05  20624184.267       22560.938         232.506           0.190  
> 2019 05 08 04 26 41.2688020  0  1                     
I05  20624179.847       22584.679         238.642           0.189  
> 2019 05 08 04 26 41.3688020  0  1                     
I05  20624175.573       22608.249         231.706           0.191  
> 2019 05 08 04 26 41.4688020  0  1                     
I05  20624171.512       22632.002         239.826           0.190  
> 2019 05 08 04 26 41.5688020  0  1                     
I05  20624171.404       22655.571         231.575           0.189  
> 2019 05 08 04 26 41.6688020  0  1                     
I05  20624170.751       22679.314         248.677           0.189  
> 2019 05 08 04 26 41.7688020  0  1                     
I05  20624166.645       22703.028         237.711           0.191  
> 2019 05 08 04 26 41.8688020  0  1                     
I05  20624161.037       22726.503         237.951           0.192  
> 2019 05 08 04 26 41.9688020  0  1                     
I05  20624158.640       22750.056         232.489           0.192  
> 2019 05 08 04 26 42.0688020  0  1                     
I05  20624157.500       22773.615         230.873           0.190  
> 2019 05 08 04 26 42.1688020  0  1                     
I05  20624155.205       22797.351         240.304           0.189  
> 2019 05 08 04 26 42.2688020  0  1                     
I05  20624150.599       22820.907         231.993           0.190  
> 2019 05 08 04 26 42.3688020  0  1                     
I05  20624146.998       22844.693         248.845           0.188  
> 2019 05 08 04 26 42.4688020  0  1                     
I05  20624135.349       22868.238         234.195           0.191  
> 2019 05 08 04 26 42.5688020  0  1                     
I05  20624138.313       22891.963         247.290           0.189  
> 2019 05 08 04 26 42.6688020  0  1                     
I05  20624139.260       22915.629         231.955           0.189  
> 2019 05 08 04 26 42.7688020  0  1                     
I05  20624142.536       22939.294         235.973           0.190  
> 2019 05 08 04 26 42.8688020  0  1                     
I05  20624139.874       22962.928         242.250           0.186  
> 2019 05 08 04 26 42.9688020  0  1                     
I05  20624135.386       22986.537         239.985           0.191  
> 2019 05 08 04 26 43.0688020  0  1                     
I05  20624129.509       23010.323         239.407           0.188  
> 2019 05 08 04 26 43.1688020  0  1                     
I05  20624126.314       23034.267         242.520           0.190  
> 2019 05 08 04 26 43.2688020  0  1                     
I05  20624125.377       23058.089         237.145           0.184  
> 2019 05 08 04 26 43.3688020  0  1                     
I05  20624122.517       23081.677         234.472           0.189  
> 2019 05 08 04 26 43.4688020  0  1                     
I05  20624119.645       23105.430         239.949           0.190  
> 2019 05 08 04 26 43.5688020  0  1                     
I05  20624116.870       23129.066         230.807           0.190  
> 2019 05 08 04 26 43.6688020  0  1                     
I05  20624115.138       23152.790         242.738           0.189  
> 2019 05 08 04 26 43.7688020  0  1                     
I05  20624111.131       23176.431         234.967           0.190  
> 2019 05 08 04 26 43.8688020  0  1                     
I05  20624104.485       23200.013         243.182           0.189  
> 2019 05 08 04 26 43.9688020  0  1                     
I05  20624097.644       23223.612         238.174           0.191  
> 2019 05 08 04 26 44.0688020  0  1                     
I05  20624094.195       23247.154         231.159           0.189  
> 2019 05 08 04 26 44.1688020  0  1                     
I05  20624093.158       23270.885         235.301           0.189  
> 2019 05 08 04 26 44.2688020  0  1                     
I05  20624093.021       23294.484         232.820           0.190  
> 2019 05 08 04 26 44.3688020  0  1                     
I05  20624090.115       23318.230         244.843           0.188  
> 2019 05 08 04 26 44.4688020  0  1                     
I05  20624088.932       23341.884         234.851           0.189  
> 2019 05 08 04 26 44.5688020  0  1                     
I05  20624086.599       23365.623         242.326           0.190  
> 2019 05 08 04 26 44.6688020  0  1                     
I05  20624083.346       23389.296         231.586           0.190  
> 2019 05 08 04 26 44.7688020  0  1                     
I05  20624082.100       23412.959         233.452           0.190  
> 2019 05 08 04 26 44.8688020  0  1                     
I05  20624075.453       23436.622         236.050           0.191  
> 2019 05 08 04 26 44.9688020  0  1                     
I05  20624074.966       23460.066         227.793           0.188  
> 2019 05 08 04 26 45.0688020  0  1                     
I05  20624069.049       23483.879         238.712           0.191  
> 2019 05 08 04 26 45.1688020  0  1                     
I05  20624069.477       23507.501         234.829           0.190  
> 2019 05 08 04 26 45.2688020  0  1                     
I05  20624067.860       23531.198         242.518           0.190  
> 2019 05 08 04 26 45.3688020  0  1                     
I05  20624065.981       23554.900         235.582           0.189  
> 2019 05 08 04 26 45.4688020  0  1                     
I05  20624063.828       23578.618         240.681           0.191  
> 2019 05 08 04 26 45.5688020  0  1                     
I05  20624061.965       23602.367         233.525           0.190  
> 2019 05 08 04 26 45.6688020  0  1                     
I05  20624059.989       23626.009         236.994           0.192  
> 2019 05 08 04 26 45.7688020  0  1                     
I05  20624057.537       23649.831         243.900           0.190  
> 2019 05 08 04 26 45.8688020  0  1                     
I05  20624053.634       23673.355         231.626           0.190  
> 2019 05 08 04 26 45.9688020  0  1                     
I05  20624052.475       23697.118         237.487           0.191  
> 2019 05 08 04 26 46.0688020  0  1                     
I05  20624048.101       23720.706         228.354           0.190  
> 2019 05 08 04 26 46.1688020  0  1                     
I05  20624041.636       23744.502         240.668           0.191  
> 2019 05 08 04 26 46.2688020  0  1                     
I05  20624034.823       23768.177         235.536           0.190  
> 2019 05 08 04 26 46.3688020  0  1                     
I05  20624033.324       23791.872         245.678           0.191  
> 2019 05 08 04 26 46.4688020  0  1                     
I05  20624030.471       23815.570         232.473           0.190  
> 2019 05 08 04 26 46.5688020  0  1                     
I05  20624029.845       23839.249         236.741           0.191  
> 2019 05 08 04 26 46.6688020  0  1                     
I05  20624025.050       23863.068         243.555           0.190  
> 2019 05 08 04 26 46.7688020  0  1                     
I05  20624021.702       23886.709         233.578           0.189  
> 2019 05 08 04 26 46.8688020  0  1                     
I05  20624016.903       23910.422         243.493           0.189  
> 2019 05 08 04 26 46.9688020  0  1                     
I05  20624015.242       23933.909         228.044           0.188  
> 2019 05 08 04 26 47.0688020  0  1                     
I05  20624011.901       23957.646         239.706           0.191  
> 2019 05 08 04 26 47.1688020  0  1                     
I05  20624010.770       23981.316         230.671           0.191  
> 2019 05 08 04 26 47.2688020  0  1                     
I05  20624009.039       24005.083         244.248           0.189  
> 2019 05 08 04 26 47.3688020  0  1                     
I05  20624007.903       24028.808         239.285           0.190  
> 2019 05 08 04 26 47.4688020  0  1                     
I05  20624006.572       24052.733         243.561           0.191  
> 2019 05 08 04 26 47.5688020  0  1                     
I05  20624001.016       24076.621         240.111           0.192  
> 2019 05 08 04 26 47.6688020  0  1                     
I05  20623996.539       24100.583         241.863           0.191  
> 2019 05 08 04 26 47.7688020  0  1                     
I05  20623993.946       24124.461         238.843           0.192  
> 2019 05 08 04 26 47.8688020  0  1                     
I05  20623992.400       24148.211         240.272           0.192  
> 2019 05 08 04 26 47.9688020  0  1                     
I05  20623990.564       24171.888         231.042           0.190  
> 2019 05 08 04 26 48.0688020  0  1                     
I05  20623989.272       24195.525         232.815           0.189  
> 2019 05 08 04 26 48.1688020  0  1                     
I05  20623986.007       24219.325         239.538           0.191  
> 2019 05 08 04 26 48.2688020  0  1                     
I05  20623984.101       24243.026         234.512           0.191  
> 2019 05 08 04 26 48.3688020  0  1                     
I05  20623980.886       24266.785         246.260           0.190  
> 2019 05 08 04 26 48.4688020  0  1                     
I05  20623976.946       24290.448         236.308           0.190  
> 2019 05 08 04 26 48.5688020  0  1                     
I05  20623975.567       24314.173         242.209           0.191  
> 2019 05 08 04 26 48.6688020  0  1                     
I05  20623971.686       24337.920         238.469           0.194  
> 2019 05 08 04 26 48.7688020  0  1                     
I05  20623968.963       24361.685         241.739           0.190  
> 2019 05 08 04 26 48.8688020  0  1                     
I05  20623964.599       24385.485         237.867           0.190  
> 2019 05 08 04 26 48.9688020  0  1                     
I05  20623962.654       24409.296         236.888           0.189  
> 2019 05 08 04 26 49.0688020  0  1                     
I05  20623957.174       24433.214         241.864           0.190  
> 2019 05 08 04 26 49.1688020  0  1                     
I05  20623953.296       24457.105         236.264           0.192  
> 2019 05 08 04 26 49.2688020  0  1                     
I05  20623951.995       24480.977         234.207           0.190  
> 2019 05 08 04 26 49.3688020  0  1                     
I05  20623948.714       24504.915         247.032           0.191  
> 2019 05 08 04 26 49.4688020  0  1                     
I05  20623944.448       24528.833         239.288           0.189  
> 2019 05 08 04 26 49.5688020  0  1                     
I05  20623943.161       24552.500         234.438           0.190  
> 2019 05 08 04 26 49.6688020  0  1                     
I05  20623940.429       24576.400         244.725           0.188  
> 2019 05 08 04 26 49.7688020  0  1                     
I05  20623940.729       24600.068         231.550           0.192  
> 2019 05 08 04 26 49.8688020  0  1                     
I05  20623934.902       24623.703         240.110           0.192  
> 2019 05 08 04 26 49.9688020  0  1                     
I05  20623931.278       24647.338         232.703           0.191  
> 2019 05 08 04 26 50.0688020  0  1                     
I05  20623930.197       24671.023         237.700           0.191  
> 2019 05 08 04 26 50.1688020  0  1                     
I05  20623927.561       24694.834         238.594           0.190  
> 2019 05 08 04 26 50.2688020  0  1                     
I05  20623924.679       24718.521         233.607           0.191  
> 2019 05 08 04 26 50.3688020  0  1                     
I05  20623907.006       24742.434         249.023           0.184  
> 2019 05 08 04 26 50.4688020  0  1                     
I05  20623911.201       24766.373         245.388           0.189  
> 2019 05 08 04 26 50.5688020  0  1                     
I05  20623908.326       24790.302         241.027           0.192  
> 2019 05 08 04 26 50.6688020  0  1                     
I05  20623910.556       24814.115         236.386           0.190  
> 2019 05 08 04 26 50.7688020  0  1                     
I05  20623912.437       24838.109         238.296           0.191  
> 2019 05 08 04 26 50.8688020  0  1                     
I05  20623914.116       24861.902         235.878           0.190  
> 2019 05 08 04 26 50.9688020  0  1                     
I05  20623909.922       24885.589         235.844           0.189  
> 2019 05 08 04 26 51.0688020  0  1                     
I05  20623906.667       24909.486         241.918           0.190  
> 2019 05 08 04 26 51.1688020  0  1                     
I05  20623902.355       24933.193         234.653           0.191  
> 2019 05 08 04 26 51.2688020  0  1                     
I05  20623899.214       24957.041         247.953           0.190  
> 2019 05 08 04 26 51.3688020  0  1                     
I05  20623895.515       24980.852         240.395           0.192  
> 2019 05 08 04 26 51.4688020  0  1                     
I05  20623892.542       25004.572         240.375           0.191  
> 2019 05 08 04 26 51.5688020  0  1                     
I05  20623891.045       25028.415         237.775           0.192  
> 2019 05 08 04 26 51.6688020  0  1                     
I05  20623886.822       25052.092         230.899           0.190  
> 2019 05 08 04 26 51.7688020  0  1                     
I05  20623878.650       25076.081         235.703           0.192  
> 2019 05 08 04 26 51.8688020  0  1                     
I05  20623878.473       25099.751         236.778           0.191  
> 2019 05 08 04 26 51.9688020  0  1                     
I05  20623874.383       25123.529         237.960           0.190  
> 2019 05 08 04 26 52.0688020  0  1                     
I05  20623871.061       25147.204         231.384           0.189  
