     3.03           OBSERVATION DATA    M: Mixed            RINEX VERSION / TYPE
GNSS-SDRLIB v1.1                        20230710 131131 UTC PGM / RUN BY / DATE 
                                                            MARKER NAME         
                                                            MARKER NUMBER       
                                                            MARKER TYPE         
                                                            OBSERVER / AGENCY   
GNSS-SDRLIB         GNSS-SDRLIB         1.1                 REC # / TYPE / VERS 
                                                            ANT # / TYPE        
        0.0000        0.0000        0.0000                  APPROX POSITION XYZ 
        0.0000        0.0000        0.0000                  ANTENNA: DELTA H/E/N
G    4 C1C L1C D1C S1C                                      SYS / # / OBS TYPES 
R    4 C1C L1C D1C S1C                                      SYS / # / OBS TYPES 
E    4 C1C L1C D1C S1C                                      SYS / # / OBS TYPES 
J    4 C1C L1C D1C S1C                                      SYS / # / OBS TYPES 
S    4 C1C L1C D1C S1C                                      SYS / # / OBS TYPES 
C    4 C1C L1C D1C S1C                                      SYS / # / OBS TYPES 
I    4 C1C L1C D1C S1C                                      SYS / # / OBS TYPES 
  1970    01    01    00    00   00.0000000     GPS         TIME OF FIRST OBS   
  1970    01    01    00    00   00.0000000     GPS         TIME OF LAST OBS    
G L1C                                                       SYS / PHASE SHIFT   
R L1C                                                       SYS / PHASE SHIFT   
E L1C  0.00000                                              SYS / PHASE SHIFT   
J L1C                                                       SYS / PHASE SHIFT   
S L1C                                                       SYS / PHASE SHIFT   
C L1C  0.00000                                              SYS / PHASE SHIFT   
I L1C  0.00000                                              SYS / PHASE SHIFT   
  0                                                         GLONASS SLOT / FRQ #
 C1C    0.000 C1P    0.000 C2C    0.000 C2P    0.000        GLONASS COD/PHS/BIS 
                                                            END OF HEADER       
> 2023 05 18 00 00 36.0688020  0  1                     
G03  20627817.207      -12676.764        -573.908           0.255  
> 2023 05 18 00 00 36.0688020  0  2                     
G03  20627817.207      -12676.764        -573.908           0.255  
G04  22113623.937      -56194.254       -2874.449           0.244  
> 2023 05 18 00 00 36.0688020  0  3                     
G03  20627817.207      -12676.764        -573.908           0.255  
G04  22113623.937      -56194.254       -2874.449           0.244  
G05  20885758.718       56161.482        2700.256           0.255  
> 2023 05 18 00 00 36.0688020  0  4                     
G03  22274919.130      -12673.610        -573.889           0.255  
G04  23760725.860      -56178.463       -2875.262           0.244  
G05  22532860.641       56146.644        2698.346           0.255  
G06  20627069.920       -6424.654        -512.159           0.255  
> 2023 05 18 00 00 36.0688020  0  5                     
G02  24428686.099      117863.123        3933.283           0.239  
G03  22274919.130      -12673.610        -573.889           0.255  
G04  23760725.860      -56178.463       -2875.262           0.244  
G05  22532860.641       56146.644        2698.346           0.255  
G06  20627069.920       -6424.654        -512.159           0.255  
> 2023 05 18 00 00 36.1688020  0  6                     
G02  24428610.632      118256.364        3932.189           0.239  
G03  22274930.144      -12731.010        -573.994           0.255  
G04  23760780.193      -56465.785       -2874.444           0.244  
G05  22532809.171       56416.523        2701.522           0.255  
G06  20627079.647       -6475.894        -512.283           0.255  
G07  23530389.087      -11202.876       -1818.616           0.247  
> 2023 05 18 00 00 36.2688020  0  6                     
G02  24428536.083      118649.604        3932.983           0.239  
G03  22274940.908      -12788.372        -554.601           0.255  
G04  23760834.887      -56753.119       -2871.906           0.244  
G05  22532757.666       56686.315        2697.828           0.255  
G06  20627089.583       -6527.140        -512.553           0.255  
G07  23530423.614      -11384.819       -1819.463           0.247  
> 2023 05 18 00 00 36.3688020  0  6                     
G02  24428461.109      119042.843        3932.895           0.239  
G03  22274951.797      -12845.822        -573.802           0.255  
G04  23760889.562      -57040.456       -2872.923           0.244  
G05  22532706.475       56956.148        2698.577           0.255  
G06  20627099.186       -6578.391        -512.517           0.255  
G07  23530458.234      -11566.763       -1819.405           0.247  
> 2023 05 18 00 00 36.4688020  0  6                     
G02  24428386.380      119436.079        3932.589           0.239  
G03  22274962.926      -12903.240        -574.096           0.255  
G04  23760944.679      -57327.793       -2873.573           0.244  
G05  22532655.293       57225.976        2698.083           0.255  
G06  20627108.995       -6629.649        -512.640           0.255  
G07  23530492.414      -11748.708       -1819.128           0.247  
> 2023 05 18 00 00 36.5688020  0  6                     
G02  24428311.547      119829.297        3932.058           0.239  
G03  22274973.967      -12960.661        -574.190           0.255  
G04  23760999.531      -57615.126       -2873.254           0.244  
G05  22532603.872       57495.829        2697.575           0.255  
G06  20627118.778       -6680.907        -512.643           0.255  
G07  23530527.364      -11930.610       -1807.766           0.247  
> 2023 05 18 00 00 36.6688020  0  6                     
G02  24428235.715      120222.536        3933.075           0.239  
G03  22274985.566      -13018.088        -574.078           0.255  
G04  23761055.370      -57902.464       -2874.153           0.244  
G05  22532552.313       57765.633        2698.515           0.255  
G06  20627128.114       -6732.174        -512.852           0.255  
G07  23530561.984      -12112.621       -1819.447           0.247  
> 2023 05 18 00 00 36.7688020  0  6                     
G02  24428161.929      120615.775        3932.904           0.239  
G03  22274996.255      -13075.560        -580.466           0.255  
G04  23761109.485      -58189.808       -2873.652           0.244  
G05  22532500.673       58035.454        2699.082           0.255  
G06  20627137.942       -6783.443        -512.887           0.255  
G07  23530596.477      -12294.580       -1819.591           0.247  
> 2023 05 18 00 00 36.8688020  0  6                     
G02  24428086.445      121009.016        3932.709           0.239  
G03  22275006.970      -13132.967        -574.645           0.255  
G04  23761163.408      -58477.147       -2873.295           0.244  
G05  22532449.784       58305.264        2698.395           0.255  
G06  20627147.722       -6834.716        -512.692           0.255  
G07  23530631.533      -12476.541       -1819.465           0.247  
> 2023 05 18 00 00 36.9688020  0  6                     
G02  24428012.327      121402.250        3932.010           0.239  
G03  22275016.792      -13190.381        -566.953           0.255  
G04  23761218.131      -58764.486       -2873.531           0.244  
G05  22532398.188       58575.074        2697.938           0.255  
G06  20627158.140       -6885.993        -512.934           0.255  
G07  23530665.293      -12658.509       -1819.113           0.247  
> 2023 05 18 00 00 37.0688020  0  6                     
G02  24427937.569      121795.489        3931.997           0.239  
G03  22275028.263      -13247.864        -574.486           0.255  
G04  23761272.684      -59051.826       -2872.857           0.244  
G05  22532346.885       58844.887        2697.849           0.255  
G06  20627167.506       -6937.276        -513.138           0.255  
G07  23530700.807      -12840.484       -1819.772           0.247  
> 2023 05 18 00 00 37.1688020  0  6                     
G02  24427862.549      122188.727        3932.329           0.239  
G03  22275039.658      -13305.325        -574.651           0.255  
G04  23761327.228      -59339.169       -2873.002           0.244  
G05  22532295.697       59114.689        2697.422           0.255  
G06  20627177.217       -6988.563        -512.881           0.255  
G07  23530735.340      -13022.457       -1819.540           0.247  
> 2023 05 18 00 00 37.2688020  0  6                     
G02  24427786.962      122581.962        3932.037           0.239  
G03  22275050.519      -13362.788        -574.389           0.255  
G04  23761381.712      -59626.526       -2872.898           0.244  
G05  22532244.554       59384.499        2697.479           0.255  
G06  20627187.033       -7039.857        -512.999           0.255  
G07  23530769.732      -13204.436       -1819.959           0.247  
> 2023 05 18 00 00 37.3688020  0  6                     
G02  24427712.841      122975.381        3982.104           0.239  
G03  22275060.443      -13420.272        -563.790           0.255  
G04  23761436.217      -59913.843       -2905.427           0.244  
G05  22532193.254       59654.390        2694.352           0.255  
G06  20627196.812       -7091.152        -512.993           0.255  
G07  23530804.291      -13386.418       -1819.786           0.247  
> 2023 05 18 00 00 37.4688020  0  6                     
G02  24427637.786      123368.442        3932.332           0.239  
G03  22275071.906      -13477.840        -594.746           0.255  
G04  23761491.586      -60200.822       -2827.113           0.244  
G05  22532141.819       59924.144        2682.520           0.255  
G06  20627206.362       -7142.453        -512.818           0.255  
G07  23530838.755      -13568.297       -1783.848           0.247  
> 2023 05 18 00 00 37.5688020  0  6                     
G02  24427562.678      123761.680        3932.657           0.239  
G03  22275083.222      -13535.220        -574.729           0.255  
G04  23761546.725      -60488.565       -2873.266           0.244  
G05  22532090.478       60193.895        2697.647           0.255  
G06  20627216.224       -7193.759        -513.097           0.255  
G07  23530873.658      -13750.400       -1820.024           0.247  
> 2023 05 18 00 00 37.6688020  0  6                     
G02  24427489.039      124154.924        3932.621           0.239  
G03  22275094.104      -13592.708        -574.660           0.255  
G04  23761602.349      -60775.924       -2873.834           0.244  
G05  22532039.043       60463.690        2698.075           0.255  
G06  20627226.133       -7245.073        -513.168           0.255  
G07  23530907.081      -13932.319       -1795.490           0.247  
> 2023 05 18 00 00 37.7688020  0  6                     
G02  24427413.880      124548.158        3932.061           0.239  
G03  22275105.375      -13650.206        -574.958           0.255  
G04  23761656.955      -61063.277       -2873.664           0.244  
G05  22531987.502       60733.475        2697.463           0.255  
G06  20627235.887       -7296.384        -513.189           0.255  
G07  23530941.733      -14114.392       -1819.862           0.247  
> 2023 05 18 00 00 37.8688020  0  6                     
G02  24427338.693      124941.391        3932.111           0.239  
G03  22275115.139      -13707.706        -574.413           0.255  
G04  23761710.284      -61350.622       -2874.393           0.244  
G05  22531936.626       61003.261        2697.632           0.255  
G06  20627245.838       -7347.701        -513.029           0.255  
G07  23530977.128      -14296.390       -1819.263           0.247  
> 2023 05 18 00 00 37.9688020  0  6                     
G02  24427263.465      125334.634        3932.141           0.239  
G03  22275127.151      -13765.216        -574.934           0.255  
G04  23761765.249      -61637.979       -2873.076           0.244  
G05  22531884.863       61273.042        2697.747           0.255  
G06  20627255.111       -7399.027        -513.258           0.255  
G07  23531012.060      -14478.397       -1819.681           0.247  
> 2023 05 18 00 00 38.0688020  0  6                     
G02  24427188.104      125727.873        3933.015           0.239  
G03  22275137.669      -13822.730        -575.306           0.255  
G04  23761820.413      -61925.331       -2872.859           0.244  
G05  22531833.647       61542.830        2697.823           0.255  
G06  20627265.207       -7450.359        -513.242           0.255  
G07  23531046.594      -14660.407       -1820.161           0.247  
> 2023 05 18 00 00 38.1688020  0  6                     
G02  24427113.752      126121.357        3963.936           0.239  
G03  22275148.741      -13880.323        -601.347           0.255  
G04  23761873.512      -62212.696       -2873.263           0.244  
G05  22531782.030       61812.650        2717.082           0.255  
G06  20627275.158       -7501.691        -513.500           0.255  
G07  23531081.617      -14842.454       -1818.283           0.247  
> 2023 05 18 00 00 38.2688020  0  6                     
G02  24427038.946      126514.345        3931.730           0.239  
G03  22275160.104      -13937.774        -575.247           0.255  
G04  23761928.927      -62500.056       -2872.842           0.244  
G05  22531730.704       62082.375        2697.676           0.255  
G06  20627284.910       -7553.025        -513.193           0.255  
G07  23531116.088      -15024.437       -1819.838           0.247  
> 2023 05 18 00 00 38.3688020  0  6                     
G02  24426963.691      126907.605        3923.620           0.239  
G03  22275171.131      -13995.229        -567.222           0.255  
G04  23761982.811      -62787.412       -2873.464           0.244  
G05  22531680.122       62352.149        2698.084           0.255  
G06  20627294.470       -7604.368        -513.373           0.255  
G07  23531150.747      -15206.490       -1821.812           0.247  
> 2023 05 18 00 00 38.4688020  0  6                     
G02  24426889.458      127300.808        3932.670           0.239  
G03  22275181.336      -14052.844        -575.270           0.255  
G04  23762037.276      -63074.773       -2872.763           0.244  
G05  22531628.328       62621.918        2697.706           0.255  
G06  20627304.301       -7655.717        -513.253           0.255  
G07  23531185.759      -15388.487       -1820.663           0.247  
> 2023 05 18 00 00 38.5688020  0  6                     
G02  24426814.462      127694.052        3932.954           0.239  
G03  22275192.755      -14110.392        -575.581           0.255  
G04  23762092.900      -63362.136       -2874.559           0.244  
G05  22531576.952       62891.678        2697.427           0.255  
G06  20627313.681       -7707.074        -513.512           0.255  
G07  23531220.415      -15570.514       -1819.797           0.247  
> 2023 05 18 00 00 38.6688020  0  6                     
G02  24426739.987      128087.279        3932.196           0.239  
G03  22275203.424      -14167.941        -575.619           0.255  
G04  23762148.333      -63649.498       -2873.166           0.244  
G05  22531526.076       63161.447        2697.978           0.255  
G06  20627323.505       -7758.431        -513.676           0.255  
G07  23531254.835      -15752.547       -1820.069           0.247  
> 2023 05 18 00 00 38.7688020  0  6                     
G02  24426664.794      128480.523        3932.334           0.239  
G03  22275214.510      -14225.497        -575.560           0.255  
G04  23762202.462      -63936.862       -2874.845           0.244  
G05  22531474.715       63431.208        2698.196           0.255  
G06  20627333.521       -7809.792        -513.620           0.255  
G07  23531289.358      -15934.583       -1819.833           0.247  
> 2023 05 18 00 00 38.8688020  0  6                     
G02  24426590.117      128873.757        3931.876           0.239  
G03  22275225.738      -14283.062        -575.865           0.255  
G04  23762257.098      -64224.231       -2874.524           0.244  
G05  22531423.438       63700.955        2697.401           0.255  
G06  20627342.716       -7861.158        -513.568           0.255  
G07  23531324.454      -16116.622       -1820.710           0.247  
> 2023 05 18 00 00 38.9688020  0  6                     
G02  24426515.840      129267.004        3933.659           0.239  
G03  22275236.687      -14340.629        -575.579           0.255  
G04  23762311.876      -64511.593       -2873.451           0.244  
G05  22531371.775       63970.697        2697.107           0.255  
G06  20627352.620       -7912.533        -513.678           0.255  
G07  23531358.665      -16298.667       -1820.726           0.247  
> 2023 05 18 00 00 39.0688020  0  6                     
G02  24426441.103      129660.734        3978.832           0.239  
G03  22275247.887      -14398.204        -575.650           0.255  
G04  23762365.880      -64798.967       -2873.067           0.244  
G05  22531320.211       64240.446        2697.250           0.255  
G06  20627362.716       -7963.908        -513.837           0.255  
G07  23531392.749      -16480.641       -1808.477           0.247  
> 2023 05 18 00 00 39.1688020  0  6                     
G02  24426365.111      130053.476        3932.051           0.239  
G03  22275258.465      -14455.784        -575.293           0.255  
G04  23762420.851      -65086.336       -2874.923           0.244  
G05  22531269.155       64510.056        2672.573           0.255  
G06  20627372.718       -8015.287        -514.083           0.255  
G07  23531427.342      -16662.764       -1820.519           0.247  
> 2023 05 18 00 00 39.2688020  0  6                     
G02  24426291.106      130446.716        3933.181           0.239  
G03  22275268.907      -14513.372        -575.744           0.255  
G04  23762475.922      -65373.705       -2873.882           0.244  
G05  22531217.916       64779.937        2697.290           0.255  
G06  20627382.402       -8066.673        -514.111           0.255  
G07  23531462.192      -16844.968       -1826.493           0.247  
> 2023 05 18 00 00 39.3688020  0  6                     
G02  24426216.337      130839.952        3932.220           0.239  
G03  22275279.598      -14570.964        -575.979           0.255  
G04  23762530.782      -65661.078       -2873.992           0.244  
G05  22531166.801       65049.679        2697.401           0.255  
G06  20627392.429       -8118.065        -514.017           0.255  
G07  23531496.887      -17026.760       -1804.239           0.247  
> 2023 05 18 00 00 39.4688020  0  6                     
G02  24426141.371      131233.185        3931.529           0.239  
G03  22275290.967      -14628.563        -575.746           0.255  
G04  23762585.958      -65948.447       -2873.778           0.244  
G05  22531115.093       65319.491        2699.308           0.255  
G06  20627402.138       -8169.455        -514.079           0.255  
G07  23531531.227      -17208.945       -1820.730           0.247  
> 2023 05 18 00 00 39.5688020  0  6                     
G02  24426066.134      131626.420        3931.411           0.239  
G03  22275302.351      -14686.174        -576.408           0.255  
G04  23762639.840      -66235.830       -2874.355           0.244  
G05  22531063.855       65589.137        2697.447           0.255  
G06  20627411.840       -8220.852        -513.832           0.255  
G07  23531566.552      -17391.011       -1820.420           0.247  
> 2023 05 18 00 00 39.6688020  0  6                     
G02  24425991.739      132019.668        3932.322           0.239  
G03  22275312.787      -14743.782        -576.134           0.255  
G04  23762694.700      -66523.221       -2874.680           0.244  
G05  22531012.261       65858.870        2697.473           0.255  
G06  20627421.809       -8272.258        -514.011           0.255  
G07  23531600.683      -17573.080       -1820.735           0.247  
> 2023 05 18 00 00 39.7688020  0  6                     
G02  24425916.647      132412.903        3932.439           0.240  
G03  22275323.771      -14801.400        -576.037           0.255  
G04  23762749.334      -66810.593       -2872.982           0.244  
G05  22530961.741       66128.596        2697.510           0.255  
G06  20627431.347       -8323.669        -514.041           0.255  
G07  23531635.179      -17755.157       -1821.487           0.247  
> 2023 05 18 00 00 39.8688020  0  6                     
G02  24425841.998      132806.154        3935.468           0.239  
G03  22275335.213      -14859.025        -576.051           0.255  
G04  23762804.265      -67097.970       -2873.200           0.244  
G05  22530909.977       66398.318        2697.190           0.255  
G06  20627441.060       -8375.077        -514.031           0.255  
G07  23531670.647      -17937.233       -1821.046           0.247  
> 2023 05 18 00 00 39.9688020  0  6                     
G02  24425767.384      133199.377        3932.256           0.239  
G03  22275346.619      -14916.653        -576.340           0.255  
G04  23762858.592      -67385.350       -2872.250           0.244  
G05  22530858.603       66668.039        2697.292           0.255  
G06  20627450.572       -8426.494        -514.121           0.255  
G07  23531705.285      -18119.314       -1821.000           0.247  
> 2023 05 18 00 00 40.0688020  0  6                     
G02  24425692.235      133592.626        3932.251           0.239  
G03  22275356.628      -14974.335        -585.875           0.255  
G04  23762913.199      -67672.736       -2873.582           0.244  
G05  22530807.013       66937.764        2697.736           0.255  
G06  20627460.796       -8477.915        -514.012           0.255  
G07  23531739.586      -18301.401       -1820.726           0.247  
> 2023 05 18 00 00 40.1688020  0  6                     
G02  24425616.498      133985.855        3932.804           0.239  
G03  22275367.936      -15031.931        -576.380           0.255  
G04  23762968.032      -67960.115       -2874.022           0.244  
G05  22530755.240       67207.478        2697.299           0.255  
G06  20627470.875       -8529.346        -514.398           0.255  
G07  23531774.243      -18483.493       -1820.839           0.247  
> 2023 05 18 00 00 40.2688020  0  6                     
G02  24425542.617      134379.094        3932.993           0.239  
G03  22275378.824      -15089.581        -576.510           0.255  
G04  23763022.857      -68247.491       -2872.262           0.244  
G05  22530703.878       67477.195        2697.671           0.255  
G06  20627480.495       -8580.774        -514.261           0.255  
G07  23531809.137      -18665.588       -1821.692           0.247  
> 2023 05 18 00 00 40.3688020  0  6                     
G02  24425467.771      134772.331        3931.229           0.239  
G03  22275389.860      -15147.235        -576.473           0.255  
G04  23763077.259      -68534.883       -2873.393           0.244  
G05  22530652.854       67746.899        2697.098           0.255  
G06  20627490.006       -8632.209        -514.289           0.255  
G07  23531843.708      -18847.685       -1821.046           0.247  
> 2023 05 18 00 00 40.4688020  0  6                     
G02  24425392.721      135165.568        3932.020           0.239  
G03  22275400.759      -15204.896        -576.532           0.255  
G04  23763132.974      -68822.271       -2874.473           0.244  
G05  22530601.708       68016.609        2697.437           0.255  
G06  20627499.688       -8683.650        -514.272           0.255  
G07  23531878.742      -19029.781       -1820.995           0.247  
> 2023 05 18 00 00 40.5688020  0  6                     
G02  24425317.838      135558.809        3932.381           0.239  
G03  22275411.342      -15262.561        -576.567           0.255  
G04  23763187.050      -69109.667       -2874.673           0.244  
G05  22530550.430       68286.310        2697.067           0.255  
G06  20627509.814       -8735.096        -514.279           0.255  
G07  23531913.344      -19211.882       -1820.535           0.247  
> 2023 05 18 00 00 40.6688020  0  6                     
G02  24425244.472      135952.045        3931.963           0.239  
G03  22275422.663      -15320.234        -576.473           0.255  
G04  23763242.244      -69397.055       -2874.773           0.244  
G05  22530499.121       68555.999        2697.053           0.255  
G06  20627519.483       -8786.543        -514.434           0.255  
G07  23531947.187      -19393.998       -1821.090           0.248  
> 2023 05 18 00 00 40.7688020  0  6                     
G02  24425168.999      136345.286        3931.614           0.239  
G03  22275433.715      -15377.911        -576.939           0.255  
G04  23763296.309      -69684.443       -2874.283           0.244  
G05  22530447.661       68825.696        2697.377           0.255  
G06  20627529.034       -8837.998        -514.708           0.255  
G07  23531982.628      -19576.106       -1820.828           0.247  
> 2023 05 18 00 00 40.8688020  0  6                     
G02  24425093.984      136738.527        3932.475           0.239  
G03  22275444.655      -15435.596        -576.994           0.255  
G04  23763350.966      -69971.836       -2874.039           0.244  
G05  22530396.264       69095.393        2696.900           0.255  
G06  20627538.966       -8889.457        -514.568           0.255  
G07  23532016.986      -19758.224       -1820.954           0.247  
> 2023 05 18 00 00 40.9688020  0  6                     
G02  24425017.877      137131.762        3932.504           0.239  
G03  22275455.577      -15493.252        -573.928           0.255  
G04  23763406.257      -70259.233       -2874.254           0.244  
G05  22530345.221       69365.084        2696.836           0.255  
G06  20627548.603       -8940.921        -514.623           0.255  
G07  23532051.716      -19940.286       -1805.126           0.247  
> 2023 05 18 00 00 41.0688020  0  6                     
G02  24424944.428      137525.007        3932.780           0.239  
G03  22275466.981      -15550.925        -565.545           0.255  
G04  23763460.802      -70546.621       -2873.508           0.244  
G05  22530294.009       69634.776        2696.907           0.255  
G06  20627558.197       -8992.393        -514.649           0.255  
G07  23532086.771      -20122.469       -1820.998           0.247  
> 2023 05 18 00 00 41.1688020  0  6                     
G02  24424869.611      137918.240        3931.682           0.239  
G03  22275477.968      -15608.688        -577.132           0.255  
G04  23763515.418      -70834.022       -2874.154           0.244  
G05  22530242.227       69904.458        2696.894           0.255  
G06  20627568.098       -9043.864        -514.805           0.255  
G07  23532120.668      -20304.601       -1821.465           0.247  
> 2023 05 18 00 00 41.2688020  0  6                     
G02  24424793.922      138311.473        3931.572           0.239  
G03  22275488.651      -15666.398        -577.168           0.255  
G04  23763570.272      -71121.417       -2873.895           0.244  
G05  22530190.755       70174.129        2696.843           0.255  
G06  20627578.378       -9095.340        -514.667           0.255  
G07  23532155.702      -20486.729       -1821.719           0.247  
> 2023 05 18 00 00 41.3688020  0  6                     
G02  24424719.546      138704.720        3933.381           0.239  
G03  22275500.215      -15724.114        -577.337           0.255  
G04  23763624.471      -71408.823       -2874.851           0.244  
G05  22530139.775       70443.807        2696.786           0.255  
G06  20627587.978       -9146.825        -514.895           0.255  
G07  23532189.789      -20668.863       -1820.999           0.247  
> 2023 05 18 00 00 41.4688020  0  6                     
G02  24424645.097      139097.934        3932.085           0.239  
G03  22275510.482      -15781.832        -577.095           0.255  
G04  23763679.850      -71696.223       -2873.972           0.244  
G05  22530088.206       70713.482        2696.661           0.255  
G06  20627598.119       -9198.316        -515.078           0.255  
G07  23532225.062      -20851.005       -1821.322           0.247  
> 2023 05 18 00 00 41.5688020  0  6                     
G02  24424569.641      139491.175        3932.785           0.239  
G03  22275521.702      -15839.559        -577.223           0.255  
G04  23763734.583      -71983.625       -2873.991           0.244  
G05  22530037.317       70983.152        2696.391           0.255  
G06  20627607.521       -9249.803        -514.733           0.255  
G07  23532259.839      -21033.148       -1821.286           0.247  
> 2023 05 18 00 00 41.6688020  0  6                     
G02  24424495.386      139884.407        3931.645           0.239  
G03  22275532.796      -15897.294        -577.142           0.255  
G04  23763788.087      -72271.024       -2874.161           0.244  
G05  22529985.772       71252.822        2696.816           0.255  
G06  20627617.519       -9301.299        -514.933           0.255  
G07  23532294.233      -21215.296       -1821.371           0.247  
> 2023 05 18 00 00 41.7688020  0  6                     
G02  24424420.455      140277.643        3931.980           0.239  
G03  22275543.520      -15955.034        -577.475           0.255  
G04  23763842.579      -72558.425       -2874.449           0.244  
G05  22529934.630       71522.488        2696.598           0.255  
G06  20627627.125       -9352.803        -514.959           0.255  
G07  23532328.881      -21397.451       -1821.645           0.247  
> 2023 05 18 00 00 41.8688020  0  6                     
G02  24424345.197      140670.889        3932.442           0.239  
G03  22275554.812      -16012.779        -577.256           0.255  
G04  23763897.478      -72845.832       -2873.973           0.244  
G05  22529883.452       71792.150        2696.884           0.255  
G06  20627636.943       -9404.309        -514.916           0.255  
G07  23532363.590      -21579.603       -1821.913           0.247  
> 2023 05 18 00 00 41.9688020  0  6                     
G02  24424271.223      141064.125        3932.261           0.239  
G03  22275565.563      -16070.534        -577.713           0.255  
G04  23763952.208      -73133.240       -2874.060           0.244  
G05  22529832.075       72061.809        2696.834           0.255  
G06  20627646.704       -9455.817        -515.052           0.255  
G07  23532398.043      -21761.761       -1821.578           0.247  
> 2023 05 18 00 00 42.0688020  0  6                     
G02  24424196.034      141457.365        3932.345           0.239  
G03  22275576.784      -16128.293        -577.756           0.255  
G04  23764006.871      -73420.653       -2874.807           0.244  
G05  22529780.778       72331.459        2695.888           0.255  
G06  20627656.357       -9507.331        -515.196           0.255  
G07  23532432.903      -21943.921       -1821.527           0.247  
> 2023 05 18 00 00 42.1688020  0  6                     
G02  24424120.737      141850.602        3932.906           0.239  
G03  22275587.339      -16186.053        -577.618           0.255  
G04  23764061.676      -73708.062       -2874.563           0.244  
G05  22529729.704       72601.109        2695.902           0.255  
G06  20627666.255       -9558.851        -515.003           0.255  
G07  23532467.867      -22126.083       -1821.333           0.247  
> 2023 05 18 00 00 42.2688020  0  6                     
G02  24424045.937      142243.842        3933.108           0.239  
G03  22275598.388      -16243.836        -572.165           0.255  
G04  23764115.966      -73995.472       -2874.313           0.244  
G05  22529678.491       72870.852        2702.594           0.255  
G06  20627676.169       -9610.379        -515.412           0.255  
G07  23532501.978      -22308.257       -1821.569           0.247  
> 2023 05 18 00 00 42.3688020  0  6                     
G02  24423970.979      142637.145        3936.812           0.239  
G03  22275609.599      -16301.598        -572.195           0.255  
G04  23764171.089      -74282.878       -2873.987           0.244  
G05  22529627.157       73140.410        2696.689           0.255  
G06  20627686.069       -9661.905        -515.445           0.255  
G07  23532536.446      -22490.416       -1823.697           0.247  
> 2023 05 18 00 00 42.4688020  0  6                     
G02  24423896.390      143030.318        3932.146           0.239  
G03  22275620.700      -16359.359        -576.756           0.255  
G04  23764225.889      -74570.292       -2873.895           0.244  
G05  22529575.594       73410.052        2696.731           0.255  
G06  20627695.766       -9713.437        -515.307           0.255  
G07  23532571.459      -22672.607       -1821.860           0.247  
> 2023 05 18 00 00 42.5688020  0  6                     
G02  24423821.915      143423.553        3931.875           0.239  
G03  22275631.541      -16417.174        -577.870           0.255  
G04  23764280.139      -74857.706       -2873.665           0.244  
G05  22529524.285       73679.692        2696.664           0.255  
G06  20627705.438       -9764.976        -515.412           0.255  
G07  23532606.526      -22854.705       -1811.183           0.247  
> 2023 05 18 00 00 42.6688020  0  6                     
G02  24423746.766      143816.800        3933.297           0.239  
G03  22275641.888      -16474.883        -566.050           0.255  
G04  23764335.767      -75145.116       -2873.486           0.244  
G05  22529472.810       73949.324        2696.127           0.255  
G06  20627715.552       -9816.520        -515.394           0.255  
G07  23532640.775      -23036.973       -1821.937           0.247  
> 2023 05 18 00 00 42.7688020  0  6                     
G02  24423670.768      144210.027        3932.268           0.239  
G03  22275653.557      -16532.767        -578.026           0.255  
G04  23764390.388      -75432.541       -2874.250           0.244  
G05  22529421.848       74218.961        2696.804           0.255  
G06  20627724.976       -9868.064        -515.324           0.255  
G07  23532675.421      -23219.163       -1821.877           0.247  
> 2023 05 18 00 00 42.8688020  0  6                     
G02  24423597.133      144603.268        3931.931           0.239  
G03  22275664.953      -16590.576        -578.168           0.255  
G04  23764445.224      -75719.964       -2874.830           0.244  
G05  22529370.299       74488.589        2696.602           0.255  
G06  20627734.632       -9919.615        -515.315           0.255  
G07  23532710.086      -23401.352       -1821.512           0.247  
> 2023 05 18 00 00 42.9688020  0  6                     
G02  24423522.633      144996.505        3931.969           0.239  
G03  22275675.599      -16648.389        -578.043           0.255  
G04  23764499.810      -76007.385       -2874.835           0.244  
G05  22529318.787       74758.220        2696.571           0.255  
G06  20627744.584       -9971.172        -515.713           0.255  
G07  23532744.833      -23583.548       -1821.505           0.247  
> 2023 05 18 00 00 43.0688020  0  6                     
G02  24423447.569      145389.747        3932.645           0.239  
G03  22275686.574      -16706.208        -578.088           0.255  
G04  23764554.550      -76294.804       -2874.108           0.244  
G05  22529267.779       75027.844        2696.426           0.255  
G06  20627754.484      -10022.735        -515.798           0.255  
G07  23532779.484      -23765.753       -1821.859           0.247  
> 2023 05 18 00 00 43.1688020  0  6                     
G02  24423372.280      145783.071        3967.910           0.239  
G03  22275697.598      -16764.044        -569.385           0.255  
G04  23764609.177      -76582.225       -2874.423           0.244  
G05  22529216.257       75297.465        2696.117           0.255  
G06  20627764.508      -10074.303        -515.591           0.255  
G07  23532814.134      -23947.960       -1822.698           0.247  
> 2023 05 18 00 00 43.2688020  0  6                     
G02  24423297.009      146176.228        3933.537           0.239  
G03  22275708.632      -16821.866        -578.235           0.255  
G04  23764664.113      -76869.647       -2874.419           0.244  
G05  22529164.616       75567.083        2696.238           0.255  
G06  20627774.377      -10125.873        -515.694           0.255  
G07  23532849.132      -24130.165       -1822.158           0.247  
> 2023 05 18 00 00 43.3688020  0  6                     
G02  24423222.692      146569.457        3931.813           0.239  
G03  22275719.719      -16879.736        -578.511           0.255  
G04  23764718.457      -77157.075       -2873.252           0.244  
G05  22529113.772       75836.785        2713.459           0.255  
G06  20627784.196      -10177.447        -515.676           0.255  
G07  23532883.329      -24312.382       -1822.979           0.247  
> 2023 05 18 00 00 43.4688020  0  6                     
G02  24423148.764      146962.698        3932.408           0.239  
G03  22275730.233      -16937.548        -578.326           0.255  
G04  23764772.554      -77444.503       -2874.112           0.244  
G05  22529062.388       76106.309        2695.836           0.255  
G06  20627794.007      -10229.029        -515.785           0.255  
G07  23532918.207      -24494.589       -1818.994           0.247  
> 2023 05 18 00 00 43.5688020  0  6                     
G02  24423072.997      147355.940        3932.290           0.239  
G03  22275741.768      -16995.398        -578.720           0.255  
G04  23764827.926      -77731.932       -2874.604           0.244  
G05  22529010.721       76375.922        2696.498           0.255  
G06  20627803.746      -10280.617        -515.828           0.255  
G07  23532952.797      -24676.812       -1821.785           0.247  
> 2023 05 18 00 00 43.6688020  0  6                     
G02  24422997.849      147749.330        3980.363           0.239  
G03  22275752.335      -17053.172        -571.771           0.255  
G04  23764883.412      -78019.473       -2882.369           0.244  
G05  22528959.764       76645.383        2681.448           0.255  
G06  20627813.642      -10332.203        -515.753           0.255  
G07  23532987.417      -24859.192       -1827.006           0.247  
> 2023 05 18 00 00 43.7688020  0  6                     
G02  24422923.023      148142.415        3932.632           0.239  
G03  22275763.448      -17111.115        -578.813           0.255  
G04  23764937.354      -78307.205       -2962.410           0.244  
G05  22528908.375       76915.130        2696.265           0.255  
G06  20627823.473      -10383.798        -515.960           0.255  
G07  23533022.383      -25041.259       -1821.572           0.247  
> 2023 05 18 00 00 43.8688020  0  6                     
G02  24422848.453      148535.650        3931.187           0.239  
G03  22275774.781      -17168.986        -578.907           0.255  
G04  23764992.434      -78594.222       -2874.980           0.244  
G05  22528857.031       77184.735        2696.777           0.255  
G06  20627833.234      -10435.395        -515.657           0.255  
G07  23533056.931      -25223.974       -1864.569           0.247  
> 2023 05 18 00 00 43.9688020  0  6                     
G02  24422773.786      148928.890        3931.975           0.239  
G03  22275785.703      -17226.863        -586.883           0.255  
G04  23765046.822      -78881.646       -2875.280           0.244  
G05  22528805.886       77454.260        2691.260           0.255  
G06  20627843.027      -10487.003        -515.943           0.255  
G07  23533091.366      -25405.732       -1822.229           0.247  
> 2023 05 18 00 00 44.0688020  0  6                     
G02  24422698.612      149322.129        3932.481           0.239  
G03  22275796.175      -17284.737        -578.677           0.255  
G04  23765101.536      -79169.087       -2874.966           0.244  
G05  22528755.336       77723.921        2696.080           0.255  
G06  20627853.036      -10538.608        -516.107           0.255  
G07  23533125.899      -25587.959       -1821.835           0.247  
> 2023 05 18 00 00 44.1688020  0  6                     
G02  24422623.877      149715.369        3932.131           0.239  
G03  22275807.637      -17342.626        -578.879           0.255  
G04  23765156.311      -79456.514       -2873.995           0.244  
G05  22528704.283       77993.515        2695.951           0.255  
G06  20627862.222      -10590.219        -516.170           0.255  
G07  23533160.733      -25770.219       -1822.850           0.247  
> 2023 05 18 00 00 44.2688020  0  6                     
G02  24422549.440      150108.605        3932.166           0.239  
G03  22275818.650      -17400.514        -578.499           0.255  
G04  23765210.799      -79743.961       -2874.292           0.244  
G05  22528652.564       78263.016        2675.116           0.255  
G06  20627872.201      -10641.836        -516.093           0.255  
G07  23533195.808      -25952.185       -1784.771           0.247  
> 2023 05 18 00 00 44.3688020  0  6                     
G02  24422474.770      150501.843        3932.426           0.239  
G03  22275829.810      -17458.413        -578.668           0.255  
G04  23765265.988      -80031.401       -2873.476           0.244  
G05  22528601.244       78532.669        2695.445           0.255  
G06  20627882.030      -10693.461        -516.170           0.255  
G07  23533230.278      -26134.708       -1823.813           0.247  
> 2023 05 18 00 00 44.4688020  0  6                     
G02  24422398.869      150895.081        3932.062           0.239  
G03  22275840.917      -17516.318        -578.945           0.255  
G04  23765319.742      -80318.845       -2875.121           0.244  
G05  22528549.515       78802.250        2695.765           0.255  
G06  20627891.842      -10745.083        -516.127           0.255  
G07  23533265.228      -26316.958       -1822.722           0.247  
> 2023 05 18 00 00 44.5688020  0  6                     
G02  24422324.568      151288.316        3931.359           0.239  
G03  22275852.049      -17574.230        -579.281           0.255  
G04  23765374.884      -80606.276       -2874.148           0.244  
G05  22528498.130       79071.832        2695.769           0.255  
G06  20627901.778      -10796.715        -516.347           0.255  
G07  23533299.634      -26499.231       -1822.773           0.247  
> 2023 05 18 00 00 44.6688020  0  6                     
G02  24422249.924      151681.556        3931.911           0.239  
G03  22275863.013      -17632.115        -577.698           0.255  
G04  23765429.361      -80893.733       -2873.602           0.244  
G05  22528446.582       79341.408        2695.775           0.255  
G06  20627911.942      -10848.351        -516.232           0.255  
G07  23533334.272      -26681.362       -1780.408           0.247  
> 2023 05 18 00 00 44.7688020  0  6                     
G02  24422175.548      152074.797        3932.562           0.239  
G03  22275873.685      -17690.125        -590.556           0.255  
G04  23765483.350      -81181.169       -2875.153           0.244  
G05  22528395.069       79610.979        2695.690           0.255  
G06  20627921.660      -10899.996        -516.703           0.255  
G07  23533369.412      -26863.543       -1784.291           0.247  
> 2023 05 18 00 00 44.8688020  0  6                     
G02  24422100.324      152468.044        3933.683           0.239  
G03  22275884.955      -17747.999        -579.236           0.255  
G04  23765538.905      -81468.607       -2872.923           0.244  
G05  22528344.401       79880.548        2695.838           0.255  
G06  20627931.478      -10951.635        -516.473           0.255  
G07  23533403.742      -27046.028       -1823.519           0.247  
> 2023 05 18 00 00 44.9688020  0  6                     
G02  24422025.422      152861.279        3933.286           0.239  
G03  22275896.074      -17805.934        -579.353           0.255  
G04  23765592.354      -81756.056       -2874.029           0.244  
G05  22528292.845       80150.241        2710.287           0.255  
G06  20627941.224      -11003.284        -516.498           0.255  
G07  23533438.632      -27228.403       -1828.581           0.247  
> 2023 05 18 00 00 45.0688020  0  6                     
G02  24421951.053      153254.509        3931.621           0.239  
G03  22275906.762      -17863.875        -579.539           0.255  
G04  23765648.505      -82043.504       -2874.975           0.244  
G05  22528241.570       80419.669        2695.651           0.255  
G06  20627950.949      -11054.938        -516.386           0.255  
G07  23533472.288      -27410.579       -1823.064           0.247  
> 2023 05 18 00 00 45.1688020  0  6                     
G02  24421876.196      153647.748        3932.355           0.239  
G03  22275917.585      -17921.823        -579.422           0.255  
G04  23765703.261      -82330.957       -2875.746           0.244  
G05  22528189.934       80689.229        2695.645           0.255  
G06  20627960.798      -11106.598        -516.414           0.255  
G07  23533507.878      -27592.855       -1821.933           0.247  
> 2023 05 18 00 00 45.2688020  0  6                     
G02  24421801.334      154040.991        3932.526           0.239  
G03  22275929.159      -17979.843        -582.197           0.255  
G04  23765756.683      -82618.396       -2873.935           0.244  
G05  22528139.123       80958.792        2688.792           0.255  
G06  20627970.635      -11158.257        -516.272           0.255  
G07  23533542.578      -27775.206       -1836.047           0.247  
> 2023 05 18 00 00 45.3688020  0  6                     
G02  24421725.991      154434.228        3932.684           0.239  
G03  22275940.090      -18037.733        -579.365           0.255  
G04  23765811.407      -82905.853       -2873.766           0.244  
G05  22528087.816       81228.339        2694.925           0.255  
G06  20627980.536      -11209.926        -516.719           0.255  
G07  23533576.795      -27957.437       -1823.839           0.247  
> 2023 05 18 00 00 45.4688020  0  6                     
G02  24421651.032      154827.550        3929.075           0.239  
G03  22275951.118      -18095.768        -584.937           0.255  
G04  23765866.358      -83193.303       -2875.223           0.244  
G05  22528036.377       81497.821        2689.031           0.255  
G06  20627990.406      -11261.601        -516.876           0.255  
G07  23533611.936      -28139.747       -1812.842           0.247  
> 2023 05 18 00 00 45.5688020  0  6                     
G02  24421576.814      155220.704        3932.281           0.239  
G03  22275961.973      -18153.666        -579.261           0.255  
G04  23765921.288      -83480.755       -2874.209           0.244  
G05  22527984.878       81767.429        2695.780           0.255  
G06  20628000.275      -11313.281        -516.969           0.255  
G07  23533646.942      -28322.019       -1822.621           0.247  
> 2023 05 18 00 00 45.6688020  0  6                     
G02  24421501.359      155613.947        3932.649           0.239  
G03  22275973.339      -18211.684        -574.048           0.255  
G04  23765975.006      -83768.219       -2874.736           0.244  
G05  22527934.183       82036.967        2695.361           0.255  
G06  20628010.038      -11364.964        -516.949           0.255  
G07  23533681.617      -28504.348       -1825.142           0.247  
> 2023 05 18 00 00 45.7688020  0  6                     
G02  24421427.325      156007.184        3932.939           0.239  
G03  22275984.334      -18269.605        -577.622           0.255  
G04  23766030.774      -84055.679       -2874.908           0.244  
G05  22527882.459       82306.514        2695.539           0.255  
G06  20628020.089      -11416.647        -516.830           0.255  
G07  23533715.841      -28686.675       -1837.079           0.247  
> 2023 05 18 00 00 45.8688020  0  6                     
G02  24421351.541      156400.414        3931.845           0.239  
G03  22275995.348      -18327.620        -579.725           0.255  
G04  23766085.627      -84343.133       -2874.010           0.244  
G05  22527831.357       82576.254        2715.614           0.255  
G06  20628029.700      -11468.340        -516.883           0.255  
G07  23533750.526      -28868.934       -1823.418           0.247  
> 2023 05 18 00 00 45.9688020  0  6                     
G02  24421277.254      156793.660        3933.228           0.239  
G03  22276006.192      -18385.618        -579.776           0.255  
G04  23766140.120      -84630.595       -2875.501           0.244  
G05  22527779.968       82845.589        2695.173           0.255  
G06  20628039.511      -11520.036        -516.927           0.255  
G07  23533785.826      -29051.242       -1822.710           0.247  
> 2023 05 18 00 00 46.0688020  0  6                     
G02  24421203.530      157186.904        3933.637           0.239  
G03  22276017.436      -18443.622        -580.002           0.255  
G04  23766195.127      -84918.054       -2874.376           0.244  
G05  22527728.454       83115.121        2695.131           0.255  
G06  20628049.361      -11571.739        -516.914           0.255  
G07  23533820.129      -29233.565       -1823.373           0.247  
> 2023 05 18 00 00 46.1688020  0  6                     
G02  24421127.603      157580.140        3932.726           0.239  
G03  22276028.209      -18501.632        -580.181           0.255  
G04  23766249.837      -85205.510       -2874.149           0.244  
G05  22527677.173       83384.651        2694.923           0.255  
G06  20628059.438      -11623.441        -516.879           0.255  
G07  23533854.481      -29415.884       -1823.484           0.247  
> 2023 05 18 00 00 46.2688020  0  6                     
G02  24421052.594      157973.372        3932.182           0.239  
G03  22276039.328      -18559.644        -579.833           0.255  
G04  23766304.228      -85492.976       -2874.125           0.244  
G05  22527626.163       83654.180        2695.710           0.255  
G06  20628068.994      -11675.152        -517.230           0.255  
G07  23533889.305      -29598.199       -1822.802           0.247  
> 2023 05 18 00 00 46.3688020  0  6                     
G02  24420977.060      158366.583        3931.504           0.239  
G03  22276050.226      -18617.603        -570.752           0.255  
G04  23766358.859      -85780.442       -2874.734           0.244  
G05  22527575.180       83923.706        2695.545           0.255  
G06  20628078.723      -11726.868        -517.272           0.255  
G07  23533924.003      -29780.445       -1794.519           0.247  
> 2023 05 18 00 00 46.4688020  0  6                     
G02  24420902.764      158759.830        3932.579           0.239  
G03  22276061.133      -18675.691        -580.182           0.255  
G04  23766414.075      -86067.902       -2874.690           0.244  
G05  22527523.199       84193.219        2695.202           0.255  
G06  20628088.912      -11778.590        -517.304           0.255  
G07  23533958.484      -29962.861       -1823.226           0.247  
> 2023 05 18 00 00 46.5688020  0  6                     
G02  24420827.980      159153.071        3933.541           0.239  
G03  22276072.459      -18733.723        -580.041           0.255  
G04  23766468.824      -86355.371       -2875.537           0.244  
G05  22527471.991       84462.742        2695.375           0.255  
G06  20628098.624      -11830.311        -517.185           0.255  
G07  23533993.176      -30145.197       -1822.844           0.247  
> 2023 05 18 00 00 46.6688020  0  6                     
G02  24420753.595      159546.313        3932.751           0.240  
G03  22276083.484      -18791.763        -580.412           0.255  
G04  23766523.492      -86642.839       -2875.278           0.244  
G05  22527421.016       84732.256        2695.419           0.255  
G06  20628108.381      -11882.038        -517.428           0.255  
G07  23534028.463      -30327.532       -1823.138           0.247  
> 2023 05 18 00 00 46.7688020  0  6                     
G02  24420678.643      159939.542        3932.326           0.239  
G03  22276094.453      -18849.808        -580.547           0.255  
G04  23766578.242      -86930.317       -2875.460           0.244  
G05  22527369.440       85001.765        2694.877           0.255  
G06  20628118.270      -11933.771        -517.273           0.255  
G07  23534063.503      -30509.872       -1823.140           0.247  
> 2023 05 18 00 00 46.8688020  0  6                     
G02  24420603.901      160332.783        3933.051           0.239  
G03  22276105.493      -18907.859        -580.672           0.255  
G04  23766633.109      -87217.772       -2873.443           0.244  
G05  22527318.228       85271.272        2694.678           0.255  
G06  20628128.106      -11985.514        -517.512           0.255  
G07  23534097.847      -30692.222       -1823.337           0.247  
> 2023 05 18 00 00 46.9688020  0  6                     
G02  24420528.968      160726.025        3933.581           0.239  
G03  22276116.778      -18965.915        -580.425           0.255  
G04  23766687.933      -87505.257       -2874.354           0.244  
G05  22527266.988       85540.783        2694.618           0.255  
G06  20628137.942      -12037.251        -517.386           0.255  
G07  23534131.905      -30874.573       -1823.460           0.247  
> 2023 05 18 00 00 47.0688020  0  6                     
G02  24420454.107      161119.476        3959.391           0.239  
G03  22276127.501      -19023.979        -580.610           0.255  
G04  23766742.570      -87792.727       -2874.312           0.244  
G05  22527216.010       85810.280        2694.850           0.255  
G06  20628147.754      -12088.997        -517.369           0.255  
G07  23534166.948      -31056.931       -1823.718           0.247  
> 2023 05 18 00 00 47.1688020  0  6                     
G02  24420379.973      161512.496        3931.066           0.239  
G03  22276138.685      -19082.049        -580.684           0.255  
G04  23766796.161      -88080.201       -2873.951           0.244  
G05  22527164.410       86079.786        2695.543           0.255  
G06  20628157.839      -12140.751        -517.538           0.255  
G07  23534201.905      -31239.284       -1823.551           0.247  
> 2023 05 18 00 00 47.2688020  0  6                     
G02  24420305.128      161905.741        3932.798           0.239  
G03  22276149.755      -19140.124        -580.899           0.255  
G04  23766852.243      -88367.679       -2874.925           0.244  
G05  22527113.165       86349.431        2706.255           0.255  
G06  20628167.530      -12192.507        -517.364           0.255  
G07  23534236.899      -31421.647       -1824.192           0.247  
> 2023 05 18 00 00 47.3688020  0  6                     
G02  24420230.080      162298.953        3932.622           0.239  
G03  22276160.830      -19198.152        -575.392           0.255  
G04  23766906.578      -88655.155       -2875.001           0.244  
G05  22527062.093       86618.774        2694.829           0.255  
G06  20628177.353      -12244.266        -517.448           0.255  
G07  23534270.968      -31604.014       -1824.209           0.247  
> 2023 05 18 00 00 47.4688020  0  6                     
G02  24420155.946      162692.192        3932.919           0.239  
G03  22276171.726      -19256.298        -580.087           0.255  
G04  23766962.044      -88942.637       -2874.311           0.244  
G05  22527010.744       86888.258        2694.692           0.255  
G06  20628187.264      -12296.029        -517.510           0.255  
G07  23534305.755      -31786.380       -1823.503           0.247  
> 2023 05 18 00 00 47.5688020  0  6                     
G02  24420080.178      163085.429        3931.634           0.239  
G03  22276182.763      -19314.387        -580.873           0.255  
G04  23767017.244      -89230.116       -2874.081           0.244  
G05  22526959.316       87157.752        2695.013           0.255  
G06  20628197.018      -12347.801        -517.694           0.255  
G07  23534340.593      -31968.750       -1823.236           0.247  
> 2023 05 18 00 00 47.6688020  0  6                     
G02  24420005.159      163478.665        3932.599           0.239  
G03  22276193.951      -19372.488        -581.023           0.255  
G04  23767070.417      -89517.600       -2874.872           0.244  
G05  22526908.067       87427.234        2695.243           0.255  
G06  20628206.966      -12399.576        -517.615           0.255  
G07  23534375.496      -32151.131       -1823.452           0.247  
> 2023 05 18 00 00 47.7688020  0  6                     
G02  24419930.025      163871.891        3932.936           0.239  
G03  22276204.954      -19430.595        -581.104           0.255  
G04  23767124.336      -89805.080       -2874.851           0.244  
G05  22526856.865       87696.712        2694.659           0.255  
G06  20628216.654      -12451.360        -517.793           0.255  
G07  23534410.117      -32333.509       -1823.544           0.247  
> 2023 05 18 00 00 47.8688020  0  6                     
G02  24419855.645      164265.122        3931.918           0.239  
G03  22276216.208      -19488.704        -581.131           0.255  
G04  23767179.133      -90092.561       -2874.600           0.244  
G05  22526805.514       87966.190        2694.712           0.255  
G06  20628226.652      -12503.141        -517.691           0.255  
G07  23534444.839      -32515.899       -1824.254           0.247  
> 2023 05 18 00 00 47.9688020  0  6                     
G02  24419780.773      164658.363        3932.772           0.239  
G03  22276227.265      -19546.825        -581.243           0.255  
G04  23767234.333      -90380.049       -2875.444           0.244  
G05  22526754.321       88235.670        2694.958           0.255  
G06  20628236.419      -12554.930        -517.852           0.255  
G07  23534479.517      -32698.280       -1823.986           0.247  
> 2023 05 18 00 00 48.0688020  0  6                     
G02  24419705.333      165051.599        3932.134           0.239  
G03  22276238.025      -19604.947        -581.066           0.255  
G04  23767288.793      -90667.536       -2874.754           0.244  
G05  22526703.003       88505.138        2694.762           0.255  
G06  20628246.604      -12606.726        -518.007           0.255  
G07  23534513.876      -32880.674       -1824.199           0.247  
> 2023 05 18 00 00 48.1688020  0  6                     
G02  24419631.758      165444.839        3932.186           0.239  
G03  22276249.297      -19663.079        -581.280           0.255  
G04  23767344.857      -90955.026       -2874.761           0.244  
G05  22526651.922       88774.612        2695.103           0.255  
G06  20628256.261      -12658.527        -518.020           0.255  
G07  23534548.580      -33063.067       -1823.741           0.247  
> 2023 05 18 00 00 48.2688020  0  6                     
G02  24419556.123      165838.083        3931.660           0.239  
G03  22276260.798      -19721.215        -581.207           0.255  
G04  23767398.518      -91242.519       -2875.373           0.244  
G05  22526600.261       89043.931        2668.108           0.255  
G06  20628266.076      -12710.325        -517.826           0.255  
G07  23534583.720      -33245.468       -1823.867           0.247  
> 2023 05 18 00 00 48.3688020  0  6                     
G02  24419481.325      166231.322        3931.935           0.239  
G03  22276271.579      -19779.357        -581.467           0.255  
G04  23767453.545      -91530.005       -2874.886           0.244  
G05  22526548.911       89313.537        2694.733           0.255  
G06  20628275.912      -12762.135        -517.818           0.255  
G07  23534618.310      -33427.872       -1823.920           0.247  
> 2023 05 18 00 00 48.4688020  0  6                     
G02  24419406.692      166624.554        3931.158           0.239  
G03  22276282.480      -19837.505        -581.337           0.255  
G04  23767508.234      -91817.500       -2874.977           0.244  
G05  22526497.711       89582.993        2694.425           0.255  
G06  20628285.879      -12813.948        -517.995           0.255  
G07  23534652.745      -33610.280       -1823.851           0.247  
> 2023 05 18 00 00 48.5688020  0  6                     
G02  24419331.984      167017.794        3932.260           0.239  
G03  22276293.454      -19895.660        -581.547           0.255  
G04  23767562.656      -92104.993       -2874.866           0.244  
G05  22526446.605       89852.454        2694.497           0.255  
G06  20628295.770      -12865.767        -518.139           0.255  
G07  23534687.411      -33792.690       -1824.050           0.247  
> 2023 05 18 00 00 48.6688020  0  6                     
G02  24419257.508      167410.954        3931.439           0.239  
G03  22276304.282      -19953.863        -582.076           0.255  
G04  23767617.136      -92392.631       -2867.648           0.244  
G05  22526395.371       90121.686        2661.845           0.255  
G06  20628305.395      -12917.585        -517.968           0.255  
G07  23534722.422      -33975.134       -1827.631           0.247  
> 2023 05 18 00 00 48.7688020  0  6                     
G02  24419182.404      167804.434        3962.639           0.239  
G03  22276315.719      -20012.041        -590.191           0.255  
G04  23767672.414      -92679.996       -2874.824           0.244  
G05  22526344.116       90391.433        2698.129           0.255  
G06  20628315.078      -12969.412        -518.163           0.255  
G07  23534756.894      -34157.520       -1823.797           0.247  
> 2023 05 18 00 00 48.8688020  0  6                     
G02  24419107.491      168197.510        3932.248           0.239  
G03  22276326.740      -20070.163        -581.750           0.255  
G04  23767727.157      -92967.492       -2875.284           0.244  
G05  22526292.359       90660.719        2689.313           0.255  
G06  20628325.200      -13021.244        -518.234           0.255  
G07  23534791.757      -34339.949       -1824.212           0.247  
> 2023 05 18 00 00 48.9688020  0  6                     
G02  24419031.613      168590.748        3932.638           0.239  
G03  22276337.613      -20128.340        -581.729           0.255  
G04  23767781.973      -93254.990       -2874.800           0.244  
G05  22526241.061       90930.237        2694.375           0.255  
G06  20628335.298      -13073.082        -518.568           0.255  
G07  23534826.684      -34522.576       -1848.587           0.247  
> 2023 05 18 00 00 49.0688020  0  6                     
G02  24418956.895      168983.995        3932.497           0.239  
G03  22276349.077      -20186.575        -588.856           0.255  
G04  23767836.248      -93542.489       -2874.384           0.244  
G05  22526190.195       91199.846        2714.246           0.255  
G06  20628345.081      -13124.918        -518.404           0.255  
G07  23534861.474      -34704.807       -1824.766           0.247  
> 2023 05 18 00 00 49.1688020  0  6                     
G02  24418882.264      169377.228        3932.025           0.239  
G03  22276360.346      -20244.716        -581.768           0.255  
G04  23767890.728      -93829.989       -2874.750           0.244  
G05  22526138.847       91469.120        2694.467           0.255  
G06  20628354.590      -13176.762        -518.479           0.255  
G07  23534895.979      -34887.238       -1824.610           0.247  
> 2023 05 18 00 00 49.2688020  0  6                     
G02  24418807.417      169770.472        3932.910           0.239  
G03  22276371.453      -20302.917        -582.395           0.255  
G04  23767945.228      -94117.491       -2875.061           0.244  
G05  22526087.834       91738.554        2695.171           0.255  
G06  20628364.732      -13228.612        -518.621           0.255  
G07  23534930.452      -35069.679       -1825.071           0.247  
> 2023 05 18 00 00 49.3688020  0  6                     
G02  24418732.906      170163.701        3931.927           0.239  
G03  22276382.008      -20361.121        -582.227           0.255  
G04  23768000.107      -94404.993       -2874.948           0.244  
G05  22526036.331       92007.985        2694.779           0.255  
G06  20628374.618      -13280.467        -518.543           0.255  
G07  23534965.480      -35252.115       -1824.422           0.247  
> 2023 05 18 00 00 49.4688020  0  6                     
G02  24418658.675      170556.922        3932.712           0.239  
G03  22276393.018      -20419.328        -582.076           0.255  
G04  23768055.046      -94692.409       -2857.945           0.244  
G05  22525984.857       92277.414        2694.329           0.255  
G06  20628384.568      -13332.322        -518.401           0.255  
G07  23534999.986      -35434.621       -1825.775           0.247  
> 2023 05 18 00 00 49.5688020  0  6                     
G02  24418583.177      170950.161        3932.495           0.239  
G03  22276403.570      -20477.543        -582.209           0.255  
G04  23768110.015      -94980.009       -2875.028           0.244  
G05  22525933.536       92546.841        2694.817           0.255  
G06  20628394.602      -13384.186        -518.559           0.255  
G07  23535035.166      -35617.009       -1824.304           0.247  
> 2023 05 18 00 00 49.6688020  0  6                     
G02  24418508.351      171343.395        3931.987           0.239  
G03  22276415.684      -20535.767        -582.402           0.255  
G04  23768164.335      -95267.514       -2875.328           0.244  
G05  22525882.331       92816.259        2694.001           0.255  
G06  20628404.386      -13436.054        -518.792           0.255  
G07  23535069.427      -35799.455       -1825.236           0.247  
> 2023 05 18 00 00 49.7688020  0  6                     
G02  24418433.296      171736.634        3932.218           0.239  
G03  22276426.372      -20593.945        -566.085           0.255  
G04  23768219.002      -95555.028       -2875.440           0.244  
G05  22525831.508       93085.684        2694.061           0.255  
G06  20628413.910      -13487.928        -518.805           0.255  
G07  23535104.027      -35981.867       -1812.326           0.247  
> 2023 05 18 00 00 49.8688020  0  6                     
G02  24418358.417      172129.875        3932.803           0.239  
G03  22276437.511      -20652.268        -584.961           0.255  
G04  23768273.984      -95842.555       -2875.696           0.244  
G05  22525780.285       93355.074        2690.183           0.255  
G06  20628424.053      -13539.801        -518.874           0.255  
G07  23535138.819      -36164.342       -1817.519           0.247  
> 2023 05 18 00 00 49.9688020  0  6                     
G02  24418283.978      172523.112        3933.170           0.239  
G03  22276448.659      -20710.469        -582.417           0.255  
G04  23768328.655      -96130.062       -2875.004           0.244  
G05  22525729.008       93624.513        2694.300           0.255  
G06  20628433.785      -13591.682        -518.943           0.255  
G07  23535173.345      -36346.842       -1824.305           0.247  
> 2023 05 18 00 00 50.0688020  0  6                     
G02  24418207.391      172916.351        3932.674           0.239  
G03  22276460.014      -20768.715        -582.437           0.255  
G04  23768383.701      -96417.575       -2875.275           0.244  
G05  22525677.353       93893.924        2694.391           0.255  
G06  20628443.756      -13643.569        -519.028           0.255  
G07  23535208.192      -36529.315       -1824.473           0.247  
> 2023 05 18 00 00 50.1688020  0  6                     
G02  24418133.692      173309.586        3932.141           0.239  
G03  22276470.990      -20826.968        -582.580           0.255  
G04  23768437.850      -96705.084       -2875.055           0.244  
G05  22525626.044       94163.332        2693.584           0.255  
G06  20628453.647      -13695.463        -518.914           0.255  
G07  23535243.209      -36711.785       -1824.828           0.247  
> 2023 05 18 00 00 50.2688020  0  6                     
G02  24418058.811      173702.826        3932.619           0.239  
G03  22276482.106      -20885.197        -571.192           0.255  
G04  23768492.895      -96992.609       -2875.653           0.244  
G05  22525574.863       94432.735        2693.683           0.255  
G06  20628463.327      -13747.360        -518.859           0.255  
G07  23535277.768      -36894.261       -1824.450           0.247  
> 2023 05 18 00 00 50.3688020  0  6                     
G02  24417984.230      174096.069        3932.290           0.239  
G03  22276493.128      -20943.526        -593.475           0.255  
G04  23768547.771      -97280.123       -2875.144           0.244  
G05  22525523.298       94702.142        2694.384           0.255  
G06  20628473.278      -13799.259        -518.914           0.255  
G07  23535312.848      -37076.740       -1824.834           0.247  
> 2023 05 18 00 00 50.4688020  0  6                     
G02  24417909.887      174489.305        3932.285           0.239  
G03  22276503.505      -21001.772        -584.307           0.255  
G04  23768602.311      -97567.638       -2874.886           0.244  
G05  22525472.887       94971.538        2694.363           0.255  
G06  20628483.272      -13851.165        -519.061           0.255  
G07  23535347.241      -37259.221       -1825.091           0.247  
> 2023 05 18 00 00 50.5688020  0  6                     
G02  24417835.101      174882.540        3931.867           0.239  
G03  22276514.870      -21060.038        -582.712           0.255  
G04  23768656.715      -97855.156       -2874.842           0.244  
G05  22525421.372       95240.965        2691.134           0.255  
G06  20628493.118      -13903.074        -518.896           0.255  
G07  23535382.070      -37441.712       -1825.087           0.247  
> 2023 05 18 00 00 50.6688020  0  6                     
G02  24417759.608      175275.778        3932.072           0.239  
G03  22276526.101      -21118.322        -582.933           0.255  
G04  23768712.068      -98142.678       -2875.744           0.244  
G05  22525369.879       95510.325        2693.707           0.255  
G06  20628503.059      -13954.994        -519.267           0.255  
G07  23535416.628      -37624.197       -1824.738           0.247  
> 2023 05 18 00 00 50.7688020  0  6                     
G02  24417685.136      175669.022        3932.869           0.239  
G03  22276537.280      -21176.609        -582.712           0.255  
G04  23768766.654      -98430.202       -2875.121           0.244  
G05  22525318.585       95779.716        2693.350           0.255  
G06  20628512.859      -14006.910        -519.115           0.255  
G07  23535451.323      -37806.695       -1825.095           0.247  
> 2023 05 18 00 00 50.8688020  0  6                     
G02  24417610.313      176062.237        3932.288           0.240  
G03  22276548.439      -21234.908        -583.209           0.255  
G04  23768821.362      -98717.725       -2875.741           0.244  
G05  22525267.349       96049.099        2693.132           0.255  
G06  20628522.825      -14058.832        -519.220           0.255  
G07  23535486.547      -37989.200       -1825.269           0.247  
> 2023 05 18 00 00 50.9688020  0  6                     
G02  24417535.953      176455.470        3931.445           0.239  
G03  22276559.734      -21293.208        -583.085           0.255  
G04  23768876.017      -99005.248       -2875.318           0.244  
G05  22525216.353       96318.486        2693.483           0.255  
G06  20628532.552      -14110.761        -519.190           0.255  
G07  23535520.888      -38171.699       -1825.193           0.247  
> 2023 05 18 00 00 51.0688020  0  6                     
G02  24417460.791      176848.716        3932.672           0.239  
G03  22276570.747      -21351.516        -583.074           0.255  
G04  23768930.165      -99292.773       -2875.373           0.244  
G05  22525165.059       96587.866        2693.913           0.255  
G06  20628542.688      -14162.696        -519.292           0.255  
G07  23535555.335      -38354.207       -1825.149           0.247  
> 2023 05 18 00 00 51.1688020  0  6                     
G02  24417386.066      177241.953        3932.266           0.239  
G03  22276581.586      -21409.825        -583.105           0.255  
G04  23768985.272      -99580.301       -2874.721           0.244  
G05  22525113.700       96857.240        2693.283           0.255  
G06  20628552.482      -14214.631        -519.152           0.255  
G07  23535590.292      -38536.714       -1825.172           0.247  
> 2023 05 18 00 00 51.2688020  0  6                     
G02  24417311.291      177635.177        3933.073           0.239  
G03  22276592.738      -21468.149        -583.259           0.255  
G04  23769040.104      -99867.830       -2874.909           0.244  
G05  22525062.309       97126.602        2693.439           0.255  
G06  20628562.502      -14266.573        -519.315           0.255  
G07  23535625.114      -38719.228       -1825.517           0.247  
> 2023 05 18 00 00 51.3688020  0  6                     
G02  24417236.284      178028.411        3932.335           0.239  
G03  22276603.845      -21526.472        -583.219           0.255  
G04  23769094.696     -100155.366       -2875.316           0.244  
G05  22525011.426       97396.094        2702.152           0.255  
G06  20628572.161      -14318.521        -519.512           0.255  
G07  23535659.840      -38901.747       -1825.725           0.247  
> 2023 05 18 00 00 51.4688020  0  6                     
G02  24417161.422      178421.646        3932.303           0.239  
G03  22276615.020      -21584.806        -583.515           0.255  
G04  23769149.152     -100442.894       -2875.571           0.244  
G05  22524959.959       97665.342        2693.529           0.255  
G06  20628582.001      -14370.475        -519.567           0.255  
G07  23535694.587      -39084.265       -1825.111           0.247  
> 2023 05 18 00 00 51.5688020  0  6                     
G02  24417087.298      178814.888        3933.085           0.239  
G03  22276626.403      -21643.143        -583.334           0.255  
G04  23769203.766     -100730.422       -2875.465           0.244  
G05  22524908.587       97934.712        2693.496           0.255  
G06  20628591.794      -14422.428        -519.448           0.255  
G07  23535729.463      -39266.793       -1825.352           0.247  
> 2023 05 18 00 00 51.6688020  0  6                     
G02  24417012.392      179208.131        3933.272           0.239  
G03  22276636.988      -21701.486        -583.445           0.255  
G04  23769258.359     -101017.962       -2875.593           0.244  
G05  22524857.624       98204.074        2693.514           0.255  
G06  20628601.818      -14474.388        -519.686           0.255  
G07  23535763.503      -39449.320       -1824.970           0.247  
> 2023 05 18 00 00 51.7688020  0  6                     
G02  24416937.500      179601.564        3965.416           0.239  
G03  22276648.146      -21759.905        -592.254           0.255  
G04  23769313.260     -101305.386       -2855.082           0.244  
G05  22524806.148       98473.681        2723.327           0.255  
G06  20628611.718      -14526.354        -519.813           0.255  
G07  23535798.628      -39631.976       -1846.814           0.247  
> 2023 05 18 00 00 51.8688020  0  6                     
G02  24416862.339      179994.599        3932.084           0.239  
G03  22276659.279      -21818.193        -583.423           0.255  
G04  23769368.155     -101593.031       -2875.483           0.244  
G05  22524754.715       98742.787        2694.026           0.255  
G06  20628621.567      -14578.324        -519.747           0.255  
G07  23535833.587      -39814.393       -1825.486           0.247  
> 2023 05 18 00 00 51.9688020  0  6                     
G02  24416787.181      180387.842        3932.305           0.239  
G03  22276670.489      -21876.554        -583.663           0.255  
G04  23769423.188     -101880.568       -2875.219           0.244  
G05  22524703.445       99012.141        2693.792           0.255  
G06  20628631.443      -14630.298        -519.863           0.255  
G07  23535868.315      -39996.931       -1825.316           0.247  
> 2023 05 18 00 00 52.0688020  0  6                     
G02  24416712.326      180781.078        3932.576           0.239  
G03  22276681.731      -21934.925        -583.763           0.255  
G04  23769477.859     -102168.116       -2875.251           0.244  
G05  22524652.446       99281.485        2693.832           0.255  
G06  20628641.316      -14682.273        -519.706           0.255  
G07  23535902.868      -40179.585       -1847.222           0.247  
> 2023 05 18 00 00 52.1688020  0  6                     
G02  24416637.683      181174.319        3932.546           0.239  
G03  22276692.804      -21993.293        -577.519           0.255  
G04  23769532.717     -102455.659       -2875.205           0.244  
G05  22524601.033       99550.775        2680.261           0.255  
G06  20628651.149      -14734.258        -519.816           0.255  
G07  23535937.583      -40362.028       -1825.685           0.247  
> 2023 05 18 00 00 52.2688020  0  6                     
G02  24416562.515      181567.551        3932.052           0.239  
G03  22276704.016      -22051.675        -583.443           0.255  
G04  23769586.859     -102743.203       -2875.179           0.244  
G05  22524550.072       99819.998        2694.260           0.255  
G06  20628661.295      -14786.250        -519.878           0.255  
G07  23535972.502      -40544.569       -1826.274           0.247  
> 2023 05 18 00 00 52.3688020  0  6                     
G02  24416488.173      181960.791        3931.849           0.239  
G03  22276715.323      -22110.067        -584.457           0.255  
G04  23769641.549     -103030.745       -2875.609           0.244  
G05  22524498.534      100089.514        2693.901           0.255  
G06  20628671.035      -14838.238        -519.921           0.255  
G07  23536007.555      -40727.133       -1825.709           0.247  
> 2023 05 18 00 00 52.4688020  0  6                     
G02  24416413.693      182354.030        3932.423           0.239  
G03  22276726.586      -22168.458        -583.962           0.255  
G04  23769696.721     -103318.285       -2875.266           0.244  
G05  22524447.559      100358.851        2693.927           0.255  
G06  20628680.663      -14890.235        -519.978           0.255  
G07  23536041.641      -40909.694       -1825.710           0.247  
> 2023 05 18 00 00 52.5688020  0  6                     
G02  24416338.656      182747.283        3939.402           0.239  
G03  22276737.670      -22226.858        -584.145           0.255  
G04  23769751.464     -103605.744       -2880.678           0.244  
G05  22524396.486      100628.178        2693.665           0.255  
G06  20628690.521      -14942.239        -520.259           0.255  
G07  23536076.491      -41092.251       -1824.891           0.247  
> 2023 05 18 00 00 52.6688020  0  6                     
G02  24416264.301      183140.417        3907.254           0.240  
G03  22276749.044      -22285.264        -584.129           0.255  
G04  23769805.755     -103893.379       -2875.068           0.244  
G05  22524344.917      100897.511        2693.435           0.255  
G06  20628700.176      -14994.243        -519.872           0.255  
G07  23536111.240      -41274.827       -1825.447           0.247  
> 2023 05 18 00 00 52.7688020  0  6                     
G02  24416189.566      183533.728        3932.334           0.239  
G03  22276759.069      -22343.672        -584.337           0.255  
G04  23769860.165     -104180.933       -2875.724           0.244  
G05  22524293.661      101166.834        2693.369           0.255  
G06  20628710.784      -15046.263        -520.178           0.255  
G07  23536146.385      -41457.392       -1825.409           0.247  
> 2023 05 18 00 00 52.9688020  0  6                     
G02  24416040.653      184320.201        3932.350           0.239  
G03  22276781.841      -22460.553        -588.910           0.255  
G04  23769969.350     -104756.031       -2876.012           0.244  
G05  22524191.152      101705.472        2692.926           0.255  
G06  20628730.432      -15150.295        -520.206           0.255  
G07  23536215.267      -41822.508       -1808.644           0.247  
> 2023 05 18 00 00 53.0688020  0  6                     
G02  24415963.773      184713.441        3931.782           0.239  
G03  22276792.576      -22518.944        -584.382           0.255  
G04  23770025.024     -105043.590       -2876.471           0.244  
G05  22524139.562      101974.793        2693.377           0.255  
G06  20628740.642      -15202.322        -520.356           0.255  
G07  23536249.868      -42005.126       -1825.496           0.247  
> 2023 05 18 00 00 53.1688020  0  6                     
G02  24415889.460      185106.681        3932.597           0.239  
G03  22276803.769      -22577.379        -584.474           0.255  
G04  23770080.208     -105331.139       -2875.509           0.244  
G05  22524088.688      102244.105        2693.185           0.255  
G06  20628750.384      -15254.355        -520.306           0.255  
G07  23536284.559      -42187.713       -1825.421           0.247  
> 2023 05 18 00 00 53.2688020  0  6                     
G02  24415814.179      185499.920        3932.844           0.239  
G03  22276814.914      -22635.824        -584.590           0.255  
G04  23770134.340     -105618.697       -2876.139           0.244  
G05  22524037.560      102513.423        2694.044           0.255  
G06  20628760.217      -15306.388        -520.397           0.255  
G07  23536319.675      -42370.307       -1825.493           0.247  
> 2023 05 18 00 00 53.3688020  0  6                     
G02  24415739.994      185893.199        3902.529           0.239  
G03  22276825.767      -22694.278        -585.118           0.255  
G04  23770189.377     -105906.505       -2904.001           0.244  
G05  22523986.277      102782.660        2688.286           0.255  
G06  20628770.146      -15358.428        -520.453           0.255  
G07  23536354.213      -42552.950       -1823.681           0.247  
> 2023 05 18 00 00 53.4688020  0  6                     
G02  24415665.451      186286.394        3931.716           0.239  
G03  22276837.328      -22752.726        -584.932           0.255  
G04  23770244.019     -106193.798       -2875.102           0.244  
G05  22523934.856      103052.029        2693.309           0.255  
G06  20628779.927      -15410.472        -520.448           0.255  
G07  23536389.380      -42735.500       -1826.010           0.247  
> 2023 05 18 00 00 53.5688020  0  6                     
G02  24415590.543      186679.634        3932.183           0.239  
G03  22276848.198      -22811.183        -584.503           0.255  
G04  23770298.753     -106481.363       -2875.364           0.244  
G05  22523883.478      103321.433        2686.061           0.255  
G06  20628790.087      -15462.523        -520.546           0.255  
G07  23536423.526      -42918.099       -1826.108           0.247  
> 2023 05 18 00 00 53.6688020  0  6                     
G02  24415515.564      187072.879        3933.144           0.240  
G03  22276858.831      -22869.650        -584.397           0.255  
G04  23770353.634     -106768.916       -2875.225           0.244  
G05  22523832.137      103590.631        2692.650           0.255  
G06  20628799.853      -15514.574        -520.669           0.255  
G07  23536458.908      -43100.705       -1826.391           0.247  
> 2023 05 18 00 00 53.7688020  0  6                     
G02  24415440.260      187466.114        3932.483           0.239  
G03  22276870.554      -22928.108        -586.047           0.255  
G04  23770408.058     -107056.483       -2875.406           0.244  
G05  22523781.023      103859.919        2692.732           0.255  
G06  20628809.669      -15566.632        -520.611           0.255  
G07  23536493.659      -43283.319       -1826.375           0.247  
> 2023 05 18 00 00 53.8688020  0  6                     
G02  24415365.857      187859.345        3931.950           0.239  
G03  22276881.778      -22986.593        -578.485           0.255  
G04  23770462.442     -107344.043       -2875.409           0.244  
G05  22523729.737      104129.198        2693.095           0.255  
G06  20628819.451      -15618.695        -520.562           0.255  
G07  23536528.843      -43465.927       -1826.368           0.247  
> 2023 05 18 00 00 53.9688020  0  6                     
G02  24415291.305      188252.565        3932.202           0.239  
G03  22276893.215      -23045.080        -584.517           0.255  
G04  23770516.613     -107631.613       -2875.910           0.244  
G05  22523678.570      104398.486        2692.915           0.255  
G06  20628829.236      -15670.765        -520.556           0.255  
G07  23536563.694      -43648.546       -1826.551           0.247  
> 2023 05 18 00 00 54.0688020  0  6                     
G02  24415215.526      188645.804        3933.215           0.239  
G03  22276904.801      -23103.574        -584.967           0.255  
G04  23770571.707     -107919.183       -2876.476           0.244  
G05  22523627.293      104667.772        2692.584           0.255  
G06  20628839.130      -15722.833        -520.739           0.255  
G07  23536598.473      -43831.170       -1826.458           0.247  
> 2023 05 18 00 00 54.1688020  0  6                     
G02  24415140.354      189039.039        3933.288           0.239  
G03  22276914.735      -23162.398        -606.994           0.255  
G04  23770626.257     -108206.764       -2876.772           0.244  
G05  22523576.413      104937.104        2691.803           0.255  
G06  20628849.389      -15774.910        -520.740           0.255  
G07  23536633.273      -44013.811       -1821.914           0.247  
> 2023 05 18 00 00 54.2688020  0  6                     
G02  24415065.806      189432.347        3961.522           0.239  
G03  22276925.771      -23220.648        -597.100           0.255  
G04  23770681.604     -108494.806       -2967.608           0.244  
G05  22523524.841      105206.344        2693.186           0.255  
G06  20628859.571      -15826.992        -520.787           0.255  
G07  23536667.904      -44196.423       -1826.279           0.247  
> 2023 05 18 00 00 54.3688020  0  6                     
G02  24414991.248      189825.479        3931.581           0.239  
G03  22276937.035      -23279.081        -585.064           0.255  
G04  23770736.562     -108781.894       -2876.034           0.244  
G05  22523473.737      105475.689        2687.182           0.255  
G06  20628869.263      -15879.080        -520.774           0.255  
G07  23536702.210      -44379.267       -1863.635           0.247  
> 2023 05 18 00 00 54.4688020  0  6                     
G02  24414916.549      190218.714        3932.381           0.239  
G03  22276948.523      -23337.595        -585.009           0.255  
G04  23770791.126     -109069.465       -2875.958           0.244  
G05  22523422.536      105744.888        2692.684           0.255  
G06  20628879.093      -15931.167        -520.841           0.255  
G07  23536736.751      -44561.571       -1789.939           0.247  
> 2023 05 18 00 00 54.5688020  0  6                     
G02  24414841.993      190611.946        3932.703           0.239  
G03  22276959.826      -23396.117        -585.054           0.255  
G04  23770846.110     -109357.040       -2876.031           0.244  
G05  22523371.037      106014.152        2692.330           0.255  
G06  20628888.828      -15983.261        -520.901           0.255  
G07  23536771.427      -44744.329       -1826.432           0.247  
> 2023 05 18 00 00 54.6688020  0  6                     
G02  24414766.747      191005.178        3932.389           0.239  
G03  22276971.104      -23454.548        -581.352           0.255  
G04  23770900.419     -109644.608       -2875.650           0.244  
G05  22523319.682      106283.544        2697.536           0.255  
G06  20628899.076      -16035.363        -520.905           0.255  
G07  23536806.502      -44926.970       -1826.441           0.247  
> 2023 05 18 00 00 54.7688020  0  6                     
G02  24414691.851      191398.408        3931.825           0.239  
G03  22276982.067      -23513.176        -585.355           0.255  
G04  23770954.766     -109932.175       -2874.843           0.244  
G05  22523268.810      106552.690        2692.370           0.255  
G06  20628908.757      -16087.470        -520.992           0.255  
G07  23536841.037      -45109.618       -1826.992           0.247  
> 2023 05 18 00 00 54.8688020  0  6                     
G02  24414616.365      191791.642        3932.243           0.239  
G03  22276993.381      -23571.718        -585.487           0.255  
G04  23771009.988     -110219.753       -2874.984           0.244  
G05  22523217.596      106821.951        2692.385           0.255  
G06  20628918.501      -16139.574        -520.888           0.255  
G07  23536875.817      -45292.264       -1826.977           0.247  
> 2023 05 18 00 00 54.9688020  0  6                     
G02  24414542.258      192185.640        4085.976           0.239  
G03  22277003.817      -23630.384        -587.221           0.255  
G04  23771064.965     -110506.876       -2765.923           0.244  
G05  22523166.376      107091.353        2691.309           0.255  
G06  20628929.089      -16191.687        -521.140           0.255  
G07  23536910.319      -45475.262       -1895.290           0.247  
> 2023 05 18 00 00 55.0688020  0  6                     
G02  24414467.903      192578.106        3933.463           0.239  
G03  22277015.417      -23688.802        -583.887           0.255  
G04  23771119.466     -110794.910       -2875.369           0.244  
G05  22523115.184      107360.577        2710.984           0.255  
G06  20628938.432      -16243.805        -521.316           0.255  
G07  23536945.175      -45657.581       -1827.215           0.247  
> 2023 05 18 00 00 55.1688020  0  6                     
G02  24414393.135      192971.334        3932.249           0.239  
G03  22277025.940      -23747.371        -585.400           0.255  
G04  23771174.281     -111082.493       -2876.012           0.244  
G05  22523063.343      107629.718        2692.546           0.255  
G06  20628948.884      -16295.931        -521.198           0.255  
G07  23536980.115      -45840.240       -1826.989           0.247  
> 2023 05 18 00 00 55.2688020  0  6                     
G02  24414317.936      193364.570        3931.267           0.239  
G03  22277037.986      -23805.935        -585.360           0.255  
G04  23771229.378     -111370.086       -2876.484           0.244  
G05  22523012.597      107898.967        2692.354           0.255  
G06  20628958.208      -16348.055        -521.393           0.255  
G07  23537014.974      -46022.905       -1827.058           0.247  
> 2023 05 18 00 00 55.3688020  0  6                     
G02  24414242.943      193757.790        3933.089           0.239  
G03  22277048.069      -23864.506        -585.600           0.255  
G04  23771283.783     -111657.665       -2876.005           0.244  
G05  22522961.137      108168.213        2692.630           0.255  
G06  20628968.683      -16400.185        -521.382           0.255  
G07  23537050.091      -46205.579       -1826.669           0.247  
> 2023 05 18 00 00 55.4688020  0  6                     
G02  24414168.519      194151.019        3932.118           0.239  
G03  22277060.146      -23923.083        -585.684           0.255  
G04  23771338.508     -111945.255       -2876.402           0.244  
G05  22522910.319      108437.453        2692.228           0.255  
G06  20628977.859      -16452.321        -521.346           0.255  
G07  23537084.686      -46388.248       -1826.044           0.247  
> 2023 05 18 00 00 55.5688020  0  6                     
G02  24414093.733      194544.250        3931.608           0.239  
G03  22277070.445      -23981.662        -585.719           0.255  
G04  23771392.768     -112232.835       -2875.728           0.244  
G05  22522858.961      108706.701        2692.428           0.255  
G06  20628988.176      -16504.466        -521.544           0.255  
G07  23537118.578      -46570.927       -1826.608           0.247  
> 2023 05 18 00 00 55.6688020  0  6                     
G02  24414018.366      194937.477        3931.191           0.239  
G03  22277082.038      -24040.251        -585.838           0.255  
G04  23771447.864     -112520.416       -2875.546           0.244  
G05  22522807.786      108975.929        2691.708           0.255  
G06  20628998.306      -16556.614        -521.486           0.255  
G07  23537153.853      -46753.602       -1826.286           0.247  
> 2023 05 18 00 00 55.7688020  0  6                     
G02  24413944.239      195330.690        3931.485           0.239  
G03  22277093.545      -24098.842        -585.385           0.255  
G04  23771502.478     -112808.000       -2875.000           0.244  
G05  22522756.221      109245.161        2692.289           0.255  
G06  20629007.926      -16608.761        -521.602           0.255  
G07  23537188.828      -46936.289       -1826.434           0.247  
> 2023 05 18 00 00 55.8688020  0  6                     
G02  24413869.100      195723.930        3932.764           0.239  
G03  22277104.957      -24157.614        -614.665           0.255  
G04  23771557.149     -113095.430       -2839.759           0.244  
G05  22522704.963      109514.597        2727.977           0.255  
G06  20629017.807      -16660.916        -521.528           0.255  
G07  23537223.798      -47118.589       -1748.885           0.247  
> 2023 05 18 00 00 55.9688020  0  6                     
G02  24413794.012      196117.444        3982.109           0.239  
G03  22277116.009      -24216.055        -586.222           0.255  
G04  23771611.788     -113383.190       -2875.818           0.244  
G05  22522653.831      109783.613        2692.330           0.255  
G06  20629027.694      -16713.078        -521.572           0.255  
G07  23537258.504      -47301.792       -1845.802           0.247  
> 2023 05 18 00 00 56.0688020  0  6                     
G02  24413719.090      196510.389        3931.891           0.239  
G03  22277126.899      -24274.668        -586.477           0.255  
G04  23771666.255     -113670.778       -2875.878           0.244  
G05  22522602.715      110052.841        2692.806           0.255  
G06  20629037.711      -16765.244        -521.628           0.255  
G07  23537293.581      -47484.317       -1825.045           0.247  
> 2023 05 18 00 00 56.1688020  0  6                     
G02  24413644.392      196903.623        3932.077           0.239  
G03  22277138.165      -24333.283        -586.176           0.255  
G04  23771721.377     -113958.372       -2876.317           0.244  
G05  22522551.446      110322.061        2692.635           0.255  
G06  20629047.644      -16817.412        -521.687           0.255  
G07  23537327.993      -47667.073       -1827.540           0.247  
> 2023 05 18 00 00 56.2688020  0  6                     
G02  24413569.660      197296.857        3933.005           0.239  
G03  22277148.966      -24392.009        -593.864           0.255  
G04  23771776.339     -114245.975       -2876.063           0.244  
G05  22522500.127      110591.277        2692.110           0.255  
G06  20629057.560      -16869.586        -521.698           0.255  
G07  23537362.605      -47849.553       -1784.400           0.247  
> 2023 05 18 00 00 56.3688020  0  6                     
G02  24413494.647      197690.093        3933.115           0.239  
G03  22277160.617      -24450.539        -586.064           0.255  
G04  23771830.781     -114533.576       -2876.455           0.244  
G05  22522448.946      110860.492        2692.148           0.255  
G06  20629067.373      -16921.764        -521.820           0.255  
G07  23537397.108      -48032.480       -1826.938           0.247  
> 2023 05 18 00 00 56.4688020  0  6                     
G02  24413420.066      198083.323        3932.874           0.239  
G03  22277171.506      -24509.177        -586.015           0.255  
G04  23771885.212     -114821.171       -2876.297           0.244  
G05  22522397.688      111129.709        2692.125           0.255  
G06  20629077.506      -16973.951        -521.801           0.255  
G07  23537432.220      -48215.190       -1826.943           0.247  
> 2023 05 18 00 00 56.5688020  0  6                     
G02  24413345.204      198476.552        3932.369           0.239  
G03  22277183.015      -24567.785        -580.884           0.255  
G04  23771940.042     -115108.990       -2913.079           0.244  
G05  22522346.447      111398.913        2691.903           0.255  
G06  20629087.417      -17026.135        -521.806           0.255  
G07  23537467.174      -48398.017       -1858.416           0.247  
> 2023 05 18 00 00 56.6688020  0  6                     
G02  24413270.464      198869.788        3933.161           0.239  
G03  22277193.754      -24626.471        -586.387           0.255  
G04  23771994.564     -115396.361       -2875.617           0.244  
G05  22522295.259      111668.125        2692.122           0.255  
G06  20629097.415      -17078.327        -521.978           0.255  
G07  23537501.672      -48580.625       -1827.166           0.247  
> 2023 05 18 00 00 56.7688020  0  6                     
G02  24413195.540      199263.015        3932.743           0.239  
G03  22277205.199      -24685.128        -586.496           0.255  
G04  23772049.769     -115683.961       -2875.811           0.244  
G05  22522244.151      111937.323        2691.981           0.255  
G06  20629107.385      -17130.526        -521.924           0.255  
G07  23537536.359      -48763.347       -1827.055           0.247  
> 2023 05 18 00 00 56.8688020  0  6                     
G02  24413120.866      199656.249        3932.885           0.239  
G03  22277216.265      -24743.790        -586.611           0.255  
G04  23772104.404     -115971.565       -2876.098           0.244  
G05  22522192.789      112206.523        2691.847           0.255  
G06  20629117.174      -17182.728        -522.010           0.255  
G07  23537571.486      -48946.223       -1846.317           0.247  
> 2023 05 18 00 00 56.9688020  0  6                     
G02  24413046.004      200049.473        3931.803           0.239  
G03  22277227.600      -24802.456        -586.701           0.255  
G04  23772158.941     -116259.165       -2875.787           0.244  
G05  22522141.589      112475.738        2686.687           0.255  
G06  20629127.102      -17234.933        -522.098           0.255  
G07  23537605.937      -49128.810       -1827.246           0.247  
> 2023 05 18 00 00 57.0688020  0  6                     
G02  24412971.062      200442.693        3932.357           0.239  
G03  22277238.550      -24861.129        -586.692           0.255  
G04  23772213.682     -116546.770       -2875.880           0.244  
G05  22522090.508      112744.915        2691.714           0.255  
G06  20629136.938      -17287.141        -521.980           0.255  
G07  23537640.707      -49311.543       -1827.475           0.247  
> 2023 05 18 00 00 57.1688020  0  6                     
G02  24412896.250      200835.926        3932.734           0.239  
G03  22277249.683      -24919.810        -586.767           0.255  
G04  23772268.412     -116834.376       -2876.188           0.244  
G05  22522039.054      113014.104        2691.917           0.255  
G06  20629146.996      -17339.358        -522.114           0.255  
G07  23537675.763      -49494.283       -1827.463           0.247  
> 2023 05 18 00 00 57.2688020  0  6                     
G02  24412821.626      201229.161        3932.573           0.239  
G03  22277260.788      -24978.496        -586.707           0.255  
G04  23772323.613     -117121.986       -2876.076           0.244  
G05  22521988.020      113283.297        2691.425           0.255  
G06  20629156.892      -17391.581        -522.227           0.255  
G07  23537710.100      -49677.021       -1827.658           0.247  
> 2023 05 18 00 00 57.3688020  0  6                     
G02  24412746.413      201622.388        3931.945           0.239  
G03  22277271.971      -25037.187        -586.872           0.255  
G04  23772377.999     -117409.594       -2876.346           0.244  
G05  22521936.878      113552.477        2691.697           0.255  
G06  20629166.847      -17443.803        -522.195           0.255  
G07  23537745.229      -49859.769       -1827.777           0.247  
> 2023 05 18 00 00 57.4688020  0  6                     
G02  24412671.539      202015.621        3931.591           0.239  
G03  22277283.258      -25095.883        -586.627           0.255  
G04  23772432.836     -117697.205       -2876.599           0.244  
G05  22521885.259      113821.668        2691.709           0.255  
G06  20629176.824      -17496.031        -522.292           0.255  
G07  23537779.904      -50042.519       -1827.930           0.247  
> 2023 05 18 00 00 57.5688020  0  6                     
G02  24412597.132      202408.857        3932.829           0.239  
G03  22277294.211      -25154.608        -587.068           0.255  
G04  23772487.352     -117984.913       -2892.909           0.244  
G05  22521834.354      114090.843        2691.593           0.255  
G06  20629186.736      -17548.265        -522.347           0.255  
G07  23537814.856      -50225.114       -1820.430           0.247  
> 2023 05 18 00 00 57.6688020  0  6                     
G02  24412522.261      202802.089        3932.528           0.239  
G03  22277305.697      -25213.298        -587.010           0.255  
G04  23772542.400     -118272.422       -2876.255           0.244  
G05  22521782.902      114360.018        2691.957           0.255  
G06  20629196.658      -17600.505        -522.387           0.255  
G07  23537849.632      -50408.023       -1827.602           0.247  
> 2023 05 18 00 00 57.7688020  0  6                     
G02  24412447.379      203195.319        3932.029           0.239  
G03  22277316.683      -25272.019        -587.150           0.255  
G04  23772596.976     -118560.037       -2876.242           0.244  
G05  22521731.710      114629.190        2691.828           0.255  
G06  20629206.640      -17652.746        -522.478           0.255  
G07  23537884.448      -50590.787       -1827.279           0.247  
> 2023 05 18 00 00 57.8688020  0  6                     
G02  24412372.481      203588.549        3931.643           0.239  
G03  22277328.026      -25330.741        -587.315           0.255  
G04  23772651.665     -118847.653       -2876.361           0.244  
G05  22521680.606      114898.363        2691.719           0.255  
G06  20629216.646      -17704.991        -522.348           0.255  
G07  23537919.142      -50773.552       -1827.358           0.247  
> 2023 05 18 00 00 57.9688020  0  6                     
G02  24412297.849      203981.783        3932.069           0.239  
G03  22277338.830      -25389.468        -587.299           0.255  
G04  23772706.647     -119135.268       -2876.132           0.244  
G05  22521629.314      115167.525        2691.436           0.255  
G06  20629226.470      -17757.244        -522.472           0.255  
G07  23537953.159      -50956.325       -1827.245           0.247  
> 2023 05 18 00 00 58.0688020  0  6                     
G02  24412222.693      204375.017        3932.451           0.239  
G03  22277350.317      -25448.204        -587.481           0.255  
G04  23772761.249     -119422.882       -2875.764           0.244  
G05  22521578.095      115436.697        2692.132           0.255  
G06  20629236.566      -17809.503        -522.520           0.255  
G07  23537988.369      -51139.096       -1827.694           0.247  
> 2023 05 18 00 00 58.1688020  0  6                     
G02  24412147.882      204768.248        3931.971           0.239  
G03  22277361.256      -25506.945        -587.423           0.255  
G04  23772816.119     -119710.500       -2875.917           0.244  
G05  22521527.102      115705.849        2691.824           0.255  
G06  20629246.393      -17861.768        -522.657           0.255  
G07  23538023.316      -51321.872       -1827.753           0.247  
> 2023 05 18 00 00 58.2688020  0  6                     
G02  24412073.044      205161.475        3931.396           0.239  
G03  22277372.763      -25565.692        -587.499           0.255  
G04  23772870.987     -119998.124       -2876.286           0.244  
G05  22521475.686      115975.009        2691.671           0.255  
G06  20629256.402      -17914.033        -522.722           0.255  
G07  23538058.200      -51504.655       -1828.115           0.247  
> 2023 05 18 00 00 58.3688020  0  6                     
G02  24411998.220      205554.708        3931.658           0.239  
G03  22277383.669      -25624.385        -575.497           0.255  
G04  23772925.571     -120285.745       -2876.308           0.244  
G05  22521424.550      116244.160        2691.162           0.255  
G06  20629266.237      -17966.304        -522.764           0.255  
G07  23538092.669      -51687.438       -1828.184           0.247  
> 2023 05 18 00 00 58.4688020  0  6                     
G02  24411923.475      205947.943        3932.225           0.239  
G03  22277395.054      -25683.204        -587.758           0.255  
G04  23772980.215     -120573.364       -2876.350           0.244  
G05  22521373.280      116513.236        2680.698           0.255  
G06  20629276.306      -18018.581        -522.725           0.255  
G07  23538128.085      -51870.225       -1828.114           0.247  
> 2023 05 18 00 00 58.5688020  0  6                     
G02  24411848.744      206341.174        3932.026           0.239  
G03  22277405.999      -25741.970        -587.852           0.255  
G04  23773034.926     -120860.985       -2876.240           0.244  
G05  22521321.980      116782.515        2693.990           0.255  
G06  20629286.124      -18070.864        -522.782           0.255  
G07  23538162.494      -52053.020       -1828.410           0.247  
> 2023 05 18 00 00 58.6688020  0  6                     
G02  24411774.183      206734.406        3931.866           0.239  
G03  22277417.331      -25800.743        -587.905           0.255  
G04  23773089.842     -121148.609       -2875.897           0.244  
G05  22521270.964      117051.592        2690.217           0.255  
G06  20629296.279      -18123.147        -522.874           0.255  
G07  23538197.324      -52235.811       -1828.116           0.247  
> 2023 05 18 00 00 58.7688020  0  6                     
G02  24411699.392      207127.637        3932.083           0.239  
G03  22277428.457      -25859.520        -587.803           0.255  
G04  23773144.757     -121436.240       -2876.265           0.244  
G05  22521219.596      117320.751        2691.448           0.255  
G06  20629306.069      -18175.437        -522.985           0.255  
G07  23538232.004      -52418.615       -1828.228           0.247  
> 2023 05 18 00 00 58.8688020  0  6                     
G02  24411624.374      207520.855        3932.705           0.239  
G03  22277439.865      -25918.302        -587.585           0.255  
G04  23773199.560     -121723.867       -2875.818           0.244  
G05  22521168.519      117589.892        2691.552           0.255  
G06  20629316.162      -18227.731        -522.964           0.255  
G07  23538267.038      -52601.411       -1828.164           0.247  
> 2023 05 18 00 00 58.9688020  0  6                     
G02  24411549.640      207914.085        3932.363           0.239  
G03  22277450.801      -25977.147        -584.625           0.255  
G04  23773253.902     -122011.493       -2875.968           0.244  
G05  22521117.237      117859.154        2700.325           0.255  
G06  20629325.989      -18280.034        -523.071           0.255  
G07  23538301.544      -52784.198       -1821.600           0.247  
> 2023 05 18 00 00 59.0688020  0  6                     
G02  24411474.729      208307.316        3931.978           0.239  
G03  22277462.048      -26035.888        -587.754           0.255  
G04  23773308.569     -122299.123       -2876.202           0.244  
G05  22521065.943      118128.164        2691.633           0.255  
G06  20629336.018      -18332.333        -522.889           0.255  
G07  23538336.624      -52967.041       -1827.756           0.247  
> 2023 05 18 00 00 59.1688020  0  6                     
G02  24411399.613      208700.543        3931.619           0.239  
G03  22277473.135      -26094.689        -587.944           0.255  
G04  23773363.084     -122586.759       -2876.145           0.244  
G05  22521014.649      118397.291        2691.014           0.255  
G06  20629345.896      -18384.642        -523.116           0.255  
G07  23538371.403      -53149.854       -1827.791           0.247  
> 2023 05 18 00 00 59.2688020  0  6                     
G02  24411324.569      209093.778        3931.647           0.239  
G03  22277484.431      -26153.493        -585.615           0.255  
G04  23773417.912     -122874.392       -2876.281           0.244  
G05  22520963.489      118666.416        2691.358           0.255  
G06  20629355.930      -18436.954        -523.026           0.255  
G07  23538405.973      -53332.634       -1817.607           0.247  
> 2023 05 18 00 00 59.3688020  0  6                     
G02  24411250.057      209487.010        3931.998           0.239  
G03  22277495.616      -26212.312        -588.058           0.255  
G04  23773472.900     -123162.027       -2876.487           0.244  
G05  22520912.265      118935.544        2690.988           0.255  
G06  20629365.715      -18489.276        -523.225           0.255  
G07  23538440.673      -53515.511       -1838.406           0.247  
> 2023 05 18 00 00 59.4688020  0  6                     
G02  24411175.400      209880.245        3931.738           0.239  
G03  22277506.943      -26271.132        -588.131           0.255  
G04  23773527.436     -123449.660       -2876.391           0.244  
G05  22520861.267      119204.663        2690.997           0.255  
G06  20629375.909      -18541.594        -523.089           0.255  
G07  23538475.564      -53698.321       -1828.135           0.247  
> 2023 05 18 00 00 59.5688020  0  6                     
G02  24411100.479      210273.473        3931.561           0.239  
G03  22277518.024      -26329.958        -588.195           0.255  
G04  23773582.065     -123737.296       -2876.572           0.244  
G05  22520809.807      119473.784        2691.562           0.255  
G06  20629385.600      -18593.921        -523.285           0.255  
G07  23538510.403      -53881.153       -1828.122           0.247  
> 2023 05 18 00 00 59.6688020  0  6                     
G02  24411025.771      210666.710        3932.219           0.239  
G03  22277529.543      -26388.790        -588.282           0.255  
G04  23773636.539     -124024.936       -2876.238           0.244  
G05  22520758.734      119742.895        2691.158           0.255  
G06  20629395.842      -18646.253        -523.259           0.255  
G07  23538545.135      -54063.982       -1828.134           0.247  
> 2023 05 18 00 00 59.7688020  0  6                     
G02  24410950.647      211059.944        3932.449           0.239  
G03  22277540.486      -26447.628        -588.335           0.255  
G04  23773691.809     -124312.573       -2876.324           0.244  
G05  22520707.482      120011.867        2670.933           0.255  
G06  20629405.501      -18698.591        -523.373           0.255  
G07  23538579.999      -54246.814       -1823.087           0.247  
> 2023 05 18 00 00 59.8688020  0  6                     
G02  24410875.942      211453.351        3951.617           0.239  
G03  22277551.765      -26506.471        -588.006           0.255  
G04  23773746.316     -124600.213       -2876.451           0.244  
G05  22520656.431      120281.038        2667.896           0.255  
G06  20629415.724      -18750.928        -523.412           0.255  
G07  23538614.918      -54429.702       -1831.937           0.247  
> 2023 05 18 00 00 59.9688020  0  6                     
G02  24410801.327      211846.408        3932.027           0.239  
G03  22277563.128      -26565.324        -588.451           0.255  
G04  23773801.244     -124887.852       -2876.257           0.244  
G05  22520604.805      120550.279        2707.382           0.255  
G06  20629425.411      -18803.273        -523.450           0.255  
G07  23538649.419      -54612.547       -1837.071           0.247  
> 2023 05 18 00 01 00.0688020  0  6                     
G02  24410726.562      212239.632        3930.857           0.239  
G03  22277573.590      -26624.036        -572.270           0.255  
G04  23773856.001     -125175.490       -2876.169           0.244  
G05  22520553.886      120819.216        2675.721           0.255  
G06  20629436.096      -18855.624        -523.565           0.255  
G07  23538684.434      -54795.366       -1828.332           0.247  
> 2023 05 18 00 01 00.1688020  0  6                     
G02  24410651.528      212632.877        3933.490           0.239  
G03  22277585.040      -26683.043        -588.812           0.255  
G04  23773910.330     -125463.146       -2876.286           0.244  
G05  22520502.626      121088.360        2671.270           0.255  
G06  20629445.487      -18907.981        -523.609           0.255  
G07  23538719.169      -54978.221       -1828.839           0.247  
> 2023 05 18 00 01 00.2688020  0  6                     
G02  24410576.394      213026.096        3933.773           0.239  
G03  22277596.142      -26741.913        -588.815           0.255  
G04  23773964.815     -125750.795       -2876.701           0.244  
G05  22520451.723      121357.516        2691.028           0.255  
G06  20629455.952      -18960.336        -523.631           0.255  
G07  23538753.321      -55161.076       -1828.638           0.247  
> 2023 05 18 00 01 00.3688020  0  6                     
G02  24410501.502      213419.315        3931.868           0.239  
G03  22277607.426      -26800.789        -588.738           0.255  
G04  23774020.001     -126038.430       -2876.565           0.244  
G05  22520400.038      121626.612        2690.997           0.255  
G06  20629465.535      -19012.699        -523.627           0.255  
G07  23538788.670      -55343.940       -1829.019           0.247  
> 2023 05 18 00 01 00.4688020  0  6                     
G02  24410426.890      213812.543        3931.812           0.239  
G03  22277619.024      -26859.671        -588.974           0.255  
G04  23774074.855     -126326.077       -2876.220           0.244  
G05  22520349.086      121895.698        2691.622           0.255  
G06  20629475.665      -19065.065        -523.626           0.255  
G07  23538823.422      -55526.803       -1829.017           0.247  
> 2023 05 18 00 01 00.5688020  0  6                     
G02  24410352.198      214205.687        3930.567           0.239  
G03  22277629.900      -26918.557        -588.897           0.255  
G04  23774129.339     -126613.784       -2892.221           0.244  
G05  22520297.725      122164.772        2705.818           0.255  
G06  20629485.289      -19117.442        -523.823           0.255  
G07  23538857.901      -55709.506       -1800.906           0.247  
> 2023 05 18 00 01 00.6688020  0  6                     
G02  24410277.929      214599.012        3932.186           0.239  
G03  22277641.648      -26977.517        -593.132           0.255  
G04  23774184.008     -126901.386       -2877.320           0.244  
G05  22520246.539      122433.859        2691.490           0.255  
G06  20629495.406      -19169.815        -523.860           0.255  
G07  23538892.836      -55892.308       -1797.077           0.247  
> 2023 05 18 00 01 00.7688020  0  6                     
G02  24410202.200      214992.242        3932.034           0.239  
G03  22277651.923      -27036.393        -598.070           0.255  
G04  23774239.359     -127189.037       -2876.745           0.244  
G05  22520195.643      122702.934        2690.860           0.255  
G06  20629505.362      -19222.195        -523.783           0.255  
G07  23538927.697      -56075.399       -1820.706           0.247  
> 2023 05 18 00 01 00.8688020  0  6                     
G02  24410127.130      215385.477        3932.284           0.239  
G03  22277663.597      -27095.256        -589.165           0.255  
G04  23774294.666     -127476.685       -2876.134           0.244  
G05  22520143.838      122972.011        2691.130           0.255  
G06  20629515.516      -19274.582        -523.736           0.255  
G07  23538962.571      -56258.296       -1829.093           0.247  
> 2023 05 18 00 01 00.9688020  0  6                     
G02  24410052.876      215778.708        3932.472           0.239  
G03  22277674.647      -27154.165        -588.994           0.255  
G04  23774349.656     -127764.337       -2876.063           0.244  
G05  22520093.288      123241.087        2691.109           0.255  
G06  20629525.018      -19326.977        -523.978           0.255  
G07  23538997.562      -56441.259       -1823.942           0.247  
> 2023 05 18 00 01 01.0688020  0  6                     
G02  24409977.914      216171.949        3933.130           0.239  
G03  22277685.892      -27213.080        -588.752           0.255  
G04  23774403.638     -128052.002       -2876.772           0.244  
G05  22520042.075      123510.154        2690.721           0.255  
G06  20629535.140      -19379.376        -524.137           0.255  
G07  23539032.299      -56623.998       -1813.495           0.247  
> 2023 05 18 00 01 01.1688020  0  6                     
G02  24409903.519      216565.173        3932.220           0.239  
G03  22277696.545      -27272.005        -589.048           0.255  
G04  23774457.447     -128339.659       -2876.816           0.244  
G05  22519990.802      123779.221        2690.625           0.255  
G06  20629545.426      -19431.776        -524.113           0.255  
G07  23539067.188      -56806.955       -1828.795           0.247  
> 2023 05 18 00 01 01.2688020  0  6                     
G02  24409828.018      216958.406        3931.024           0.239  
G03  22277708.483      -27330.939        -589.624           0.255  
G04  23774512.227     -128627.313       -2875.917           0.244  
G05  22519939.353      124048.268        2690.234           0.255  
G06  20629555.317      -19484.178        -523.898           0.255  
G07  23539101.952      -56989.853       -1829.505           0.247  
> 2023 05 18 00 01 01.3688020  0  6                     
G02  24409752.618      217351.427        3881.893           0.239  
G03  22277718.593      -27389.805        -582.290           0.255  
G04  23774568.177     -128914.969       -2876.189           0.244  
G05  22519888.416      124317.152        2663.758           0.255  
G06  20629565.305      -19536.592        -524.052           0.255  
G07  23539136.941      -57173.028       -1869.871           0.247  
> 2023 05 18 00 01 01.4688020  0  6                     
G02  24409678.605      217744.528        3921.129           0.239  
G03  22277732.035      -27448.809        -588.979           0.255  
G04  23774622.761     -129202.803       -2889.766           0.244  
G05  22519836.816      124586.382        2690.492           0.255  
G06  20629574.710      -19589.010        -524.275           0.255  
G07  23539171.558      -57355.652       -1829.012           0.247  
> 2023 05 18 00 01 01.5688020  0  6                     
G02  24409603.960      218138.098        3932.384           0.239  
G03  22277742.422      -27507.680        -574.084           0.255  
G04  23774676.961     -129490.299       -2877.338           0.244  
G05  22519785.802      124855.442        2690.842           0.255  
G06  20629584.761      -19641.426        -524.255           0.255  
G07  23539206.710      -57538.634       -1838.862           0.247  
> 2023 05 18 00 01 01.6688020  0  6                     
G02  24409529.137      218531.336        3932.312           0.239  
G03  22277753.553      -27566.717        -589.251           0.255  
G04  23774731.822     -129777.959       -2876.581           0.244  
G05  22519734.678      125124.490        2690.401           0.255  
G06  20629594.942      -19693.849        -524.281           0.255  
G07  23539241.314      -57721.466       -1829.103           0.247  
> 2023 05 18 00 01 01.7688020  0  6                     
G02  24409453.393      218924.566        3931.990           0.239  
G03  22277764.049      -27625.676        -589.326           0.255  
G04  23774786.012     -130065.619       -2876.093           0.244  
G05  22519683.603      125393.539        2689.936           0.255  
G06  20629605.490      -19746.279        -524.185           0.255  
G07  23539276.045      -57904.383       -1829.275           0.247  
> 2023 05 18 00 01 01.8688020  0  6                     
G02  24409379.267      219317.800        3932.859           0.239  
G03  22277776.625      -27684.643        -589.387           0.255  
G04  23774841.566     -130353.292       -2877.105           0.244  
G05  22519632.179      125662.583        2689.958           0.255  
G06  20629614.383      -19798.713        -524.210           0.255  
G07  23539311.097      -58087.297       -1829.296           0.247  
> 2023 05 18 00 01 01.9688020  0  6                     
G02  24409304.576      219711.019        3933.055           0.239  
G03  22277787.439      -27743.618        -589.504           0.255  
G04  23774896.074     -130640.966       -2876.856           0.244  
G05  22519581.186      125931.629        2690.489           0.255  
G06  20629624.867      -19851.149        -524.432           0.255  
G07  23539345.787      -58270.221       -1829.321           0.247  
> 2023 05 18 00 01 02.0688020  0  6                     
G02  24409229.619      220104.247        3932.484           0.239  
G03  22277798.378      -27802.598        -589.669           0.255  
G04  23774950.697     -130928.627       -2876.468           0.244  
G05  22519529.926      126200.669        2690.846           0.255  
G06  20629634.718      -19903.591        -524.318           0.255  
G07  23539380.370      -58453.143       -1829.275           0.247  
> 2023 05 18 00 01 02.1688020  0  6                     
G02  24409154.757      220497.479        3931.962           0.239  
G03  22277809.743      -27861.582        -589.686           0.255  
G04  23775005.537     -131216.297       -2876.008           0.244  
G05  22519478.581      126469.705        2690.648           0.255  
G06  20629644.989      -19956.038        -524.367           0.255  
G07  23539414.875      -58636.076       -1829.376           0.247  
> 2023 05 18 00 01 02.2688020  0  6                     
G02  24409080.128      220890.706        3932.432           0.239  
G03  22277820.500      -27920.571        -589.573           0.255  
G04  23775059.671     -131504.103       -2901.960           0.244  
G05  22519427.491      126738.737        2690.760           0.255  
G06  20629654.675      -20008.493        -524.563           0.255  
G07  23539450.152      -58819.007       -1829.023           0.247  
> 2023 05 18 00 01 02.3688020  0  6                     
G02  24409005.294      221283.943        3932.672           0.239  
G03  22277832.498      -27979.568        -589.744           0.255  
G04  23775114.669     -131791.644       -2877.240           0.244  
G05  22519376.256      127007.767        2690.939           0.255  
G06  20629664.763      -20060.946        -524.444           0.255  
G07  23539484.771      -59001.942       -1828.935           0.247  
> 2023 05 18 00 01 02.4688020  0  6                     
G02  24408930.466      221677.179        3932.465           0.239  
G03  22277842.553      -28038.571        -589.686           0.255  
G04  23775169.358     -132079.321       -2875.424           0.244  
G05  22519325.298      127276.801        2684.073           0.255  
G06  20629674.994      -20113.408        -524.670           0.255  
G07  23539520.205      -59184.729       -1820.581           0.247  
> 2023 05 18 00 01 02.5688020  0  6                     
G02  24408855.578      222070.403        3931.099           0.239  
G03  22277854.299      -28097.580        -589.912           0.255  
G04  23775224.325     -132367.010       -2876.435           0.244  
G05  22519273.883      127545.645        2692.077           0.255  
G06  20629685.091      -20165.873        -524.517           0.255  
G07  23539554.391      -59367.823       -1829.809           0.247  
> 2023 05 18 00 01 02.6688020  0  6                     
G02  24408780.399      222463.638        3932.497           0.239  
G03  22277865.390      -28156.629        -589.799           0.255  
G04  23775279.513     -132654.683       -2876.087           0.244  
G05  22519222.798      127814.820        2690.417           0.255  
G06  20629694.940      -20218.347        -524.664           0.255  
G07  23539589.338      -59550.772       -1829.920           0.247  
> 2023 05 18 00 01 02.7688020  0  6                     
G02  24408705.814      222856.874        3932.944           0.239  
G03  22277877.118      -28215.617        -589.703           0.255  
G04  23775334.242     -132942.359       -2876.550           0.244  
G05  22519171.352      128083.836        2690.437           0.255  
G06  20629704.950      -20270.818        -524.543           0.255  
G07  23539624.090      -59733.722       -1829.660           0.247  
> 2023 05 18 00 01 02.8688020  0  6                     
G02  24408630.969      223250.108        3932.568           0.239  
G03  22277888.021      -28274.648        -590.453           0.255  
G04  23775388.371     -133230.039       -2876.789           0.244  
G05  22519120.169      128352.848        2689.945           0.255  
G06  20629714.930      -20323.297        -524.817           0.255  
G07  23539659.056      -59916.675       -1829.542           0.247  
> 2023 05 18 00 01 02.9688020  0  6                     
G02  24408555.258      223643.332        3931.893           0.239  
G03  22277900.347      -28333.681        -590.124           0.255  
G04  23775442.820     -133517.723       -2877.177           0.244  
G05  22519069.194      128621.858        2689.794           0.255  
G06  20629724.377      -20375.782        -524.770           0.255  
G07  23539694.057      -60099.631       -1829.052           0.247  
> 2023 05 18 00 01 03.0688020  0  6                     
G02  24408481.480      224036.561        3932.483           0.239  
G03  22277910.914      -28392.727        -590.671           0.255  
G04  23775497.653     -133805.394       -2874.708           0.244  
G05  22519017.485      128890.868        2689.561           0.255  
G06  20629734.940      -20428.268        -524.573           0.255  
G07  23539728.767      -60282.601       -1830.212           0.247  
> 2023 05 18 00 01 03.1688020  0  6                     
G02  24408406.857      224429.795        3932.844           0.239  
G03  22277921.877      -28451.769        -590.822           0.255  
G04  23775552.741     -134093.088       -2876.172           0.244  
G05  22518966.647      129159.992        2701.747           0.255  
G06  20629744.774      -20480.763        -524.781           0.255  
G07  23539763.300      -60465.562       -1829.756           0.247  
> 2023 05 18 00 01 03.2688020  0  6                     
G02  24408331.921      224823.034        3932.989           0.239  
G03  22277933.295      -28510.819        -590.792           0.255  
G04  23775607.199     -134380.763       -2876.029           0.244  
G05  22518915.436      129428.862        2689.569           0.255  
G06  20629754.870      -20533.259        -524.945           0.255  
G07  23539798.322      -60648.539       -1830.162           0.247  
> 2023 05 18 00 01 03.3688020  0  6                     
G02  24408257.080      225216.249        3933.009           0.239  
G03  22277944.282      -28569.877        -590.709           0.255  
G04  23775662.204     -134668.448       -2876.027           0.244  
G05  22518864.378      129697.874        2689.835           0.255  
G06  20629764.769      -20585.763        -525.021           0.255  
G07  23539833.143      -60831.509       -1830.162           0.247  
> 2023 05 18 00 01 03.4688020  0  6                     
G02  24408181.635      225609.477        3932.194           0.239  
G03  22277955.738      -28628.939        -590.563           0.255  
G04  23775717.435     -134956.145       -2877.486           0.244  
G05  22518812.927      129966.869        2689.715           0.255  
G06  20629774.869      -20638.271        -525.037           0.255  
G07  23539867.976      -61014.483       -1829.175           0.247  
> 2023 05 18 00 01 03.5688020  0  6                     
G02  24408107.559      226002.710        3932.432           0.239  
G03  22277965.912      -28688.011        -590.733           0.255  
G04  23775772.066     -135243.840       -2876.333           0.244  
G05  22518761.882      130235.864        2690.032           0.255  
G06  20629785.035      -20690.780        -525.233           0.255  
G07  23539902.810      -61197.468       -1829.867           0.247  
> 2023 05 18 00 01 03.6688020  0  6                     
G02  24408032.656      226395.941        3931.780           0.240  
G03  22277978.684      -28747.082        -590.101           0.255  
G04  23775827.312     -135531.532       -2874.634           0.244  
G05  22518710.854      130504.847        2689.192           0.255  
G06  20629794.485      -20743.293        -525.009           0.255  
G07  23539937.249      -61380.454       -1831.331           0.247  
> 2023 05 18 00 01 03.7688020  0  6                     
G02  24407957.657      226789.155        3932.409           0.239  
G03  22277989.313      -28806.169        -590.613           0.255  
G04  23775881.909     -135819.216       -2875.639           0.244  
G05  22518659.718      130773.800        2678.522           0.255  
G06  20629804.676      -20795.815        -525.110           0.255  
G07  23539972.018      -61563.445       -1830.427           0.248  
> 2023 05 18 00 01 03.8688020  0  6                     
G02  24407882.861      227182.703        3971.020           0.239  
G03  22278000.595      -28865.258        -590.739           0.255  
G04  23775936.177     -136107.179       -2931.453           0.244  
G05  22518608.564      131042.824        2690.052           0.255  
G06  20629814.696      -20848.344        -525.288           0.255  
G07  23540007.001      -61746.440       -1830.134           0.247  
> 2023 05 18 00 01 03.9688020  0  6                     
G02  24407808.143      227575.614        3931.666           0.239  
G03  22278011.821      -28924.356        -591.230           0.255  
G04  23775990.682     -136394.611       -2877.170           0.244  
G05  22518557.405      131311.773        2693.774           0.255  
G06  20629824.837      -20900.876        -525.293           0.255  
G07  23540041.844      -61929.379       -1808.026           0.247  
> 2023 05 18 00 01 04.0688020  0  6                     
G02  24407733.485      227968.847        3932.387           0.239  
G03  22278023.147      -28983.462        -591.482           0.255  
G04  23776045.866     -136682.304       -2876.930           0.244  
G05  22518506.072      131580.776        2689.987           0.255  
G06  20629834.706      -20953.410        -525.277           0.255  
G07  23540076.786      -62112.437       -1830.147           0.247  
> 2023 05 18 00 01 04.1688020  0  6                     
G02  24407659.153      228362.086        3932.793           0.239  
G03  22278034.890      -29042.644        -602.656           0.255  
G04  23776100.999     -136969.995       -2875.885           0.244  
G05  22518454.952      131849.749        2690.531           0.255  
G06  20629844.165      -21005.948        -525.202           0.255  
G07  23540111.415      -62295.435       -1838.716           0.247  
> 2023 05 18 00 01 04.2688020  0  6                     
G02  24407583.543      228755.320        3932.407           0.239  
G03  22278045.933      -29101.678        -591.400           0.255  
G04  23776155.482     -137257.698       -2877.628           0.244  
G05  22518403.677      132118.717        2690.406           0.255  
G06  20629854.937      -21058.495        -525.394           0.255  
G07  23540146.512      -62478.408       -1859.477           0.247  
> 2023 05 18 00 01 04.3688020  0  6                     
G02  24407508.623      229148.547        3931.357           0.239  
G03  22278057.762      -29160.795        -591.644           0.255  
G04  23776210.037     -137545.399       -2876.700           0.244  
G05  22518352.709      132387.688        2690.061           0.255  
G06  20629864.407      -21111.048        -525.598           0.255  
G07  23540181.636      -62661.456       -1830.481           0.248  
> 2023 05 18 00 01 04.4688020  0  6                     
G02  24407432.770      229541.775        3932.282           0.239  
G03  22278068.676      -29219.922        -590.979           0.255  
G04  23776264.849     -137833.100       -2878.225           0.244  
G05  22518301.519      132656.655        2690.014           0.255  
G06  20629874.330      -21163.595        -525.342           0.255  
G07  23540216.383      -62844.469       -1828.937           0.247  
> 2023 05 18 00 01 04.5688020  0  6                     
G02  24407359.438      229935.010        3932.702           0.239  
G03  22278078.914      -29279.058        -591.439           0.255  
G04  23776318.666     -138120.789       -2876.599           0.244  
G05  22518249.776      132925.612        2689.666           0.255  
G06  20629885.333      -21216.151        -525.196           0.255  
G07  23540250.847      -63027.499       -1830.799           0.247  
> 2023 05 18 00 01 04.7688020  0  6                     
G02  24407208.660      230721.471        3931.727           0.239  
G03  22278101.860      -29397.329        -591.419           0.255  
G04  23776428.620     -138696.200       -2877.822           0.244  
G05  22518147.503      133463.524        2688.939           0.255  
G06  20629904.892      -21321.291        -525.698           0.255  
G07  23540320.865      -63393.543       -1829.544           0.247  
> 2023 05 18 00 01 04.8688020  0  6                     
G02  24407133.636      231114.698        3931.986           0.239  
G03  22278112.474      -29456.478        -591.401           0.255  
G04  23776483.836     -138983.897       -2875.607           0.244  
G05  22518096.565      133732.487        2670.051           0.255  
G06  20629915.087      -21373.862        -525.837           0.255  
G07  23540355.442      -63576.579       -1830.473           0.247  
> 2023 05 18 00 01 04.9688020  0  6                     
G02  24407059.824      231507.946        3932.673           0.239  
G03  22278124.537      -29515.634        -591.400           0.255  
G04  23776538.328     -139271.620       -2877.210           0.244  
G05  22518045.399      134001.362        2682.259           0.255  
G06  20629924.994      -21426.433        -525.340           0.255  
G07  23540390.339      -63759.603       -1830.197           0.247  
> 2023 05 18 00 01 05.0688020  0  6                     
G02  24406984.673      231901.179        3932.978           0.239  
G03  22278135.542      -29574.769        -585.527           0.255  
G04  23776592.800     -139559.321       -2876.923           0.244  
G05  22517994.372      134270.249        2671.537           0.255  
G06  20629934.781      -21479.019        -525.810           0.255  
G07  23540425.127      -63942.650       -1837.904           0.247  
> 2023 05 18 00 01 05.1688020  0  6                     
G02  24406909.804      232294.384        3931.625           0.239  
G03  22278146.706      -29633.967        -591.663           0.255  
G04  23776647.875     -139847.031       -2877.401           0.244  
G05  22517943.028      134539.322        2689.666           0.255  
G06  20629944.691      -21531.605        -525.722           0.255  
G07  23540460.124      -64125.688       -1829.998           0.247  
> 2023 05 18 00 01 05.2688020  0  6                     
G02  24406835.244      232687.611        3931.788           0.239  
G03  22278158.254      -29693.139        -591.468           0.255  
G04  23776704.013     -140134.735       -2877.359           0.244  
G05  22517891.824      134808.261        2689.351           0.255  
G06  20629954.417      -21584.195        -525.850           0.255  
G07  23540494.742      -64308.736       -1829.979           0.247  
> 2023 05 18 00 01 05.3688020  0  6                     
G02  24406760.425      233080.840        3932.335           0.239  
G03  22278169.109      -29752.402        -637.504           0.255  
G04  23776757.608     -140422.347       -2869.344           0.244  
G05  22517840.610      135077.248        2671.427           0.255  
G06  20629965.266      -21636.791        -526.059           0.255  
G07  23540529.084      -64491.828       -1847.316           0.247  
> 2023 05 18 00 01 05.4688020  0  6                     
G02  24406685.364      233474.087        3933.150           0.239  
G03  22278178.762      -29811.552        -601.906           0.255  
G04  23776811.030     -140710.156       -2876.610           0.244  
G05  22517789.731      135346.097        2693.345           0.255  
G06  20629975.567      -21689.395        -526.354           0.255  
G07  23540564.536      -64674.848       -1830.953           0.247  
> 2023 05 18 00 01 05.5688020  0  6                     
G02  24406610.371      233867.314        3932.349           0.239  
G03  22278189.746      -29870.753        -587.657           0.255  
G04  23776866.631     -140997.872       -2876.586           0.244  
G05  22517738.427      135614.891        2668.988           0.255  
G06  20629985.857      -21742.000        -526.335           0.255  
G07  23540599.189      -64857.903       -1830.809           0.247  
> 2023 05 18 00 01 05.6688020  0  6                     
G02  24406535.826      234260.545        3931.568           0.239  
G03  22278202.245      -29929.896        -591.516           0.255  
G04  23776922.233     -141285.594       -2877.086           0.244  
G05  22517687.192      135884.027        2697.775           0.255  
G06  20629995.256      -21794.602        -526.084           0.255  
G07  23540633.409      -65041.090       -1853.545           0.247  
> 2023 05 18 00 01 05.7688020  0  6                     
G02  24406460.639      234653.778        3932.154           0.239  
G03  22278214.188      -29989.100        -591.805           0.255  
G04  23776976.535     -141573.309       -2877.550           0.244  
G05  22517635.895      136153.013        2691.901           0.255  
G06  20630005.086      -21847.217        -526.122           0.255  
G07  23540667.964      -65224.186       -1840.822           0.247  
> 2023 05 18 00 01 05.8688020  0  6                     
G02  24406386.104      235047.010        3932.769           0.239  
G03  22278225.180      -30048.311        -591.873           0.255  
G04  23777030.987     -141861.023       -2877.605           0.244  
G05  22517584.645      136421.838        2688.798           0.255  
G06  20630015.497      -21899.833        -525.845           0.255  
G07  23540703.987      -65407.099       -1830.358           0.247  
> 2023 05 18 00 01 05.9688020  0  6                     
G02  24406311.597      235440.241        3932.412           0.239  
G03  22278236.883      -30107.535        -592.615           0.255  
G04  23777085.728     -142148.745       -2876.984           0.244  
G05  22517533.266      136690.763        2689.170           0.255  
G06  20630025.346      -21952.457        -525.764           0.255  
G07  23540738.367      -65590.174       -1831.293           0.247  
> 2023 05 18 00 01 06.0688020  0  7                     
G02  24406236.769      235833.456        3931.593           0.239  
G03  22278247.967      -30166.757        -592.654           0.255  
G04  23777140.474     -142436.465       -2877.650           0.244  
G05  22517482.957      136959.679        2689.100           0.255  
G06  20630034.807      -22005.083        -525.980           0.255  
G07  23540773.842      -65773.244       -1830.277           0.247  
G09  23017324.788      -62773.264       -1937.811           0.252  
> 2023 05 18 00 01 06.1688020  0  7                     
G02  24406161.479      236226.606        3917.112           0.239  
G03  22278258.297      -30225.986        -592.518           0.255  
G04  23777195.223     -142724.181       -2877.189           0.244  
G05  22517431.553      137228.591        2688.651           0.255  
G06  20630045.238      -22057.715        -526.243           0.255  
G07  23540808.518      -65956.344       -1817.214           0.247  
G09  23017361.865      -62967.052       -1937.461           0.252  
> 2023 05 18 00 01 06.2688020  0  7                     
G02  24406086.194      236619.916        3932.470           0.239  
G03  22278271.058      -30285.389        -600.738           0.255  
G04  23777250.451     -143011.909       -2877.309           0.244  
G05  22517380.261      137497.505        2688.917           0.255  
G06  20630054.605      -22110.355        -526.534           0.255  
G07  23540843.211      -66139.493       -1816.527           0.247  
G09  23017398.603      -63160.841       -1937.819           0.252  
> 2023 05 18 00 01 06.3688020  0  7                     
G02  24406012.054      237013.152        3932.224           0.239  
G03  22278282.426      -30344.458        -592.242           0.255  
G04  23777305.345     -143299.630       -2876.529           0.244  
G05  22517329.002      137766.409        2689.016           0.255  
G06  20630064.954      -22162.996        -526.546           0.255  
G07  23540877.778      -66322.503       -1830.716           0.247  
G09  23017435.444      -63354.634       -1937.744           0.252  
> 2023 05 18 00 01 06.4688020  0  7                     
G02  24405937.173      237406.381        3931.717           0.239  
G03  22278293.259      -30403.706        -592.275           0.255  
G04  23777359.702     -143587.355       -2876.949           0.244  
G05  22517277.785      138035.383        2720.687           0.255  
G06  20630074.820      -22215.638        -526.496           0.255  
G07  23540912.739      -66505.514       -1806.851           0.247  
G09  23017472.192      -63548.427       -1937.896           0.252  
> 2023 05 18 00 01 06.5688020  0  7                     
G02  24405862.417      237799.619        3932.545           0.239  
G03  22278304.900      -30462.895        -582.692           0.255  
G04  23777414.788     -143875.085       -2876.988           0.244  
G05  22517226.695      138304.214        2689.141           0.255  
G06  20630085.018      -22268.287        -526.326           0.255  
G07  23540947.319      -66688.640       -1811.834           0.247  
G09  23017508.971      -63742.220       -1938.151           0.252  
> 2023 05 18 00 01 06.6688020  0  7                     
G02  24405787.116      238192.845        3932.246           0.239  
G03  22278313.963      -30522.085        -597.238           0.255  
G04  23777469.561     -144162.806       -2876.680           0.244  
G05  22517176.135      138573.112        2689.374           0.255  
G06  20630095.598      -22320.942        -526.415           0.255  
G07  23540982.133      -66871.789       -1831.162           0.247  
G09  23017546.351      -63936.156       -1956.778           0.252  
> 2023 05 18 00 01 06.7688020  0  7                     
G02  24405711.509      238586.084        3931.971           0.239  
G03  22278328.123      -30581.481        -592.745           0.255  
G04  23777523.866     -144450.536       -2876.900           0.244  
G05  22517124.345      138842.010        2689.262           0.255  
G06  20630104.804      -22373.607        -526.537           0.255  
G07  23541017.637      -67054.896       -1831.235           0.247  
G09  23017583.052      -64129.806       -1937.880           0.252  
> 2023 05 18 00 01 06.8688020  0  7                     
G02  24405637.681      238979.316        3932.213           0.239  
G03  22278338.044      -30640.755        -593.198           0.255  
G04  23777578.728     -144738.274       -2877.323           0.244  
G05  22517073.278      139110.894        2688.339           0.255  
G06  20630115.706      -22426.273        -526.831           0.255  
G07  23541052.210      -67237.998       -1830.991           0.247  
G09  23017620.224      -64323.607       -1937.982           0.251  
> 2023 05 18 00 01 06.9688020  0  7                     
G02  24405562.581      239372.612        3921.827           0.239  
G03  22278350.402      -30700.036        -592.754           0.255  
G04  23777633.432     -145026.003       -2877.231           0.244  
G05  22517021.879      139379.791        2688.884           0.255  
G06  20630124.482      -22478.942        -526.682           0.255  
G07  23541087.125      -67421.083       -1813.113           0.247  
G09  23017656.916      -64517.406       -1938.124           0.251  
> 2023 05 18 00 01 07.0688020  0  7                     
G02  24405487.968      239765.611        3925.624           0.239  
G03  22278361.370      -30759.355        -598.746           0.255  
G04  23777687.572     -145313.774       -2878.311           0.244  
G05  22516970.770      139648.680        2689.481           0.255  
G06  20630135.103      -22531.614        -526.807           0.255  
G07  23541122.606      -67604.191       -1837.546           0.247  
G09  23017693.765      -64711.126       -1909.525           0.251  
> 2023 05 18 00 01 07.1688020  0  7                     
G02  24405413.066      240159.008        3932.963           0.239  
G03  22278372.249      -30818.827        -630.742           0.255  
G04  23777742.844     -145601.235       -2841.029           0.244  
G05  22516919.302      139917.556        2688.963           0.255  
G06  20630145.175      -22584.291        -526.533           0.255  
G07  23541156.645      -67787.341       -1831.177           0.247  
G09  23017730.468      -64905.004       -1937.512           0.252  
> 2023 05 18 00 01 07.2688020  0  7                     
G02  24405338.548      240552.245        3932.823           0.239  
G03  22278384.083      -30877.904        -592.892           0.255  
G04  23777797.134     -145889.207       -2877.575           0.244  
G05  22516868.063      140186.432        2688.804           0.255  
G06  20630154.767      -22636.980        -526.794           0.255  
G07  23541191.750      -67970.463       -1831.179           0.247  
G09  23017767.137      -65098.801       -1937.654           0.251  
> 2023 05 18 00 01 07.3688020  0  7                     
G02  24405263.870      240945.468        3932.291           0.239  
G03  22278394.846      -30937.360        -594.945           0.255  
G04  23777852.519     -146176.946       -2877.760           0.244  
G05  22516817.098      140455.306        2689.045           0.255  
G06  20630164.760      -22689.664        -526.965           0.255  
G07  23541226.219      -68153.585       -1830.950           0.247  
G09  23017804.382      -65292.597       -1937.662           0.252  
> 2023 05 18 00 01 07.4688020  0  7                     
G02  24405189.302      241338.708        3932.094           0.239  
G03  22278406.218      -30996.511        -592.340           0.255  
G04  23777907.506     -146464.687       -2878.278           0.244  
G05  22516766.231      140724.175        2689.008           0.255  
G06  20630174.797      -22742.358        -527.300           0.255  
G07  23541261.520      -68336.720       -1831.334           0.247  
G09  23017841.197      -65486.405       -1938.176           0.252  
> 2023 05 18 00 01 07.5688020  0  7                     
G02  24405114.587      241731.938        3932.679           0.239  
G03  22278417.211      -31055.830        -592.996           0.255  
G04  23777961.669     -146752.432       -2877.017           0.244  
G05  22516714.926      140993.044        2689.242           0.255  
G06  20630185.327      -22795.057        -527.090           0.255  
G07  23541296.697      -68519.852       -1831.563           0.247  
G09  23017878.065      -65680.211       -1938.158           0.252  
> 2023 05 18 00 01 07.6688020  0  7                     
G02  24405039.050      242125.172        3932.243           0.239  
G03  22278428.207      -31115.148        -593.314           0.255  
G04  23778017.015     -147040.176       -2876.393           0.244  
G05  22516664.039      141261.904        2688.339           0.255  
G06  20630195.419      -22847.761        -527.097           0.255  
G07  23541330.992      -68702.992       -1832.159           0.247  
G09  23017914.604      -65874.015       -1938.100           0.251  
> 2023 05 18 00 01 07.7688020  0  7                     
G02  24404964.367      242518.443        3948.917           0.239  
G03  22278439.658      -31174.393        -572.024           0.255  
G04  23778071.963     -147327.601       -2851.910           0.244  
G05  22516612.422      141530.764        2688.605           0.255  
G06  20630205.650      -22900.465        -527.041           0.255  
G07  23541365.755      -68886.334       -1802.573           0.247  
G09  23017951.594      -66067.820       -1938.484           0.252  
> 2023 05 18 00 01 07.8688020  0  7                     
G02  24404889.696      242911.465        3919.751           0.239  
G03  22278451.006      -31233.810        -593.282           0.255  
G04  23778125.911     -147615.411       -2822.630           0.244  
G05  22516561.345      141799.620        2688.669           0.255  
G06  20630215.253      -22953.173        -526.968           0.255  
G07  23541400.565      -69069.411       -1863.686           0.247  
G09  23017988.653      -66261.624       -1938.556           0.251  
> 2023 05 18 00 01 07.9688020  0  7                     
G02  24404813.887      243304.865        3932.508           0.239  
G03  22278461.489      -31293.145        -593.015           0.255  
G04  23778180.732     -147903.410       -2877.488           0.244  
G05  22516510.493      142068.470        2688.472           0.255  
G06  20630225.697      -23005.890        -527.064           0.255  
G07  23541435.627      -69252.423       -1831.591           0.247  
G09  23018025.689      -66455.435       -1938.229           0.251  
> 2023 05 18 00 01 08.0688020  0  7                     
G02  24404739.735      243698.102        3932.800           0.239  
G03  22278473.501      -31352.495        -593.370           0.255  
G04  23778236.283     -148191.143       -2877.572           0.244  
G05  22516459.285      142337.324        2689.128           0.255  
G06  20630235.569      -23058.612        -527.307           0.255  
G07  23541470.675      -69435.581       -1832.115           0.247  
G09  23018062.539      -66649.244       -1937.848           0.251  
> 2023 05 18 00 01 08.1688020  0  7                     
G02  24404665.286      244091.334        3932.571           0.239  
G03  22278484.596      -31411.844        -593.592           0.255  
G04  23778289.492     -148478.902       -2877.819           0.244  
G05  22516407.747      142606.175        2688.809           0.255  
G06  20630245.967      -23111.337        -527.545           0.255  
G07  23541505.142      -69618.735       -1831.699           0.247  
G09  23018099.540      -66843.053       -1937.340           0.251  
> 2023 05 18 00 01 08.2688020  0  7                     
G02  24404590.004      244484.535        3931.524           0.239  
G03  22278494.885      -31471.202        -593.837           0.255  
G04  23778344.991     -148766.651       -2876.980           0.244  
G05  22516356.726      142875.021        2688.974           0.255  
G06  20630255.857      -23164.064        -527.254           0.255  
G07  23541539.881      -69801.894       -1832.003           0.248  
G09  23018135.878      -67036.865       -1937.599           0.252  
> 2023 05 18 00 01 08.3688020  0  7                     
G02  24404514.997      244877.763        3932.323           0.239  
G03  22278507.552      -31530.569        -594.133           0.255  
G04  23778399.796     -149054.408       -2877.369           0.244  
G05  22516305.503      143143.863        2688.583           0.255  
G06  20630265.912      -23216.797        -526.943           0.255  
G07  23541574.610      -69985.052       -1831.266           0.247  
G09  23018173.367      -67230.681       -1938.497           0.252  
> 2023 05 18 00 01 08.4688020  0  7                     
G02  24404442.021      245270.996        3932.839           0.239  
G03  22278519.088      -31589.930        -593.299           0.255  
G04  23778455.164     -149342.144       -2876.848           0.244  
G05  22516255.007      143412.705        2688.481           0.255  
G06  20630274.993      -23269.542        -527.831           0.255  
G07  23541610.073      -70168.230       -1832.164           0.247  
G09  23018209.457      -67424.489       -1938.003           0.251  
> 2023 05 18 00 01 08.5688020  0  7                     
G02  24404366.639      245664.221        3932.589           0.239  
G03  22278530.129      -31649.307        -593.383           0.255  
G04  23778509.869     -149629.887       -2877.231           0.244  
G05  22516203.512      143681.537        2687.740           0.255  
G06  20630285.305      -23322.282        -527.553           0.255  
G07  23541643.959      -70351.405       -1831.838           0.247  
G09  23018246.646      -67618.307       -1938.288           0.251  
> 2023 05 18 00 01 08.6688020  0  7                     
G02  24404291.963      246057.444        3931.996           0.239  
G03  22278541.670      -31708.690        -593.339           0.255  
G04  23778564.392     -149917.647       -2875.841           0.244  
G05  22516152.500      143950.377        2688.557           0.255  
G06  20630295.164      -23375.027        -527.513           0.255  
G07  23541678.496      -70534.577       -1832.449           0.247  
G09  23018283.652      -67812.128       -1939.135           0.252  
> 2023 05 18 00 01 08.7688020  0  7                     
G02  24404216.765      246450.667        3932.121           0.239  
G03  22278552.299      -31767.969        -587.945           0.255  
G04  23778619.868     -150205.413       -2876.433           0.244  
G05  22516101.036      144219.350        2706.950           0.255  
G06  20630305.913      -23427.782        -527.633           0.255  
G07  23541712.996      -70717.749       -1832.441           0.247  
G09  23018320.259      -68005.941       -1938.259           0.252  
> 2023 05 18 00 01 08.8688020  0  7                     
G02  24404141.445      246843.898        3932.979           0.239  
G03  22278564.261      -31827.481        -595.030           0.255  
G04  23778673.879     -150493.169       -2877.639           0.244  
G05  22516049.803      144488.031        2688.010           0.255  
G06  20630315.654      -23480.537        -527.280           0.255  
G07  23541748.569      -70900.936       -1831.730           0.247  
G09  23018357.297      -68199.752       -1937.552           0.252  
> 2023 05 18 00 01 08.9688020  0  7                     
G02  24404066.372      247237.123        3932.864           0.239  
G03  22278575.409      -31886.860        -574.452           0.255  
G04  23778727.697     -150780.926       -2878.112           0.244  
G05  22515998.712      144756.730        2662.892           0.255  
G06  20630325.967      -23533.302        -527.818           0.255  
G07  23541784.472      -71084.117       -1831.162           0.247  
G09  23018394.461      -68393.622       -1950.148           0.252  
> 2023 05 18 00 01 09.0688020  0  7                     
G02  24403991.622      247630.346        3931.967           0.239  
G03  22278587.843      -31946.202        -582.231           0.255  
G04  23778784.176     -151068.679       -2877.834           0.244  
G05  22515947.203      145025.843        2704.944           0.255  
G06  20630335.454      -23586.065        -527.695           0.255  
G07  23541817.834      -71267.323       -1832.091           0.247  
G09  23018431.747      -68587.365       -1928.657           0.251  
> 2023 05 18 00 01 09.1688020  0  7                     
G02  24403917.079      248023.570        3932.039           0.239  
G03  22278599.018      -32005.694        -594.510           0.255  
G04  23778838.535     -151356.443       -2877.568           0.244  
G05  22515896.095      145294.498        2687.908           0.255  
G06  20630345.411      -23638.834        -527.407           0.255  
G07  23541852.951      -71450.519       -1832.142           0.247  
G09  23018468.413      -68781.218       -1937.947           0.252  
> 2023 05 18 00 01 09.2688020  0  7                     
G02  24403842.000      248416.798        3932.253           0.239  
G03  22278608.905      -32065.108        -594.367           0.255  
G04  23778893.091     -151644.209       -2878.433           0.244  
G05  22515845.331      145563.313        2688.111           0.255  
G06  20630355.835      -23691.611        -527.606           0.255  
G07  23541888.309      -71633.713       -1831.544           0.247  
G09  23018505.014      -68975.040       -1938.435           0.252  
> 2023 05 18 00 01 09.3688020  0  7                     
G02  24403766.970      248810.018        3931.953           0.240  
G03  22278620.502      -32124.534        -593.912           0.255  
G04  23778947.597     -151931.951       -2875.873           0.244  
G05  22515794.282      145832.128        2688.206           0.255  
G06  20630366.248      -23744.391        -527.944           0.255  
G07  23541923.713      -71817.142       -1865.239           0.247  
G09  23018541.734      -69169.076       -1965.443           0.251  
> 2023 05 18 00 01 09.4688020  0  7                     
G02  24403692.643      249203.358        3960.946           0.239  
G03  22278631.863      -32183.961        -594.345           0.255  
G04  23779001.987     -152219.721       -2877.040           0.244  
G05  22515742.773      146100.696        2657.654           0.255  
G06  20630375.968      -23797.176        -528.230           0.255  
G07  23541958.605      -72000.173       -1826.871           0.247  
G09  23018578.623      -69362.691       -1938.028           0.252  
> 2023 05 18 00 01 09.5688020  0  7                     
G02  24403617.054      249596.629        3934.014           0.239  
G03  22278643.339      -32243.403        -594.562           0.255  
G04  23779056.967     -152507.495       -2877.341           0.244  
G05  22515692.277      146369.742        2687.684           0.255  
G06  20630385.692      -23849.960        -527.553           0.255  
G07  23541992.813      -72183.058       -1774.099           0.247  
G09  23018615.845      -69556.515       -1938.511           0.251  
> 2023 05 18 00 01 09.6688020  0  7                     
G02  24403542.534      249989.680        3931.461           0.239  
G03  22278655.188      -32302.847        -594.652           0.255  
G04  23779112.918     -152795.283       -2878.188           0.244  
G05  22515640.914      146638.549        2687.712           0.255  
G06  20630395.274      -23902.758        -527.673           0.255  
G07  23542027.951      -72366.543       -1831.798           0.247  
G09  23018652.081      -69750.340       -1938.229           0.251  
> 2023 05 18 00 01 09.7688020  0  7                     
G02  24403466.540      250382.913        3932.099           0.239  
G03  22278665.823      -32362.298        -594.969           0.255  
G04  23779167.283     -153083.044       -2877.846           0.244  
G05  22515589.430      146907.334        2683.498           0.255  
G06  20630405.981      -23955.560        -527.657           0.255  
G07  23542063.059      -72549.764       -1831.592           0.247  
G09  23018689.636      -69944.168       -1938.461           0.251  
> 2023 05 18 00 01 09.8688020  0  7                     
G02  24403392.838      250776.143        3931.911           0.239  
G03  22278677.374      -32421.748        -594.248           0.255  
G04  23779222.035     -153370.819       -2878.892           0.244  
G05  22515538.099      147176.145        2687.853           0.255  
G06  20630416.078      -24008.366        -528.077           0.255  
G07  23542097.738      -72732.984       -1832.096           0.248  
G09  23018726.363      -70138.002       -1938.477           0.252  
> 2023 05 18 00 01 09.9688020  0  7                     
G02  24403318.865      251169.363        3931.879           0.239  
G03  22278689.576      -32481.214        -594.386           0.255  
G04  23779276.205     -153658.581       -2875.575           0.244  
G05  22515486.770      147444.938        2687.815           0.255  
G06  20630426.024      -24061.167        -527.682           0.255  
G07  23542132.033      -72916.208       -1833.583           0.247  
G09  23018763.568      -70331.829       -1938.493           0.252  
> 2023 05 18 00 01 10.0688020  0  7                     
G02  24403243.173      251562.587        3932.195           0.239  
G03  22278701.366      -32540.676        -594.852           0.255  
G04  23779329.651     -153946.362       -2877.660           0.244  
G05  22515435.924      147713.731        2688.036           0.255  
G06  20630435.820      -24113.982        -527.858           0.255  
G07  23542169.081      -73099.434       -1832.030           0.247  
G09  23018800.345      -70525.658       -1938.459           0.252  
> 2023 05 18 00 01 10.1688020  0  7                     
G02  24403168.847      251955.811        3932.838           0.239  
G03  22278712.527      -32600.146        -594.672           0.255  
G04  23779384.388     -154234.300       -2914.012           0.244  
G05  22515384.627      147982.442        2674.667           0.255  
G06  20630445.690      -24166.804        -527.776           0.255  
G07  23542203.149      -73282.674       -1832.729           0.247  
G09  23018837.264      -70719.741       -1963.657           0.251  
> 2023 05 18 00 01 10.2688020  0  7                     
G02  24403093.550      252349.040        3931.988           0.239  
G03  22278721.967      -32659.631        -594.175           0.255  
G04  23779438.852     -154521.916       -2879.038           0.244  
G05  22515333.606      148251.370        2709.993           0.255  
G06  20630456.597      -24219.623        -528.264           0.255  
G07  23542238.477      -73465.898       -1831.009           0.247  
G09  23018874.094      -70913.246       -1932.608           0.251  
> 2023 05 18 00 01 10.3688020  0  7                     
G02  24403018.613      252742.263        3932.165           0.239  
G03  22278734.730      -32719.112        -594.907           0.255  
G04  23779495.135     -154809.685       -2878.159           0.244  
G05  22515282.537      148520.088        2688.313           0.255  
G06  20630466.293      -24272.450        -527.882           0.255  
G07  23542272.156      -73649.147       -1832.086           0.247  
G09  23018910.973      -71107.161       -1938.254           0.251  
> 2023 05 18 00 01 10.4688020  0  7                     
G02  24402944.115      253135.482        3931.728           0.239  
G03  22278745.094      -32778.604        -595.177           0.255  
G04  23779550.694     -155097.458       -2878.564           0.244  
G05  22515231.299      148788.868        2688.211           0.255  
G06  20630476.388      -24325.284        -528.237           0.255  
G07  23542306.483      -73832.389       -1832.402           0.247  
G09  23018947.792      -71300.999       -1938.302           0.252  
> 2023 05 18 00 01 10.5688020  0  7                     
G02  24402869.130      253528.718        3931.935           0.239  
G03  22278756.550      -32838.096        -594.033           0.255  
G04  23779606.334     -155385.234       -2877.589           0.244  
G05  22515180.627      149057.640        2687.450           0.255  
G06  20630486.011      -24378.125        -528.536           0.255  
G07  23542340.910      -74015.624       -1846.888           0.247  
G09  23018984.469      -71494.834       -1938.407           0.252  
> 2023 05 18 00 01 10.6688020  0  7                     
G02  24402793.349      253921.948        3932.617           0.239  
G03  22278767.984      -32897.872        -604.610           0.255  
G04  23779660.432     -155673.013       -2876.955           0.244  
G05  22515129.534      149326.416        2687.574           0.255  
G06  20630496.699      -24430.960        -528.564           0.255  
G07  23542376.459      -74198.891       -1832.913           0.247  
G09  23019021.678      -71688.670       -1938.381           0.252  
> 2023 05 18 00 01 10.7688020  0  7                     
G02  24402718.981      254315.171        3932.285           0.239  
G03  22278779.152      -32957.120        -595.330           0.255  
G04  23779713.655     -155960.796       -2877.306           0.244  
G05  22515078.721      149595.183        2687.890           0.255  
G06  20630506.521      -24483.807        -528.589           0.255  
G07  23542412.349      -74382.143       -1832.854           0.247  
G09  23019058.637      -71882.508       -1938.356           0.252  
> 2023 05 18 00 01 10.8688020  0  7                     
G02  24402645.373      254708.399        3932.196           0.239  
G03  22278791.140      -33016.631        -596.100           0.255  
G04  23779769.983     -156248.575       -2877.508           0.244  
G05  22515026.757      149863.947        2687.365           0.255  
G06  20630516.076      -24536.658        -528.554           0.255  
G07  23542446.681      -74565.399       -1832.356           0.247  
G09  23019094.982      -72076.352       -1938.495           0.251  
> 2023 05 18 00 01 10.9688020  0  7                     
G02  24402569.813      255101.626        3932.016           0.239  
G03  22278801.487      -33076.150        -595.071           0.255  
G04  23779824.023     -156536.355       -2877.642           0.244  
G05  22514975.775      150132.715        2687.755           0.255  
G06  20630527.103      -24589.514        -528.813           0.255  
G07  23542481.665      -74748.664       -1832.670           0.247  
G09  23019132.013      -72270.195       -1938.605           0.252  
> 2023 05 18 00 01 11.0688020  0  7                     
G02  24402495.493      255494.846        3931.711           0.239  
G03  22278812.984      -33135.680        -595.588           0.255  
G04  23779879.373     -156824.507       -2914.267           0.244  
G05  22514924.320      150401.375        2682.456           0.255  
G06  20630536.826      -24642.370        -528.826           0.255  
G07  23542515.498      -74932.244       -1906.859           0.247  
G09  23019169.287      -72464.035       -1938.162           0.251  
> 2023 05 18 00 01 11.1688020  0  7                     
G02  24402420.617      255888.079        3932.648           0.239  
G03  22278824.480      -33195.451        -628.894           0.255  
G04  23779933.246     -157112.245       -2934.479           0.243  
G05  22514873.468      150670.230        2687.541           0.255  
G06  20630546.659      -24695.232        -528.480           0.255  
G07  23542550.602      -75115.197       -1832.974           0.247  
G09  23019205.776      -72657.726       -1907.792           0.252  
> 2023 05 18 00 01 11.2688020  0  7                     
G02  24402346.030      256281.304        3932.998           0.239  
G03  22278835.734      -33254.750        -595.056           0.255  
G04  23779988.488     -157399.720       -2877.071           0.244  
G05  22514822.641      150938.992        2687.591           0.255  
G06  20630556.730      -24748.110        -529.329           0.255  
G07  23542585.279      -75298.476       -1833.669           0.247  
G09  23019242.371      -72851.786       -1942.355           0.252  
> 2023 05 18 00 01 11.3688020  0  7                     
G02  24402269.731      256674.532        3932.157           0.239  
G03  22278848.071      -33314.301        -595.688           0.255  
G04  23780042.809     -157687.506       -2876.568           0.244  
G05  22514771.318      151207.833        2704.336           0.255  
G06  20630566.524      -24800.981        -528.696           0.255  
G07  23542620.974      -75481.748       -1833.413           0.247  
G09  23019279.960      -73045.576       -1938.786           0.251  
> 2023 05 18 00 01 11.4688020  0  7                     
G02  24402196.359      257067.752        3932.733           0.239  
G03  22278858.831      -33373.855        -595.758           0.255  
G04  23780097.730     -157975.298       -2878.513           0.244  
G05  22514720.322      151476.493        2687.412           0.255  
G06  20630576.554      -24853.854        -528.638           0.255  
G07  23542655.810      -75665.035       -1832.578           0.247  
G09  23019315.858      -73239.419       -1938.403           0.251  
> 2023 05 18 00 01 11.5688020  0  7                     
G02  24402120.916      257460.987        3932.473           0.239  
G03  22278871.260      -33433.414        -594.917           0.255  
G04  23780153.560     -158263.085       -2877.358           0.244  
G05  22514668.876      151745.219        2687.354           0.255  
G06  20630586.705      -24906.732        -528.681           0.255  
G07  23542690.370      -75848.313       -1833.362           0.247  
G09  23019352.732      -73433.264       -1938.263           0.251  
> 2023 05 18 00 01 11.6688020  0  7                     
G02  24402046.037      257854.214        3932.394           0.239  
G03  22278880.154      -33492.991        -596.352           0.255  
G04  23780207.431     -158550.873       -2876.749           0.244  
G05  22514618.349      152013.964        2687.279           0.255  
G06  20630597.643      -24959.617        -528.469           0.255  
G07  23542725.486      -76031.607       -1832.935           0.247  
G09  23019389.594      -73627.113       -1938.531           0.252  
> 2023 05 18 00 01 11.7688020  0  7                     
G02  24401972.094      258247.395        3912.680           0.239  
G03  22278891.885      -33552.546        -596.125           0.255  
G04  23780261.837     -158838.669       -2877.010           0.244  
G05  22514566.633      152282.756        2692.842           0.255  
G06  20630607.385      -25012.520        -529.063           0.255  
G07  23542760.388      -76214.901       -1833.047           0.247  
G09  23019426.793      -73821.294       -1993.924           0.251  
> 2023 05 18 00 01 11.8688020  0  7                     
G02  24401896.630      258640.656        3932.004           0.239  
G03  22278904.011      -33612.121        -595.478           0.255  
G04  23780316.511     -159126.465       -2878.342           0.244  
G05  22514515.424      152551.441        2687.316           0.255  
G06  20630617.470      -25065.407        -528.751           0.255  
G07  23542795.153      -76398.197       -1833.240           0.247  
G09  23019464.060      -74014.818       -1938.916           0.251  
> 2023 05 18 00 01 11.9688020  0  7                     
G02  24401821.809      259033.882        3932.318           0.239  
G03  22278914.576      -33671.494        -573.522           0.255  
G04  23780370.495     -159414.263       -2877.770           0.244  
G05  22514464.267      152820.173        2687.502           0.255  
G06  20630627.877      -25118.308        -529.119           0.255  
G07  23542830.534      -76581.224       -1815.829           0.247  
G09  23019500.856      -74208.678       -1938.523           0.252  
> 2023 05 18 00 01 12.0688020  0  7                     
G02  24401746.947      259427.106        3931.631           0.239  
G03  22278927.251      -33731.297        -596.046           0.255  
G04  23780426.480     -159702.064       -2877.447           0.244  
G05  22514413.412      153088.903        2687.276           0.255  
G06  20630636.954      -25171.217        -529.099           0.255  
G07  23542864.830      -76764.800       -1833.354           0.247  
G09  23019536.892      -74402.532       -1938.383           0.252  
> 2023 05 18 00 01 12.1688020  0  7                     
G02  24401672.058      259820.335        3931.811           0.239  
G03  22278940.355      -33790.922        -588.733           0.255  
G04  23780480.782     -159989.856       -2878.460           0.244  
G05  22514361.652      153357.687        2685.732           0.255  
G06  20630646.632      -25224.128        -529.230           0.255  
G07  23542899.569      -76948.254       -1840.309           0.247  
G09  23019574.997      -74596.537       -1964.518           0.252  
> 2023 05 18 00 01 12.2688020  0  7                     
G02  24401596.464      260213.559        3931.147           0.240  
G03  22278948.811      -33850.503        -596.246           0.255  
G04  23780535.406     -160277.663       -2878.735           0.244  
G05  22514311.005      153626.358        2687.104           0.255  
G06  20630658.224      -25277.034        -528.714           0.255  
G07  23542934.380      -77131.424       -1832.791           0.247  
G09  23019611.733      -74790.241       -1938.239           0.252  
> 2023 05 18 00 01 12.3688020  0  7                     
G02  24401521.853      260606.792        3932.224           0.239  
G03  22278960.062      -33910.105        -596.380           0.255  
G04  23780590.281     -160565.457       -2878.104           0.244  
G05  22514259.918      153895.077        2687.368           0.255  
G06  20630667.958      -25329.959        -529.195           0.255  
G07  23542969.242      -77314.738       -1833.436           0.247  
G09  23019648.837      -74984.100       -1938.438           0.252  
> 2023 05 18 00 01 12.4688020  0  7                     
G02  24401447.028      261000.017        3932.755           0.239  
G03  22278971.862      -33969.715        -595.971           0.255  
G04  23780645.003     -160853.264       -2878.308           0.244  
G05  22514208.740      154163.797        2687.212           0.255  
G06  20630677.612      -25382.880        -528.984           0.255  
G07  23543004.603      -77498.056       -1833.412           0.247  
G09  23019685.691      -75177.959       -1938.401           0.252  
> 2023 05 18 00 01 12.5688020  0  7                     
G02  24401372.698      261393.243        3932.704           0.239  
G03  22278983.649      -34029.333        -596.393           0.255  
G04  23780700.069     -161141.873       -3019.953           0.244  
G05  22514157.721      154432.557        2693.804           0.255  
G06  20630687.931      -25435.810        -529.184           0.255  
G07  23543039.531      -77681.197       -1803.804           0.247  
G09  23019722.291      -75371.665       -1936.100           0.252  
> 2023 05 18 00 01 12.6688020  0  7                     
G02  24401297.103      261786.463        3932.423           0.239  
G03  22278993.463      -34088.641        -588.976           0.255  
G04  23780755.654     -161428.881       -2879.154           0.244  
G05  22514106.830      154701.268        2684.425           0.255  
G06  20630698.160      -25488.742        -529.261           0.255  
G07  23543074.215      -77864.702       -1832.866           0.247  
G09  23019759.603      -75566.031       -1995.736           0.252  
> 2023 05 18 00 01 12.7688020  0  7                     
G02  24401222.936      262179.694        3932.151           0.239  
G03  22279005.708      -34148.280        -548.923           0.255  
G04  23780811.066     -161716.680       -2878.067           0.244  
G05  22514055.814      154969.845        2676.209           0.255  
G06  20630707.640      -25541.684        -529.512           0.255  
G07  23543108.799      -78048.036       -1833.349           0.247  
G09  23019796.250      -75759.918       -2020.304           0.252  
> 2023 05 18 00 01 12.8688020  0  7                     
G02  24401147.865      262572.917        3932.302           0.239  
G03  22279017.593      -34208.224        -595.837           0.255  
G04  23780864.899     -162004.477       -2876.588           0.244  
G05  22514004.256      155238.640        2687.433           0.255  
G06  20630718.267      -25594.620        -529.690           0.255  
G07  23543144.196      -78231.375       -1833.721           0.247  
G09  23019832.619      -75953.404       -1938.387           0.252  
> 2023 05 18 00 01 12.9688020  0  7                     
G02  24401072.952      262966.148        3931.909           0.239  
G03  22279028.773      -34267.728        -589.596           0.255  
G04  23780919.238     -162292.286       -2876.810           0.244  
G05  22513953.334      155507.315        2674.078           0.255  
G06  20630728.142      -25647.569        -529.553           0.255  
G07  23543178.745      -78414.714       -1833.549           0.247  
G09  23019869.642      -76147.272       -1938.806           0.252  
> 2023 05 18 00 01 13.0688020  0  7                     
G02  24400999.190      263359.370        3931.635           0.239  
G03  22279039.747      -34327.513        -596.209           0.255  
G04  23780973.242     -162580.097       -2876.410           0.244  
G05  22513901.563      155776.002        2673.795           0.255  
G06  20630738.218      -25700.530        -529.993           0.255  
G07  23543214.168      -78598.052       -1832.900           0.247  
G09  23019906.792      -76340.624       -1873.555           0.252  
> 2023 05 18 00 01 13.1688020  0  7                     
G02  24400922.971      263752.594        3931.448           0.239  
G03  22279050.738      -34387.171        -595.948           0.255  
G04  23781028.113     -162867.906       -2875.871           0.244  
G05  22513851.058      156044.730        2686.919           0.255  
G06  20630748.739      -25753.479        -529.796           0.255  
G07  23543248.895      -78781.399       -1833.014           0.247  
G09  23019943.883      -76535.011       -1939.513           0.251  
> 2023 05 18 00 01 13.2688020  0  7                     
G02  24400849.394      264145.822        3931.765           0.239  
G03  22279062.567      -34446.852        -596.311           0.255  
G04  23781082.893     -163155.712       -2876.536           0.244  
G05  22513799.199      156313.418        2686.698           0.255  
G06  20630758.463      -25806.431        -529.546           0.255  
G07  23543283.818      -78964.754       -1833.919           0.247  
G09  23019980.451      -76728.880       -1939.094           0.252  
> 2023 05 18 00 01 13.3688020  0  7                     
G02  24400773.944      264539.054        3932.954           0.239  
G03  22279073.748      -34506.513        -610.327           0.255  
G04  23781137.895     -163443.543       -2878.954           0.244  
G05  22513748.405      156582.183        2705.135           0.255  
G06  20630768.414      -25859.406        -529.376           0.255  
G07  23543318.998      -79148.053       -1843.573           0.247  
G09  23020017.003      -76922.736       -1937.733           0.252  
> 2023 05 18 00 01 13.4688020  0  7                     
G02  24400699.041      264932.276        3932.742           0.239  
G03  22279086.741      -34566.018        -573.493           0.255  
G04  23781192.609     -163731.361       -2878.912           0.244  
G05  22513696.964      156850.792        2687.027           0.255  
G06  20630777.980      -25912.377        -529.395           0.255  
G07  23543353.526      -79331.613       -1858.378           0.247  
G09  23020054.212      -77116.613       -1938.167           0.252  
> 2023 05 18 00 01 13.5688020  0  7                     
G02  24400624.174      265325.504        3931.631           0.239  
G03  22279097.819      -34625.861        -596.803           0.255  
G04  23781247.771     -164019.180       -2879.262           0.244  
G05  22513646.170      157119.475        2686.917           0.255  
G06  20630788.406      -25965.353        -529.845           0.255  
G07  23543388.149      -79514.826       -1834.321           0.247  
G09  23020091.292      -77310.480       -1937.518           0.252  
> 2023 05 18 00 01 13.6688020  0  7                     
G02  24400550.372      265718.731        3932.835           0.239  
G03  22279109.068      -34685.553        -596.969           0.255  
G04  23781303.745     -164306.994       -2879.642           0.244  
G05  22513595.268      157388.147        2686.752           0.255  
G06  20630798.162      -26018.331        -530.089           0.255  
G07  23543422.838      -79698.023       -1790.846           0.247  
G09  23020127.869      -77504.397       -1957.476           0.251  
> 2023 05 18 00 01 13.7688020  0  7                     
G02  24400474.443      266111.950        3932.086           0.239  
G03  22279119.948      -34745.247        -596.462           0.255  
G04  23781357.779     -164594.821       -2879.925           0.244  
G05  22513543.817      157656.830        2686.796           0.255  
G06  20630808.497      -26071.308        -529.742           0.255  
G07  23543458.363      -79881.552       -1832.384           0.247  
G09  23020164.988      -77698.227       -1937.950           0.251  
> 2023 05 18 00 01 13.8688020  0  7                     
G02  24400399.768      266505.181        3932.219           0.239  
G03  22279132.562      -34804.940        -595.609           0.255  
G04  23781411.906     -164882.634       -2878.249           0.244  
G05  22513492.595      157925.584        2692.438           0.255  
G06  20630818.453      -26124.306        -530.445           0.255  
G07  23543493.184      -80064.932       -1833.545           0.247  
G09  23020201.571      -77892.101       -1938.892           0.251  
> 2023 05 18 00 01 13.9688020  0  7                     
G02  24400325.384      266898.409        3932.804           0.239  
G03  22279142.780      -34864.648        -596.814           0.255  
G04  23781466.213     -165170.462       -2879.720           0.244  
G05  22513441.735      158194.170        2686.524           0.255  
G06  20630828.497      -26177.297        -530.042           0.255  
G07  23543528.210      -80248.307       -1832.735           0.247  
G09  23020238.382      -78085.978       -1938.999           0.251  
> 2023 05 18 00 01 14.0688020  0  7                     
G02  24400250.156      267291.629        3931.528           0.239  
G03  22279152.878      -34924.355        -596.173           0.255  
G04  23781521.410     -165458.282       -2879.279           0.244  
G05  22513390.545      158462.831        2686.457           0.255  
G06  20630839.345      -26230.296        -530.292           0.255  
G07  23543563.212      -80431.684       -1833.486           0.247  
G09  23020276.164      -78279.857       -1938.735           0.251  
> 2023 05 18 00 01 14.1688020  0  7                     
G02  24400175.623      267684.862        3932.677           0.239  
G03  22279164.348      -34984.068        -596.111           0.255  
G04  23781576.603     -165746.109       -2878.854           0.244  
G05  22513339.179      158731.498        2686.172           0.255  
G06  20630849.176      -26283.296        -530.075           0.255  
G07  23543598.008      -80614.932       -1810.109           0.247  
G09  23020312.798      -78473.731       -1938.380           0.251  
> 2023 05 18 00 01 14.2688020  0  7                     
G02  24400100.009      268078.090        3933.194           0.239  
G03  22279176.753      -35043.805        -597.643           0.255  
G04  23781632.165     -166033.931       -2878.883           0.244  
G05  22513288.213      159000.156        2686.850           0.255  
G06  20630858.445      -26336.304        -529.590           0.255  
G07  23543633.188      -80798.398       -1818.324           0.247  
G09  23020348.753      -78667.613       -1938.748           0.252  
> 2023 05 18 00 01 14.3688020  0  7                     
G02  24400024.875      268471.683        3965.388           0.239  
G03  22279187.493      -35103.535        -597.231           0.255  
G04  23781686.415     -166321.761       -2878.869           0.244  
G05  22513237.427      159268.704        2666.824           0.255  
G06  20630869.067      -26389.311        -529.436           0.255  
G07  23543667.593      -80981.846       -1832.979           0.247  
G09  23020386.095      -78861.596       -1951.312           0.252  
> 2023 05 18 00 01 14.4688020  0  7                     
G02  24399951.469      268864.537        3931.022           0.239  
G03  22279199.545      -35163.272        -598.133           0.255  
G04  23781741.905     -166609.605       -2878.632           0.244  
G05  22513185.899      159537.475        2693.601           0.255  
G06  20630879.099      -26442.331        -530.515           0.255  
G07  23543702.287      -81165.241       -1833.015           0.247  
G09  23020422.605      -79055.373       -1938.718           0.252  
> 2023 05 18 00 01 14.5688020  0  7                     
G02  24399876.283      269257.744        3931.734           0.239  
G03  22279210.703      -35223.010        -596.318           0.255  
G04  23781795.985     -166897.426       -2878.104           0.244  
G05  22513134.735      159806.123        2686.818           0.255  
G06  20630889.333      -26495.356        -530.866           0.255  
G07  23543737.077      -81348.633       -1823.305           0.247  
G09  23020459.922      -79249.256       -1938.622           0.252  
> 2023 05 18 00 01 14.6688020  0  7                     
G02  24399801.450      269650.970        3932.498           0.239  
G03  22279221.856      -35282.756        -596.809           0.255  
G04  23781850.460     -167185.255       -2878.471           0.244  
G05  22513083.523      160074.737        2675.378           0.255  
G06  20630899.654      -26548.381        -530.042           0.255  
G07  23543772.146      -81532.048       -1833.887           0.247  
G09  23020497.002      -79443.138       -1938.726           0.252  
> 2023 05 18 00 01 14.7688020  0  7                     
G02  24399725.899      270044.200        3933.037           0.239  
G03  22279231.901      -35342.518        -598.004           0.255  
G04  23781904.652     -167473.085       -2878.494           0.244  
G05  22513032.472      160343.416        2686.477           0.255  
G06  20630909.894      -26601.404        -530.264           0.255  
G07  23543807.412      -81715.453       -1834.420           0.247  
G09  23020534.375      -79637.022       -1938.615           0.252  
> 2023 05 18 00 01 14.8688020  0  7                     
G02  24399651.344      270437.422        3932.553           0.239  
G03  22279245.099      -35402.267        -596.795           0.255  
G04  23781959.733     -167760.920       -2878.193           0.244  
G05  22512981.699      160612.057        2686.494           0.255  
G06  20630919.311      -26654.440        -530.159           0.255  
G07  23543842.267      -81898.866       -1834.458           0.247  
G09  23020571.352      -79830.907       -1938.649           0.252  
> 2023 05 18 00 01 14.9688020  0  7                     
G02  24399576.256      270830.536        3904.066           0.239  
G03  22279257.130      -35462.034        -597.122           0.255  
G04  23782015.250     -168048.762       -2878.627           0.244  
G05  22512930.680      160880.625        2681.246           0.255  
G06  20630929.353      -26707.477        -530.347           0.255  
G07  23543876.594      -82082.243       -1824.481           0.247  
G09  23020607.780      -80024.789       -1938.930           0.252  
> 2023 05 18 00 01 15.0688020  0  7                     
G02  24399502.376      271223.871        3932.762           0.239  
G03  22279266.994      -35521.808        -599.051           0.255  
G04  23782070.123     -168336.592       -2878.802           0.244  
G05  22512879.795      161149.330        2686.438           0.255  
G06  20630939.966      -26760.530        -529.882           0.255  
G07  23543911.469      -82265.698       -1834.396           0.247  
G09  23020644.141      -80218.681       -1938.957           0.251  
> 2023 05 18 00 01 15.1688020  0  7                     
G02  24399426.937      271617.098        3932.523           0.239  
G03  22279278.569      -35581.580        -598.486           0.255  
G04  23782123.815     -168624.427       -2878.084           0.244  
G05  22512827.991      161418.197        2674.215           0.255  
G06  20630950.083      -26813.576        -530.051           0.255  
G07  23543946.561      -82449.037       -1819.799           0.247  
G09  23020681.891      -80412.571       -1938.913           0.251  
> 2023 05 18 00 01 15.2688020  0  7                     
G02  24399352.458      272010.332        3932.042           0.239  
G03  22279290.283      -35641.352        -597.503           0.255  
G04  23782178.560     -168912.261       -2878.135           0.244  
G05  22512777.015      161686.577        2686.076           0.255  
G06  20630959.812      -26866.633        -530.948           0.255  
G07  23543981.090      -82632.541       -1834.302           0.247  
G09  23020718.952      -80606.457       -1939.964           0.251  
> 2023 05 18 00 01 15.3688020  0  7                     
G02  24399277.668      272403.554        3932.683           0.239  
G03  22279301.245      -35700.682        -566.056           0.255  
G04  23782232.781     -169200.102       -2878.539           0.244  
G05  22512725.731      161955.203        2685.769           0.255  
G06  20630970.422      -26919.699        -531.464           0.255  
G07  23544016.962      -82815.994       -1830.577           0.247  
G09  23020755.645      -80800.352       -1939.122           0.252  
> 2023 05 18 00 01 15.4688020  0  7                     
G02  24399202.756      272796.777        3932.576           0.239  
G03  22279311.431      -35760.918        -598.517           0.255  
G04  23782287.570     -169487.942       -2878.715           0.244  
G05  22512674.891      162223.829        2686.074           0.255  
G06  20630980.870      -26972.759        -530.850           0.255  
G07  23544051.322      -82999.409       -1834.733           0.247  
G09  23020792.617      -80994.244       -1939.105           0.252  
> 2023 05 18 00 01 15.5688020  0  7                     
G02  24399128.011      273190.005        3932.674           0.239  
G03  22279323.579      -35820.723        -598.696           0.255  
G04  23782342.430     -169775.785       -2878.387           0.244  
G05  22512623.888      162492.449        2685.905           0.255  
G06  20630990.497      -27025.817        -530.887           0.255  
G07  23544086.501      -83182.841       -1834.175           0.247  
G09  23020829.055      -81188.133       -1938.888           0.252  
> 2023 05 18 00 01 15.6688020  0  7                     
G02  24399053.562      273583.232        3932.626           0.239  
G03  22279334.590      -35880.519        -597.194           0.255  
G04  23782397.837     -170063.630       -2878.612           0.244  
G05  22512572.956      162761.068        2686.528           0.255  
G06  20631000.889      -27078.888        -531.168           0.255  
G07  23544121.278      -83366.284       -1834.343           0.247  
G09  23020865.687      -81382.027       -1938.614           0.252  
> 2023 05 18 00 01 15.7688020  0  7                     
G02  24398978.811      273977.022        3878.767           0.239  
G03  22279346.038      -35940.330        -596.522           0.255  
G04  23782452.219     -170351.364       -2863.056           0.244  
G05  22512521.610      163029.680        2675.148           0.255  
G06  20631011.058      -27131.962        -530.543           0.255  
G07  23544156.248      -83549.723       -1810.616           0.247  
G09  23020903.155      -81575.989       -1935.994           0.252  
> 2023 05 18 00 01 15.8688020  0  7                     
G02  24398903.331      274369.664        3931.921           0.239  
G03  22279357.688      -36000.137        -597.971           0.255  
G04  23782507.343     -170639.318       -2877.281           0.244  
G05  22512470.406      163298.292        2686.052           0.255  
G06  20631020.906      -27185.053        -530.804           0.255  
G07  23544191.200      -83733.180       -1834.947           0.247  
G09  23020939.579      -81769.828       -1939.578           0.252  
> 2023 05 18 00 01 15.9688020  0  7                     
G02  24398828.141      274762.890        3931.739           0.239  
G03  22279370.416      -36059.954        -597.812           0.255  
G04  23782562.497     -170927.168       -2877.952           0.244  
G05  22512419.296      163566.899        2685.677           0.255  
G06  20631030.439      -27238.145        -531.654           0.255  
G07  23544225.964      -83916.634       -1835.198           0.247  
G09  23020976.436      -81963.720       -1939.584           0.252  
> 2023 05 18 00 01 16.0688020  0  7                     
G02  24398753.336      275156.117        3932.022           0.239  
G03  22279381.228      -36119.799        -597.412           0.255  
G04  23782616.805     -171215.009       -2877.560           0.244  
G05  22512368.256      163835.504        2685.692           0.255  
G06  20631040.800      -27291.219        -530.742           0.255  
G07  23544261.037      -84100.099       -1843.102           0.247  
G09  23021013.406      -82157.616       -1939.256           0.252  
> 2023 05 18 00 01 16.1688020  0  7                     
G02  24398678.877      275549.342        3931.856           0.239  
G03  22279392.036      -36179.613        -596.789           0.255  
G04  23782671.788     -171502.867       -2878.974           0.244  
G05  22512317.290      164104.101        2686.473           0.255  
G06  20631051.139      -27344.324        -531.613           0.255  
G07  23544295.892      -84283.547       -1834.601           0.247  
G09  23021050.190      -82351.514       -1938.958           0.252  
> 2023 05 18 00 01 16.2688020  0  7                     
G02  24398604.157      275942.566        3932.191           0.239  
G03  22279403.441      -36239.465        -599.020           0.255  
G04  23782726.712     -171790.719       -2878.640           0.244  
G05  22512266.180      164372.695        2685.919           0.255  
G06  20631061.476      -27397.418        -531.335           0.255  
G07  23544331.017      -84467.013       -1834.688           0.247  
G09  23021087.235      -82545.420       -1939.005           0.252  
> 2023 05 18 00 01 16.3688020  0  7                     
G02  24398528.863      276335.794        3932.164           0.239  
G03  22279414.001      -36299.317        -599.209           0.255  
G04  23782781.545     -172078.581       -2877.800           0.244  
G05  22512215.233      164641.292        2686.064           0.255  
G06  20631071.796      -27450.525        -530.880           0.255  
G07  23544365.813      -84650.476       -1834.376           0.247  
G09  23021124.412      -82739.322       -1939.166           0.252  
> 2023 05 18 00 01 16.4688020  0  7                     
G02  24398453.979      276729.022        3932.789           0.239  
G03  22279426.930      -36359.157        -598.657           0.255  
G04  23782836.367     -172366.442       -2878.258           0.244  
G05  22512163.454      164909.882        2685.642           0.255  
G06  20631081.570      -27503.641        -531.371           0.255  
G07  23544400.804      -84833.945       -1834.396           0.247  
G09  23021161.389      -82933.223       -1939.085           0.251  
> 2023 05 18 00 01 16.5688020  0  7                     
G02  24398379.124      277122.246        3932.583           0.239  
G03  22279438.721      -36419.028        -599.291           0.255  
G04  23782890.962     -172654.293       -2877.731           0.244  
G05  22512112.503      165178.475        2685.884           0.255  
G06  20631091.128      -27556.747        -531.182           0.255  
G07  23544435.253      -85017.433       -1834.618           0.247  
G09  23021197.957      -83127.130       -1939.705           0.251  
> 2023 05 18 00 01 16.6688020  0  7                     
G02  24398305.593      277515.471        3931.781           0.239  
G03  22279451.465      -36478.832        -601.041           0.255  
G04  23782944.928     -172942.140       -2877.874           0.244  
G05  22512061.128      165447.109        2683.364           0.255  
G06  20631100.988      -27609.859        -530.170           0.255  
G07  23544470.418      -85200.831       -1838.642           0.247  
G09  23021234.951      -83321.042       -1939.589           0.251  
> 2023 05 18 00 01 16.7688020  0  7                     
G02  24398230.031      277908.542        3896.977           0.239  
G03  22279462.042      -36538.526        -509.292           0.255  
G04  23783001.242     -173230.007       -2879.157           0.244  
G05  22512010.251      165715.435        2661.960           0.255  
G06  20631111.222      -27662.990        -530.797           0.255  
G07  23544505.146      -85384.394       -1834.881           0.247  
G09  23021271.650      -83514.943       -1938.855           0.252  
> 2023 05 18 00 01 16.8688020  0  7                     
G02  24398156.077      278301.918        3932.135           0.239  
G03  22279473.270      -36598.623        -597.548           0.255  
G04  23783055.051     -173517.856       -2876.663           0.244  
G05  22511959.047      165984.382        2678.709           0.255  
G06  20631121.594      -27716.115        -531.542           0.255  
G07  23544540.338      -85567.876       -1834.961           0.247  
G09  23021308.796      -83708.702       -1927.974           0.252  
> 2023 05 18 00 01 16.9688020  0  7                     
G02  24398080.197      278695.151        3933.410           0.239  
G03  22279484.013      -36658.521        -599.656           0.255  
G04  23783110.374     -173805.729       -2878.422           0.244  
G05  22511908.013      166252.947        2698.221           0.255  
G06  20631131.592      -27769.246        -531.307           0.255  
G07  23544575.218      -85751.291       -1825.305           0.247  
G09  23021345.889      -83902.766       -1944.060           0.252  
> 2023 05 18 00 01 17.0688020  0  7                     
G02  24398004.642      279088.376        3932.723           0.239  
G03  22279494.732      -36718.401        -598.418           0.255  
G04  23783164.486     -174093.587       -2878.620           0.244  
G05  22511857.005      166521.289        2684.009           0.255  
G06  20631142.013      -27822.385        -531.063           0.255  
G07  23544610.016      -85934.984       -1851.872           0.247  
G09  23021382.931      -84096.671       -1939.137           0.252  
> 2023 05 18 00 01 17.1688020  0  7                     
G02  24397929.982      279481.602        3932.676           0.239  
G03  22279506.905      -36778.280        -597.058           0.255  
G04  23783219.448     -174381.446       -2877.608           0.244  
G05  22511805.742      166789.950        2685.930           0.255  
G06  20631152.017      -27875.532        -532.199           0.255  
G07  23544645.238      -86118.363       -1835.130           0.247  
G09  23021419.309      -84290.578       -1939.361           0.252  
> 2023 05 18 00 01 17.2688020  0  7                     
G02  24397855.377      279874.831        3932.715           0.239  
G03  22279517.622      -36838.190        -598.065           0.255  
G04  23783274.259     -174669.316       -2878.373           0.244  
G05  22511754.994      167058.515        2685.321           0.255  
G06  20631162.265      -27928.667        -531.403           0.255  
G07  23544680.038      -86301.870       -1835.568           0.247  
G09  23021456.220      -84484.492       -1938.982           0.251  
> 2023 05 18 00 01 17.3688020  0  7                     
G02  24397780.505      280268.054        3932.413           0.239  
G03  22279528.284      -36898.696        -689.434           0.255  
G04  23783330.198     -174957.437       -2935.163           0.244  
G05  22511704.003      167327.134        2682.702           0.255  
G06  20631172.776      -27981.820        -531.358           0.255  
G07  23544714.573      -86485.223       -1802.326           0.247  
G09  23021493.030      -84678.410       -1939.386           0.251  
> 2023 05 18 00 01 17.4688020  0  7                     
G02  24397707.041      280661.282        3932.584           0.239  
G03  22279540.425      -36958.008        -599.517           0.255  
G04  23783384.499     -175244.860       -2851.906           0.244  
G05  22511652.914      167595.525        2675.986           0.255  
G06  20631182.219      -28034.987        -531.934           0.255  
G07  23544748.757      -86668.874       -1834.944           0.247  
G09  23021530.203      -84872.324       -1939.505           0.252  
> 2023 05 18 00 01 17.5688020  0  7                     
G02  24397632.017      281054.501        3931.889           0.239  
G03  22279551.400      -37017.284        -574.005           0.255  
G04  23783439.710     -175532.657       -2865.684           0.244  
G05  22511601.695      167864.358        2701.886           0.255  
G06  20631192.606      -28088.138        -530.818           0.255  
G07  23544784.460      -86852.253       -1817.969           0.247  
G09  23021566.865      -85066.381       -1950.060           0.252  
> 2023 05 18 00 01 17.6688020  0  7                     
G02  24397556.206      281447.728        3931.338           0.239  
G03  22279562.726      -37077.858        -601.004           0.255  
G04  23783493.753     -175820.790       -2879.901           0.244  
G05  22511550.267      168132.751        2688.348           0.255  
G06  20631202.739      -28141.309        -531.343           0.255  
G07  23544819.845      -87035.903       -1834.825           0.247  
G09  23021603.980      -85260.147       -1938.248           0.252  
> 2023 05 18 00 01 17.7688020  0  7                     
G02  24397481.766      281840.960        3932.637           0.239  
G03  22279574.591      -37137.787        -599.036           0.255  
G04  23783548.632     -176108.661       -2878.544           0.244  
G05  22511499.103      168401.319        2685.684           0.255  
G06  20631213.129      -28194.470        -531.497           0.255  
G07  23544853.712      -87219.427       -1835.142           0.247  
G09  23021640.826      -85454.073       -1938.924           0.252  
> 2023 05 18 00 01 17.8688020  0  7                     
G02  24397405.941      282234.188        3933.030           0.239  
G03  22279586.548      -37197.720        -599.256           0.255  
G04  23783603.741     -176396.540       -2878.852           0.244  
G05  22511447.832      168669.864        2685.086           0.255  
G06  20631223.241      -28247.651        -532.099           0.255  
G07  23544888.441      -87402.950       -1835.480           0.247  
G09  23021678.094      -85647.989       -1938.605           0.252  
> 2023 05 18 00 01 17.9688020  0  7                     
G02  24397331.420      282627.411        3932.720           0.239  
G03  22279598.785      -37257.679        -600.648           0.255  
G04  23783658.056     -176684.410       -2879.136           0.244  
G05  22511397.105      168938.414        2685.268           0.255  
G06  20631232.496      -28300.824        -531.792           0.255  
G07  23544924.295      -87586.478       -1835.458           0.247  
G09  23021714.871      -85841.911       -1938.361           0.252  
> 2023 05 18 00 01 18.0688020  0  7                     
G02  24397256.787      283020.627        3931.618           0.239  
G03  22279608.697      -37317.611        -598.837           0.255  
G04  23783712.531     -176972.277       -2879.282           0.244  
G05  22511346.176      169206.956        2685.311           0.255  
G06  20631243.743      -28354.009        -532.399           0.255  
G07  23544959.169      -87770.011       -1834.557           0.247  
G09  23021751.577      -86035.837       -1939.405           0.251  
> 2023 05 18 00 01 18.1688020  0  7                     
G02  24397183.159      283413.860        3932.448           0.240  
G03  22279619.724      -37377.586        -600.240           0.255  
G04  23783767.929     -177260.163       -2879.183           0.244  
G05  22511294.994      169475.501        2685.441           0.255  
G06  20631254.147      -28407.185        -531.300           0.255  
G07  23544993.687      -87953.541       -1835.397           0.247  
G09  23021788.276      -86229.758       -1939.599           0.251  
> 2023 05 18 00 01 18.2688020  0  7                     
G02  24397107.336      283807.090        3932.301           0.239  
G03  22279631.976      -37438.057        -701.399           0.255  
G04  23783821.995     -177548.482       -2941.171           0.244  
G05  22511243.726      169744.036        2685.796           0.255  
G06  20631263.449      -28460.389        -531.897           0.255  
G07  23545029.315      -88137.083       -1835.255           0.247  
G09  23021825.507      -86423.677       -1939.385           0.252  
> 2023 05 18 00 01 18.3688020  0  7                     
G02  24397032.576      284200.319        3932.747           0.239  
G03  22279643.354      -37497.499        -599.473           0.255  
G04  23783877.086     -177835.915       -2879.207           0.244  
G05  22511192.642      170012.574        2685.388           0.255  
G06  20631273.441      -28513.584        -531.586           0.255  
G07  23545064.056      -88320.626       -1835.055           0.247  
G09  23021862.158      -86617.604       -1939.212           0.252  
> 2023 05 18 00 01 18.4688020  0  7                     
G02  24396957.649      284593.538        3932.162           0.239  
G03  22279654.814      -37557.472        -599.446           0.255  
G04  23783931.695     -178123.787       -2878.459           0.244  
G05  22511141.723      170281.108        2685.752           0.255  
G06  20631283.642      -28566.779        -531.726           0.255  
G07  23545099.227      -88504.072       -1810.188           0.247  
G09  23021898.951      -86811.532       -1939.335           0.252  
> 2023 05 18 00 01 18.5688020  0  7                     
G02  24396882.698      284986.762        3931.949           0.239  
G03  22279666.270      -37617.458        -600.392           0.255  
G04  23783987.048     -178411.663       -2877.944           0.244  
G05  22511090.492      170549.630        2685.559           0.255  
G06  20631293.751      -28619.985        -532.156           0.255  
G07  23545134.013      -88687.728       -1835.879           0.247  
G09  23021936.058      -87005.457       -1939.452           0.251  
> 2023 05 18 00 01 18.6688020  0  7                     
G02  24396808.491      285379.995        3932.877           0.239  
G03  22279676.863      -37677.452        -601.024           0.255  
G04  23784041.016     -178699.549       -2878.600           0.244  
G05  22511039.368      170818.148        2685.220           0.255  
G06  20631304.369      -28673.198        -531.979           0.255  
G07  23545168.155      -88871.279       -1834.872           0.247  
G09  23021973.171      -87199.383       -1939.679           0.251  
> 2023 05 18 00 01 18.7688020  0  7                     
G02  24396733.935      285773.217        3932.208           0.239  
G03  22279687.853      -37737.428        -600.425           0.255  
G04  23784095.981     -178987.430       -2878.502           0.244  
G05  22510988.165      171086.672        2685.427           0.255  
G06  20631314.313      -28726.423        -532.334           0.255  
G07  23545203.976      -89054.837       -1835.270           0.247  
G09  23022010.168      -87393.313       -1939.727           0.251  
> 2023 05 18 00 01 18.8688020  0  7                     
G02  24396657.982      286166.445        3931.774           0.239  
G03  22279701.167      -37797.421        -598.575           0.255  
G04  23784150.793     -179275.315       -2879.131           0.244  
G05  22510937.421      171355.184        2685.044           0.255  
G06  20631323.802      -28779.629        -532.121           0.255  
G07  23545238.289      -89238.402       -1835.391           0.247  
G09  23022047.014      -87587.246       -1939.517           0.251  
> 2023 05 18 00 01 18.9688020  0  7                     
G02  24396582.754      286559.662        3932.118           0.239  
G03  22279711.896      -37857.430        -599.083           0.255  
G04  23784205.532     -179563.206       -2879.392           0.244  
G05  22510886.275      171623.698        2685.222           0.255  
G06  20631334.638      -28832.850        -532.571           0.255  
G07  23545273.715      -89421.966       -1835.667           0.247  
G09  23022083.532      -87781.177       -1939.298           0.251  
> 2023 05 18 00 01 19.0688020  0  7                     
G02  24396508.373      286952.882        3932.305           0.239  
G03  22279723.006      -37917.456        -600.558           0.255  
G04  23784259.273     -179851.086       -2879.234           0.244  
G05  22510834.999      171892.209        2684.817           0.255  
G06  20631344.893      -28886.080        -532.344           0.255  
G07  23545309.249      -89605.514       -1827.681           0.247  
G09  23022120.818      -87975.109       -1939.214           0.252  
> 2023 05 18 00 01 19.1688020  0  7                     
G02  24396434.138      287346.105        3931.398           0.239  
G03  22279733.579      -37977.472        -601.397           0.255  
G04  23784315.543     -180138.981       -2879.548           0.244  
G05  22510783.959      172160.719        2685.419           0.255  
G06  20631354.750      -28939.321        -531.999           0.255  
G07  23545344.235      -89789.083       -1851.940           0.247  
G09  23022157.305      -88169.043       -1939.058           0.251  
> 2023 05 18 00 01 19.2688020  0  7                     
G02  24396359.122      287739.327        3931.896           0.239  
G03  22279745.219      -38037.473        -599.703           0.255  
G04  23784370.664     -180426.875       -2878.816           0.244  
G05  22510732.995      172429.224        2684.942           0.255  
G06  20631364.902      -28992.561        -532.736           0.255  
G07  23545378.282      -89972.626       -1835.524           0.247  
G09  23022194.246      -88362.975       -1939.120           0.252  
> 2023 05 18 00 01 19.3688020  0  7                     
G02  24396284.137      288132.545        3932.296           0.239  
G03  22279757.899      -38097.511        -599.948           0.255  
G04  23784425.545     -180714.765       -2878.325           0.244  
G05  22510681.650      172697.729        2685.454           0.255  
G06  20631374.559      -29045.794        -532.301           0.255  
G07  23545413.613      -90156.271       -1836.474           0.247  
G09  23022231.126      -88556.906       -1939.091           0.252  
> 2023 05 18 00 01 19.4688020  0  7                     
G02  24396209.407      288525.759        3931.920           0.239  
G03  22279768.878      -38157.551        -600.770           0.255  
G04  23784480.048     -181002.666       -2880.131           0.244  
G05  22510630.756      172966.221        2684.857           0.255  
G06  20631385.114      -29099.044        -532.494           0.255  
G07  23545448.672      -90339.849       -1836.052           0.247  
G09  23022268.177      -88750.848       -1938.910           0.252  
> 2023 05 18 00 01 19.5688020  0  7                     
G02  24396134.762      288918.987        3932.433           0.239  
G03  22279779.918      -38217.597        -601.182           0.255  
G04  23784534.310     -181290.554       -2879.692           0.244  
G05  22510579.607      173234.720        2685.133           0.255  
G06  20631395.527      -29152.299        -532.781           0.255  
G07  23545483.302      -90523.442       -1836.191           0.247  
G09  23022304.829      -88944.785       -1939.236           0.252  
> 2023 05 18 00 01 19.6688020  0  7                     
G02  24396060.120      289312.213        3932.862           0.239  
G03  22279791.226      -38277.625        -600.822           0.255  
G04  23784588.487     -181578.454       -2879.275           0.244  
G05  22510528.590      173503.211        2684.795           0.255  
G06  20631405.370      -29205.568        -533.058           0.255  
G07  23545518.735      -90707.036       -1836.473           0.247  
G09  23022342.061      -89138.722       -1939.422           0.252  
> 2023 05 18 00 01 19.7688020  0  7                     
G02  24395984.815      289705.426        3932.457           0.239  
G03  22279802.610      -38337.685        -599.928           0.255  
G04  23784643.355     -181866.355       -2880.792           0.244  
G05  22510477.555      173771.704        2685.368           0.255  
G06  20631415.421      -29258.816        -532.197           0.255  
G07  23545553.305      -90890.624       -1835.382           0.247  
G09  23022378.894      -89332.661       -1938.869           0.252  
> 2023 05 18 00 01 19.8688020  0  7                     
G02  24395909.905      290098.642        3931.649           0.239  
G03  22279814.134      -38397.742        -600.211           0.255  
G04  23784698.745     -182154.244       -2879.651           0.244  
G05  22510426.427      174040.185        2684.658           0.255  
G06  20631425.913      -29312.083        -532.599           0.255  
G07  23545587.876      -91074.225       -1836.258           0.247  
G09  23022416.041      -89526.603       -1938.818           0.251  
> 2023 05 18 00 01 19.9688020  0  7                     
G02  24395835.059      290491.865        3932.693           0.239  
G03  22279825.866      -38457.824        -601.619           0.255  
G04  23784753.511     -182442.587       -2960.544           0.244  
G05  22510375.277      174308.664        2675.812           0.255  
G06  20631435.902      -29365.351        -532.601           0.255  
G07  23545622.400      -91257.832       -1836.595           0.247  
G09  23022452.883      -89720.672       -1960.328           0.252  
> 2023 05 18 00 01 20.0688020  0  7                     
G02  24395760.429      290885.087        3932.809           0.239  
G03  22279837.620      -38517.888        -601.245           0.255  
G04  23784808.932     -182730.037       -2878.902           0.244  
G05  22510324.057      174577.150        2684.705           0.255  
G06  20631445.748      -29418.635        -533.158           0.255  
G07  23545657.859      -91441.441       -1836.543           0.247  
G09  23022489.060      -89914.494       -1939.346           0.251  
> 2023 05 18 00 01 20.1688020  0  7                     
G02  24395685.754      291278.304        3932.283           0.239  
G03  22279848.850      -38577.962        -601.369           0.255  
G04  23784863.350     -183017.943       -2879.762           0.244  
G05  22510273.051      174845.629        2684.948           0.255  
G06  20631455.781      -29471.915        -532.502           0.255  
G07  23545692.731      -91625.046       -1835.347           0.247  
G09  23022526.348      -90108.438       -1939.162           0.252  
> 2023 05 18 00 01 20.2688020  0  7                     
G02  24395610.971      291671.524        3932.290           0.239  
G03  22279860.900      -38638.033        -599.558           0.255  
G04  23784917.803     -183305.842       -2878.375           0.244  
G05  22510221.904      175114.101        2684.797           0.255  
G06  20631465.516      -29525.197        -532.888           0.255  
G07  23545728.196      -91808.666       -1836.706           0.247  
G09  23022563.504      -90302.384       -1939.554           0.252  
> 2023 05 18 00 01 20.3688020  0  7                     
G02  24395536.768      292064.747        3931.804           0.239  
G03  22279872.153      -38698.135        -599.860           0.255  
G04  23784972.989     -183593.745       -2878.390           0.244  
G05  22510170.927      175382.568        2684.503           0.255  
G06  20631476.184      -29578.477        -532.260           0.255  
G07  23545762.561      -91992.287       -1837.022           0.247  
G09  23022600.740      -90496.328       -1939.568           0.252  
> 2023 05 18 00 01 20.4688020  0  7                     
G02  24395462.069      292457.964        3932.287           0.239  
G03  22279883.692      -38758.235        -601.117           0.255  
G04  23785025.774     -183881.651       -2879.108           0.244  
G05  22510119.534      175651.042        2684.840           0.255  
G06  20631486.217      -29631.780        -533.272           0.255  
G07  23545798.101      -92175.908       -1836.349           0.247  
G09  23022638.065      -90690.274       -1939.481           0.252  
> 2023 05 18 00 01 20.5688020  0  7                     
G02  24395385.908      292851.185        3932.762           0.239  
G03  22279893.975      -38818.341        -602.870           0.255  
G04  23785079.764     -184169.557       -2878.836           0.244  
G05  22510068.501      175919.505        2684.570           0.255  
G06  20631497.015      -29685.080        -532.687           0.255  
G07  23545832.789      -92359.525       -1835.859           0.247  
G09  23022675.360      -90884.228       -1939.531           0.251  
> 2023 05 18 00 01 20.6688020  0  7                     
G02  24395311.341      293244.405        3931.604           0.239  
G03  22279907.053      -38878.441        -601.389           0.255  
G04  23785135.176     -184457.465       -2878.500           0.244  
G05  22510017.943      176187.966        2684.683           0.255  
G06  20631505.945      -29738.383        -532.815           0.255  
G07  23545867.861      -92543.425       -1860.887           0.247  
G09  23022712.245      -91078.176       -1939.440           0.251  
> 2023 05 18 00 01 20.7688020  0  7                     
G02  24395236.727      293637.607        3932.123           0.239  
G03  22279917.794      -38938.551        -600.588           0.255  
G04  23785191.869     -184745.378       -2879.713           0.244  
G05  22509966.737      176456.427        2684.602           0.255  
G06  20631516.446      -29791.690        -532.790           0.255  
G07  23545902.209      -92726.713       -1808.390           0.247  
G09  23022748.357      -91272.165       -1935.871           0.252  
> 2023 05 18 00 01 20.8688020  0  7                     
G02  24395162.457      294030.822        3931.960           0.239  
G03  22279929.085      -38998.673        -600.635           0.255  
G04  23785247.175     -185033.283       -2879.151           0.244  
G05  22509915.586      176724.878        2683.839           0.255  
G06  20631526.672      -29844.997        -532.702           0.255  
G07  23545937.263      -92910.441       -1836.073           0.247  
G09  23022784.905      -91466.132       -1952.763           0.252  
> 2023 05 18 00 01 20.9688020  0  7                     
G02  24395087.260      294424.048        3933.025           0.239  
G03  22279941.060      -39058.851        -568.478           0.255  
G04  23785301.106     -185321.193       -2879.509           0.244  
G05  22509864.317      176993.319        2684.535           0.255  
G06  20631536.666      -29898.316        -533.351           0.255  
G07  23545972.620      -93094.083       -1835.932           0.247  
G09  23022822.038      -91659.976       -1931.939           0.252  
> 2023 05 18 00 01 21.0688020  0  7                     
G02  24395012.733      294817.271        3932.972           0.239  
G03  22279952.036      -39118.938        -601.815           0.255  
G04  23785355.692     -185609.116       -2880.460           0.244  
G05  22509813.309      177261.591        2661.222           0.255  
G06  20631547.191      -29951.638        -533.323           0.255  
G07  23546007.799      -93277.726       -1836.067           0.247  
G09  23022859.509      -91853.989       -1939.190           0.251  
> 2023 05 18 00 01 21.1688020  0  7                     
G02  24394937.557      295210.485        3931.843           0.239  
G03  22279963.554      -39179.072        -602.064           0.255  
G04  23785411.596     -185897.019       -2878.685           0.244  
G05  22509762.528      177530.214        2684.377           0.255  
G06  20631556.937      -30004.971        -533.262           0.255  
G07  23546041.659      -93461.377       -1836.648           0.247  
G09  23022895.912      -92047.946       -1939.463           0.251  
> 2023 05 18 00 01 21.2688020  0  7                     
G02  24394862.670      295603.702        3931.851           0.239  
G03  22279974.761      -39239.213        -600.825           0.255  
G04  23785465.534     -186184.933       -2878.441           0.244  
G05  22509711.267      177798.663        2684.801           0.255  
G06  20631567.209      -30058.299        -532.945           0.255  
G07  23546077.682      -93645.035       -1837.226           0.247  
G09  23022932.654      -92241.903       -1939.412           0.252  
> 2023 05 18 00 01 21.3688020  0  7                     
G02  24394787.775      295996.924        3932.468           0.239  
G03  22279986.285      -39299.361        -600.868           0.255  
G04  23785520.268     -186472.850       -2878.992           0.244  
G05  22509660.139      178067.098        2684.212           0.255  
G06  20631577.603      -30111.628        -533.022           0.255  
G07  23546112.389      -93828.686       -1836.673           0.247  
G09  23022969.681      -92435.862       -1939.540           0.252  
> 2023 05 18 00 01 21.4688020  0  7                     
G02  24394712.792      296389.986        3914.356           0.239  
G03  22279997.798      -39359.523        -601.871           0.255  
G04  23785575.562     -186760.766       -2879.141           0.244  
G05  22509609.031      178335.506        2678.539           0.255  
G06  20631587.916      -30164.969        -533.434           0.255  
G07  23546147.251      -94012.805       -1914.818           0.247  
G09  23023006.097      -92629.962       -1963.160           0.252  
> 2023 05 18 00 01 21.5688020  0  7                     
G02  24394639.011      296783.366        3932.688           0.239  
G03  22280008.803      -39419.696        -602.356           0.255  
G04  23785630.378     -187048.683       -2878.177           0.244  
G05  22509557.847      178603.973        2684.440           0.255  
G06  20631598.299      -30218.313        -533.468           0.255  
G07  23546182.102      -94196.008       -1837.180           0.247  
G09  23023042.868      -92823.782       -1939.558           0.252  
> 2023 05 18 00 01 21.6688020  0  7                     
G02  24394562.852      297176.581        3932.347           0.239  
G03  22280019.403      -39479.864        -602.908           0.255  
G04  23785685.243     -187336.598       -2878.007           0.244  
G05  22509506.674      178872.406        2684.315           0.255  
G06  20631608.806      -30271.669        -533.351           0.255  
G07  23546217.205      -94379.680       -1837.370           0.247  
G09  23023079.985      -93017.746       -1939.870           0.252  
> 2023 05 18 00 01 21.7688020  0  7                     
G02  24394487.912      297569.802        3932.357           0.239  
G03  22280031.719      -39540.026        -601.016           0.255  
G04  23785739.854     -187624.526       -2879.691           0.244  
G05  22509455.815      179140.832        2684.473           0.255  
G06  20631618.137      -30325.020        -533.600           0.255  
G07  23546252.151      -94563.346       -1836.362           0.247  
G09  23023116.974      -93211.710       -1940.458           0.252  
> 2023 05 18 00 01 21.8688020  0  7                     
G02  24394413.586      297963.024        3932.417           0.239  
G03  22280043.355      -39600.208        -601.050           0.255  
G04  23785794.084     -187912.449       -2879.007           0.244  
G05  22509404.570      179409.407        2692.445           0.255  
G06  20631628.271      -30378.374        -533.088           0.255  
G07  23546287.275      -94747.018       -1836.253           0.247  
G09  23023153.929      -93405.670       -1939.863           0.252  
> 2023 05 18 00 01 21.9688020  0  7                     
G02  24394338.915      298356.243        3932.287           0.239  
G03  22280054.995      -39660.395        -601.564           0.255  
G04  23785848.776     -188200.367       -2878.634           0.244  
G05  22509353.401      179677.670        2684.133           0.255  
G06  20631638.547      -30431.737        -533.415           0.255  
G07  23546322.023      -94930.701       -1836.932           0.247  
G09  23023191.022      -93599.635       -1940.003           0.252  
> 2023 05 18 00 01 22.0688020  0  7                     
G02  24394263.790      298749.464        3932.345           0.239  
G03  22280066.496      -39720.592        -602.389           0.255  
G04  23785903.817     -188488.291       -2878.646           0.244  
G05  22509302.621      179946.087        2684.238           0.255  
G06  20631648.668      -30485.109        -534.042           0.255  
G07  23546356.783      -95114.387       -1837.169           0.247  
G09  23023228.007      -93793.599       -1939.824           0.252  
> 2023 05 18 00 01 22.1688020  0  7                     
G02  24394188.811      299142.666        3932.009           0.239  
G03  22280077.938      -39780.796        -602.742           0.255  
G04  23785958.930     -188776.228       -2880.232           0.244  
G05  22509251.422      180214.501        2683.893           0.255  
G06  20631658.821      -30538.480        -534.210           0.255  
G07  23546391.748      -95298.068       -1836.443           0.247  
G09  23023265.035      -93987.568       -1939.822           0.252  
> 2023 05 18 00 01 22.2688020  0  7                     
G02  24394113.364      299535.889        3933.346           0.239  
G03  22280089.313      -39840.992        -602.288           0.255  
G04  23786013.455     -189064.164       -2879.877           0.244  
G05  22509200.372      180482.911        2684.101           0.255  
G06  20631669.182      -30591.862        -534.485           0.255  
G07  23546426.573      -95481.757       -1836.259           0.247  
G09  23023301.511      -94181.538       -1939.733           0.252  
> 2023 05 18 00 01 22.3688020  0  7                     
G02  24394039.226      299929.102        3932.248           0.239  
G03  22280100.737      -39901.193        -601.133           0.255  
G04  23786068.249     -189352.089       -2879.084           0.244  
G05  22509149.120      180751.323        2684.132           0.255  
G06  20631679.006      -30645.243        -534.412           0.255  
G07  23546461.956      -95665.456       -1837.655           0.247  
G09  23023338.596      -94375.507       -1939.858           0.252  
> 2023 05 18 00 01 22.4688020  0  7                     
G02  24393965.089      300322.326        3932.219           0.239  
G03  22280112.608      -39961.421        -601.407           0.255  
G04  23786122.373     -189640.015       -2879.082           0.244  
G05  22509098.027      181019.628        2671.295           0.255  
G06  20631689.337      -30698.623        -533.587           0.255  
G07  23546496.777      -95849.153       -1837.716           0.247  
G09  23023375.578      -94569.476       -1939.813           0.251  
> 2023 05 18 00 01 22.5688020  0  7                     
G02  24393890.136      300715.544        3931.758           0.239  
G03  22280124.291      -40021.653        -600.594           0.255  
G04  23786177.573     -189927.947       -2879.446           0.244  
G05  22509047.345      181288.133        2684.154           0.255  
G06  20631699.501      -30752.000        -533.651           0.255  
G07  23546531.091      -96032.854       -1858.418           0.247  
G09  23023412.795      -94763.490       -1952.224           0.251  
> 2023 05 18 00 01 22.6688020  0  7                     
G02  24393815.065      301108.758        3931.219           0.239  
G03  22280135.361      -40081.896        -602.588           0.255  
G04  23786232.540     -190215.888       -2880.496           0.244  
G05  22508996.131      181556.463        2687.676           0.255  
G06  20631709.836      -30805.392        -533.419           0.255  
G07  23546566.744      -96216.556       -1836.692           0.247  
G09  23023449.367      -94957.420       -1939.535           0.252  
> 2023 05 18 00 01 22.7688020  0  7                     
G02  24393741.174      301501.984        3932.056           0.239  
G03  22280145.960      -40142.143        -605.476           0.255  
G04  23786288.472     -190503.816       -2878.786           0.244  
G05  22508944.918      181824.918        2683.977           0.255  
G06  20631720.182      -30858.799        -532.775           0.255  
G07  23546601.734      -96400.271       -1837.347           0.247  
G09  23023486.086      -95151.397       -1939.471           0.252  
> 2023 05 18 00 01 22.8688020  0  7                     
G02  24393665.686      301895.208        3932.421           0.239  
G03  22280158.359      -40202.368        -603.995           0.255  
G04  23786342.393     -190791.744       -2878.659           0.244  
G05  22508894.047      182093.315        2683.827           0.255  
G06  20631729.914      -30912.216        -533.557           0.255  
G07  23546636.363      -96583.985       -1837.408           0.247  
G09  23023522.873      -95345.372       -1939.394           0.252  
> 2023 05 18 00 01 22.9688020  0  7                     
G02  24393590.215      302288.424        3931.917           0.239  
G03  22280169.312      -40262.603        -602.959           0.255  
G04  23786397.787     -191079.686       -2879.524           0.244  
G05  22508843.107      182361.709        2684.194           0.255  
G06  20631739.991      -30965.622        -533.773           0.255  
G07  23546671.293      -96767.701       -1837.323           0.247  
G09  23023559.577      -95539.348       -1939.623           0.251  
> 2023 05 18 00 01 23.0688020  0  7                     
G02  24393514.689      302681.659        3919.489           0.239  
G03  22280181.097      -40322.854        -601.419           0.255  
G04  23786451.906     -191367.630       -2879.445           0.244  
G05  22508791.924      182630.162        2695.321           0.255  
G06  20631750.034      -31019.032        -534.545           0.255  
G07  23546707.042      -96951.423       -1836.877           0.247  
G09  23023596.771      -95733.321       -1939.423           0.251  
> 2023 05 18 00 01 23.1688020  0  7                     
G02  24393440.578      303074.863        3931.983           0.239  
G03  22280191.952      -40383.115        -600.809           0.255  
G04  23786506.817     -191655.562       -2878.880           0.244  
G05  22508740.723      182898.479        2683.370           0.255  
G06  20631760.761      -31072.444        -534.502           0.255  
G07  23546741.470      -97135.145       -1837.074           0.247  
G09  23023633.879      -95927.302       -1940.104           0.251  
> 2023 05 18 00 01 23.2688020  0  7                     
G02  24393366.100      303468.089        3932.879           0.239  
G03  22280203.700      -40443.653        -611.682           0.255  
G04  23786560.806     -191943.501       -2879.226           0.244  
G05  22508689.552      183166.919        2674.887           0.255  
G06  20631770.986      -31125.852        -532.996           0.255  
G07  23546776.563      -97318.871       -1836.966           0.247  
G09  23023670.853      -96121.287       -1940.357           0.251  
> 2023 05 18 00 01 23.3688020  0  7                     
G02  24393291.453      303861.309        3932.509           0.239  
G03  22280215.035      -40503.677        -603.360           0.255  
G04  23786615.610     -192231.442       -2878.930           0.244  
G05  22508638.506      183435.241        2683.226           0.255  
G06  20631780.981      -31179.297        -534.064           0.255  
G07  23546811.146      -97502.606       -1837.400           0.247  
G09  23023708.120      -96315.264       -1939.729           0.251  
> 2023 05 18 00 01 23.4688020  0  7                     
G02  24393216.556      304254.523        3932.028           0.239  
G03  22280226.660      -40563.948        -604.079           0.255  
G04  23786670.761     -192519.385       -2878.691           0.244  
G05  22508587.364      183703.617        2683.704           0.255  
G06  20631791.170      -31232.737        -534.284           0.255  
G07  23546845.775      -97686.209       -1805.748           0.247  
G09  23023744.830      -96509.272       -1937.222           0.251  
> 2023 05 18 00 01 23.5688020  0  7                     
G02  24393141.712      304647.743        3932.001           0.239  
G03  22280237.894      -40624.227        -602.837           0.255  
G04  23786725.084     -192807.334       -2879.784           0.244  
G05  22508536.216      183971.986        2684.199           0.255  
G06  20631801.247      -31286.172        -534.168           0.255  
G07  23546881.336      -97870.080       -1837.053           0.247  
G09  23023781.565      -96703.226       -1939.868           0.252  
> 2023 05 18 00 01 23.6688020  0  7                     
G02  24393067.091      305040.967        3932.482           0.239  
G03  22280249.439      -40684.499        -601.641           0.255  
G04  23786780.278     -193095.278       -2879.626           0.244  
G05  22508485.319      184240.349        2683.586           0.255  
G06  20631811.403      -31339.620        -534.927           0.255  
G07  23546916.357      -98053.828       -1837.164           0.247  
G09  23023818.500      -96897.212       -1939.885           0.252  
> 2023 05 18 00 01 23.7688020  0  7                     
G02  24392992.104      305434.186        3932.708           0.239  
G03  22280261.217      -40744.806        -601.975           0.255  
G04  23786835.456     -193383.223       -2879.363           0.244  
G05  22508434.139      184508.720        2684.178           0.255  
G06  20631821.519      -31393.060        -534.371           0.255  
G07  23546951.239      -98237.573       -1837.012           0.247  
G09  23023855.394      -97091.200       -1939.946           0.252  
> 2023 05 18 00 01 23.8688020  0  7                     
G02  24392916.918      305827.407        3932.576           0.239  
G03  22280272.956      -40805.113        -603.070           0.255  
G04  23786890.358     -193671.171       -2879.670           0.244  
G05  22508383.304      184777.033        2681.803           0.255  
G06  20631831.749      -31446.506        -534.329           0.255  
G07  23546986.158      -98421.326       -1837.483           0.247  
G09  23023892.196      -97285.145       -1940.207           0.252  
> 2023 05 18 00 01 23.9688020  0  7                     
G02  24392842.133      306220.622        3931.772           0.239  
G03  22280284.546      -40865.428        -603.798           0.255  
G04  23786944.980     -193959.119       -2879.004           0.244  
G05  22508331.846      185045.432        2683.264           0.255  
G06  20631841.749      -31499.964        -534.637           0.255  
G07  23547021.271      -98605.078       -1837.579           0.247  
G09  23023929.558      -97479.174       -1940.259           0.251  
> 2023 05 18 00 01 24.0688020  0  7                     
G02  24392767.177      306613.844        3931.884           0.239  
G03  22280295.322      -40925.750        -603.786           0.255  
G04  23786999.954     -194247.077       -2878.891           0.244  
G05  22508280.969      185313.785        2683.233           0.255  
G06  20631852.158      -31553.427        -534.717           0.255  
G07  23547056.271      -98788.841       -1837.962           0.247  
G09  23023966.615      -97673.163       -1939.933           0.251  
> 2023 05 18 00 01 24.1688020  0  7                     
G02  24392693.403      307007.063        3931.790           0.239  
G03  22280306.569      -40986.062        -603.803           0.255  
G04  23787054.488     -194535.039       -2879.882           0.244  
G05  22508229.543      185582.138        2683.055           0.255  
G06  20631862.485      -31606.901        -535.151           0.255  
G07  23547091.808      -98972.602       -1837.509           0.247  
G09  23024002.439      -97867.150       -1939.456           0.251  
> 2023 05 18 00 01 24.2688020  0  7                     
G02  24392618.423      307400.278        3931.770           0.239  
G03  22280319.164      -41046.372        -602.335           0.255  
G04  23787109.571     -194822.990       -2880.289           0.244  
G05  22508178.579      185850.570        2683.886           0.255  
G06  20631872.184      -31660.370        -535.476           0.255  
G07  23547126.299      -99156.365       -1837.090           0.247  
G09  23024039.212      -98061.125       -1956.761           0.251  
> 2023 05 18 00 01 24.3688020  0  7                     
G02  24392543.036      307793.504        3931.851           0.239  
G03  22280330.251      -41106.717        -602.591           0.255  
G04  23787164.548     -195110.939       -2879.402           0.244  
G05  22508127.711      186118.839        2683.701           0.255  
G06  20631882.425      -31713.832        -534.481           0.255  
G07  23547161.153      -99340.141       -1837.595           0.247  
G09  23024076.760      -98255.130       -1940.123           0.251  
> 2023 05 18 00 01 24.4688020  0  7                     
G02  24392468.129      308186.722        3931.555           0.239  
G03  22280341.720      -41167.058        -602.683           0.255  
G04  23787219.095     -195398.896       -2879.193           0.244  
G05  22508076.755      186387.174        2683.278           0.255  
G06  20631892.501      -31767.309        -534.207           0.255  
G07  23547196.039      -99523.910       -1837.958           0.247  
G09  23024113.618      -98449.124       -1939.913           0.251  
> 2023 05 18 00 01 24.5688020  0  7                     
G02  24392392.958      308579.942        3932.158           0.239  
G03  22280353.264      -41227.647        -626.986           0.255  
G04  23787273.728     -195687.069       -2935.753           0.244  
G05  22508025.760      186655.519        2683.189           0.255  
G06  20631902.844      -31820.797        -534.575           0.255  
G07  23547230.993      -99707.613       -1801.078           0.247  
G09  23024150.614      -98643.119       -1940.036           0.252  
> 2023 05 18 00 01 24.6688020  0  7                     
G02  24392317.894      308973.166        3932.435           0.239  
G03  22280364.188      -41287.781        -604.592           0.255  
G04  23787328.915     -195974.812       -2880.229           0.244  
G05  22507974.632      186923.848        2682.628           0.255  
G06  20631913.264      -31874.273        -533.665           0.255  
G07  23547265.791      -99891.476       -1836.967           0.247  
G09  23024187.900      -98837.115       -1940.021           0.252  
> 2023 05 18 00 01 24.7688020  0  7                     
G02  24392243.045      309366.389        3932.844           0.240  
G03  22280375.900      -41348.136        -605.208           0.255  
G04  23787383.179     -196262.775       -2880.555           0.244  
G05  22507923.873      187192.183        2682.331           0.255  
G06  20631923.128      -31927.773        -534.482           0.255  
G07  23547301.251     -100075.257       -1836.748           0.247  
G09  23024224.794      -99031.103       -1939.822           0.251  
> 2023 05 18 00 01 24.8688020  0  7                     
G02  24392167.884      309759.608        3932.388           0.239  
G03  22280386.968      -41408.495        -605.047           0.255  
G04  23787439.270     -196550.729       -2879.967           0.244  
G05  22507873.031      187460.524        2683.344           0.255  
G06  20631933.311      -31981.276        -534.832           0.255  
G07  23547336.270     -100259.051       -1837.379           0.247  
G09  23024261.489      -99225.108       -1940.201           0.251  
> 2023 05 18 00 01 24.9688020  0  7                     
G02  24392093.771      310152.821        3931.841           0.239  
G03  22280399.334      -41468.529        -607.163           0.255  
G04  23787493.081     -196838.691       -2879.679           0.244  
G05  22507821.518      187728.848        2683.155           0.255  
G06  20631943.406      -32034.783        -534.846           0.255  
G07  23547370.441     -100442.991       -1847.903           0.247  
G09  23024298.787      -99419.105       -1939.818           0.252  
> 2023 05 18 00 01 25.0688020  0  7                     
G02  24392018.943      310546.043        3932.254           0.239  
G03  22280410.009      -41529.229        -603.314           0.255  
G04  23787547.569     -197126.649       -2878.840           0.244  
G05  22507770.501      187997.172        2682.912           0.255  
G06  20631953.955      -32088.282        -534.723           0.255  
G07  23547405.757     -100626.643       -1838.460           0.247  
G09  23024335.494      -99613.115       -1939.662           0.252  
> 2023 05 18 00 01 25.1688020  0  7                     
G02  24391943.203      310939.270        3932.626           0.239  
G03  22280422.332      -41589.588        -601.279           0.255  
G04  23787602.310     -197414.618       -2879.086           0.244  
G05  22507719.860      188265.497        2682.838           0.255  
G06  20631963.782      -32141.796        -536.121           0.255  
G07  23547441.034     -100810.447       -1838.343           0.247  
G09  23024372.715      -99807.115       -1940.156           0.252  
> 2023 05 18 00 01 25.2688020  0  7                     
G02  24391869.056      311332.490        3932.368           0.239  
G03  22280433.945      -41649.992        -601.200           0.255  
G04  23787657.257     -197702.579       -2879.569           0.244  
G05  22507668.433      188533.799        2683.483           0.255  
G06  20631973.985      -32195.301        -535.489           0.255  
G07  23547475.722     -100994.249       -1838.216           0.247  
G09  23024409.426     -100001.113       -1939.794           0.252  
> 2023 05 18 00 01 25.3688020  0  7                     
G02  24391795.086      311725.702        3931.677           0.239  
G03  22280446.196      -41710.752        -646.415           0.255  
G04  23787712.706     -197990.557       -2880.535           0.244  
G05  22507617.150      188802.113        2683.216           0.255  
G06  20631983.924      -32248.819        -534.444           0.255  
G07  23547510.291     -101178.387       -1893.443           0.247  
G09  23024446.390     -100195.120       -1939.814           0.252  
> 2023 05 18 00 01 25.4688020  0  7                     
G02  24391720.745      312118.704        3897.485           0.239  
G03  22280456.906      -41770.410        -602.337           0.255  
G04  23787767.239     -198278.525       -2879.986           0.244  
G05  22507565.255      189070.424        2682.665           0.255  
G06  20631994.826      -32302.341        -534.446           0.255  
G07  23547545.625     -101362.078       -1868.927           0.247  
G09  23024482.935     -100389.128       -1939.865           0.252  
> 2023 05 18 00 01 25.5688020  0  7                     
G02  24391646.750      312512.142        3932.300           0.239  
G03  22280468.090      -41830.697        -629.625           0.255  
G04  23787821.380     -198566.429       -2894.350           0.244  
G05  22507514.300      189338.738        2683.051           0.255  
G06  20632004.829      -32355.874        -533.943           0.255  
G07  23547580.904     -101545.790       -1844.892           0.247  
G09  23024520.207     -100583.131       -1939.614           0.252  
> 2023 05 18 00 01 25.6688020  0  7                     
G02  24391571.174      312905.367        3932.719           0.239  
G03  22280478.892      -41891.623        -606.456           0.255  
G04  23787876.398     -198854.459       -2879.690           0.244  
G05  22507463.963      189607.038        2682.929           0.255  
G06  20632015.091      -32409.422        -535.097           0.255  
G07  23547615.839     -101729.501       -1838.311           0.247  
G09  23024557.400     -100777.140       -1940.082           0.252  
> 2023 05 18 00 01 25.7688020  0  7                     
G02  24391495.833      313298.584        3931.796           0.239  
G03  22280491.005      -41952.024        -604.950           0.255  
G04  23787931.314     -199142.423       -2878.999           0.244  
G05  22507412.586      189875.344        2682.914           0.255  
G06  20632025.022      -32462.968        -536.098           0.255  
G07  23547650.830     -101913.325       -1838.834           0.247  
G09  23024593.687     -100971.082       -1918.523           0.252  
> 2023 05 18 00 01 25.8688020  0  7                     
G02  24391420.732      313691.802        3931.284           0.239  
G03  22280502.290      -42012.189        -589.561           0.255  
G04  23787986.283     -199430.399       -2879.731           0.244  
G05  22507361.878      190143.648        2683.025           0.255  
G06  20632035.325      -32516.505        -536.181           0.255  
G07  23547685.938     -102097.233       -1839.420           0.247  
G09  23024630.389     -101165.151       -1939.845           0.251  
> 2023 05 18 00 01 25.9688020  0  7                     
G02  24391345.783      314085.026        3932.657           0.239  
G03  22280513.967      -42072.887        -603.543           0.255  
G04  23788041.039     -199718.381       -2880.082           0.244  
G05  22507311.143      190411.945        2683.125           0.255  
G06  20632045.485      -32570.042        -535.421           0.255  
G07  23547720.477     -102280.981       -1837.843           0.247  
G09  23024667.608     -101359.162       -1939.671           0.251  
> 2023 05 18 00 01 26.0688020  0  7                     
G02  24391270.762      314478.243        3932.173           0.239  
G03  22280525.540      -42133.325        -603.530           0.255  
G04  23788096.210     -200006.355       -2879.730           0.244  
G05  22507260.090      190680.233        2683.059           0.255  
G06  20632055.665      -32623.589        -535.010           0.255  
G07  23547755.351     -102464.812       -1837.987           0.247  
G09  23024704.348     -101553.181       -1940.226           0.252  
> 2023 05 18 00 01 26.1688020  0  7                     
G02  24391196.257      314871.639        3947.190           0.239  
G03  22280536.980      -42193.772        -604.428           0.255  
G04  23788150.554     -200294.252       -2875.193           0.244  
G05  22507208.980      190948.515        2682.837           0.255  
G06  20632065.760      -32677.150        -535.287           0.255  
G07  23547790.730     -102648.764       -1852.458           0.247  
G09  23024741.338     -101747.196       -1940.649           0.251  
> 2023 05 18 00 01 26.2688020  0  7                     
G02  24391121.126      315264.685        3931.986           0.239  
G03  22280548.546      -42254.224        -604.719           0.255  
G04  23788205.310     -200582.306       -2879.360           0.244  
G05  22507157.805      191216.791        2674.134           0.255  
G06  20632076.029      -32730.711        -535.661           0.255  
G07  23547825.475     -102832.496       -1838.453           0.247  
G09  23024778.287     -101941.182       -1931.894           0.251  
> 2023 05 18 00 01 26.3688020  0  7                     
G02  24391046.312      315657.855        3916.770           0.239  
G03  22280560.193      -42314.684        -605.302           0.255  
G04  23788259.940     -200870.382       -2903.863           0.244  
G05  22507106.829      191485.086        2682.689           0.255  
G06  20632086.368      -32784.278        -536.102           0.255  
G07  23547860.834     -103016.340       -1838.744           0.247  
G09  23024815.357     -102135.295       -1947.338           0.252  
> 2023 05 18 00 01 26.4688020  0  7                     
G02  24390971.370      316051.124        3932.309           0.239  
G03  22280571.495      -42375.148        -605.400           0.255  
G04  23788314.765     -201158.266       -2879.506           0.244  
G05  22507055.685      191753.371        2682.611           0.255  
G06  20632096.580      -32837.850        -536.470           0.255  
G07  23547895.825     -103200.188       -1838.111           0.247  
G09  23024851.989     -102329.243       -1939.995           0.252  
> 2023 05 18 00 01 26.5688020  0  7                     
G02  24390896.775      316444.347        3932.831           0.239  
G03  22280583.156      -42435.616        -605.205           0.255  
G04  23788369.845     -201446.254       -2880.194           0.244  
G05  22507004.677      192021.650        2683.259           0.255  
G06  20632106.707      -32891.427        -536.179           0.255  
G07  23547930.387     -103384.020       -1852.890           0.247  
G09  23024889.328     -102523.262       -1940.113           0.252  
> 2023 05 18 00 01 26.6688020  0  7                     
G02  24390821.956      316837.547        3932.416           0.239  
G03  22280594.511      -42496.087        -604.581           0.255  
G04  23788425.070     -201734.232       -2879.734           0.244  
G05  22506953.427      192289.917        2682.980           0.255  
G06  20632116.732      -32945.002        -535.694           0.255  
G07  23547965.299     -103567.898       -1838.761           0.247  
G09  23024926.088     -102717.281       -1940.270           0.252  
> 2023 05 18 00 01 26.7688020  0  7                     
G02  24390747.178      317230.763        3931.679           0.239  
G03  22280605.915      -42556.566        -604.357           0.255  
G04  23788479.882     -202022.232       -2879.971           0.244  
G05  22506902.317      192558.193        2682.588           0.255  
G06  20632126.897      -32998.584        -535.444           0.255  
G07  23548000.358     -103751.760       -1838.776           0.247  
G09  23024963.006     -102911.299       -1940.399           0.252  
> 2023 05 18 00 01 26.8688020  0  7                     
G02  24390672.407      317623.985        3931.946           0.239  
G03  22280617.497      -42617.045        -603.693           0.255  
G04  23788534.561     -202310.213       -2879.139           0.244  
G05  22506851.426      192826.467        2682.727           0.255  
G06  20632137.139      -33052.172        -535.449           0.255  
G07  23548035.425     -103935.623       -1838.985           0.247  
G09  23024999.966     -103105.318       -1940.261           0.252  
> 2023 05 18 00 01 26.9688020  0  7                     
G02  24390597.722      318017.207        3932.791           0.239  
G03  22280629.001      -42677.540        -604.500           0.255  
G04  23788589.191     -202598.205       -2879.615           0.244  
G05  22506800.387      193094.685        2693.468           0.255  
G06  20632147.328      -33105.766        -535.573           0.255  
G07  23548070.362     -104119.363       -1816.406           0.247  
G09  23025036.603     -103299.336       -1939.974           0.252  
> 2023 05 18 00 01 27.0688020  0  7                     
G02  24390522.795      318410.410        3932.802           0.239  
G03  22280640.412      -42738.038        -604.463           0.255  
G04  23788643.544     -202886.190       -2879.514           0.244  
G05  22506749.252      193362.976        2682.708           0.255  
G06  20632157.628      -33159.367        -535.632           0.255  
G07  23548105.971     -104303.368       -1839.315           0.247  
G09  23025073.628     -103493.215       -1930.512           0.252  
> 2023 05 18 00 01 27.1688020  0  7                     
G02  24390447.651      318803.973        3965.561           0.239  
G03  22280652.024      -42798.196        -544.614           0.255  
G04  23788698.697     -203174.274       -2890.742           0.244  
G05  22506698.236      193631.239        2682.323           0.255  
G06  20632167.818      -33212.970        -536.011           0.255  
G07  23548140.795     -104487.610       -1907.200           0.247  
G09  23025110.632     -103687.383       -1940.501           0.251  
> 2023 05 18 00 01 27.2688020  0  7                     
G02  24390372.882      319196.840        3931.342           0.239  
G03  22280663.527      -42859.057        -605.439           0.255  
G04  23788753.179     -203462.171       -2880.926           0.244  
G05  22506647.391      193899.499        2682.388           0.255  
G06  20632178.063      -33266.580        -536.315           0.255  
G07  23548175.750     -104671.120       -1838.391           0.247  
G09  23025147.462     -103881.412       -1940.553           0.252  
> 2023 05 18 00 01 27.3688020  0  7                     
G02  24390298.160      319590.065        3932.509           0.239  
G03  22280675.046      -42919.579        -605.908           0.255  
G04  23788808.461     -203750.168       -2880.563           0.244  
G05  22506596.143      194167.754        2682.579           0.255  
G06  20632188.228      -33320.196        -536.648           0.255  
G07  23548210.653     -104854.998       -1838.187           0.247  
G09  23025184.383     -104075.435       -1940.246           0.252  
> 2023 05 18 00 01 27.4688020  0  7                     
G02  24390223.309      319983.286        3932.574           0.239  
G03  22280686.717      -42980.101        -605.845           0.255  
G04  23788863.092     -204038.159       -2880.364           0.244  
G05  22506545.218      194436.005        2682.498           0.255  
G06  20632198.512      -33373.817        -536.755           0.255  
G07  23548245.184     -105039.137       -1890.343           0.247  
G09  23025221.295     -104269.465       -1940.121           0.251  
> 2023 05 18 00 01 27.5688020  0  7                     
G02  24390148.652      320376.505        3932.179           0.239  
G03  22280698.114      -43040.633        -605.779           0.255  
G04  23788917.945     -204326.155       -2880.123           0.244  
G05  22506494.128      194704.254        2681.830           0.255  
G06  20632208.675      -33427.435        -536.587           0.255  
G07  23548280.434     -105222.779       -1838.812           0.247  
G09  23025258.347     -104463.498       -1940.328           0.251  
> 2023 05 18 00 01 27.6688020  0  7                     
G02  24390073.763      320769.725        3931.695           0.239  
G03  22280709.537      -43101.165        -605.411           0.255  
G04  23788972.442     -204614.144       -2879.570           0.244  
G05  22506443.130      194972.500        2682.192           0.255  
G06  20632218.940      -33481.061        -536.428           0.255  
G07  23548315.632     -105406.675       -1839.522           0.247  
G09  23025295.080     -104657.531       -1940.780           0.252  
> 2023 05 18 00 01 27.7688020  0  7                     
G02  24389998.929      321162.945        3932.165           0.239  
G03  22280721.037      -43161.705        -604.813           0.255  
G04  23789027.603     -204902.137       -2879.285           0.244  
G05  22506392.059      195240.746        2682.717           0.255  
G06  20632229.043      -33534.691        -536.214           0.255  
G07  23548350.207     -105590.574       -1839.298           0.247  
G09  23025332.096     -104851.561       -1939.928           0.251  
> 2023 05 18 00 01 27.8688020  0  7                     
G02  24389924.190      321556.164        3932.319           0.239  
G03  22280732.538      -43222.248        -604.643           0.255  
G04  23789082.185     -205190.418       -2924.211           0.244  
G05  22506341.108      195508.880        2678.757           0.255  
G06  20632239.189      -33588.328        -536.016           0.255  
G07  23548385.631     -105774.472       -1839.360           0.247  
G09  23025369.039     -105045.655       -1950.525           0.252  
> 2023 05 18 00 01 27.9688020  0  7                     
G02  24389849.132      321949.380        3932.838           0.239  
G03  22280744.274      -43282.798        -604.313           0.255  
G04  23789137.096     -205478.153       -2879.661           0.244  
G05  22506290.002      195777.195        2682.472           0.255  
G06  20632249.266      -33641.963        -535.783           0.255  
G07  23548420.467     -105958.378       -1839.258           0.247  
G09  23025405.839     -105239.617       -1939.891           0.252  
> 2023 05 18 00 01 28.0688020  0  7                     
G02  24389774.438      322342.591        3931.882           0.239  
G03  22280755.824      -43343.358        -604.830           0.255  
G04  23789191.940     -205766.154       -2880.401           0.244  
G05  22506238.951      196045.428        2682.467           0.255  
G06  20632259.533      -33695.606        -535.897           0.255  
G07  23548455.382     -106142.287       -1838.873           0.247  
G09  23025442.837     -105433.653       -1940.776           0.252  
> 2023 05 18 00 01 28.1688020  0  7                     
G02  24389699.481      322735.802        3931.168           0.239  
G03  22280767.276      -43403.924        -605.146           0.255  
G04  23789246.745     -206054.155       -2880.328           0.244  
G05  22506187.924      196313.657        2683.083           0.255  
G06  20632269.841      -33749.257        -536.167           0.255  
G07  23548490.384     -106326.198       -1838.993           0.247  
G09  23025479.808     -105627.687       -1940.221           0.252  
> 2023 05 18 00 01 28.2688020  0  7                     
G02  24389624.631      323129.021        3932.218           0.239  
G03  22280778.979      -43464.500        -605.918           0.255  
G04  23789301.320     -206342.162       -2880.971           0.244  
G05  22506136.668      196581.730        2646.830           0.255  
G06  20632280.008      -33802.915        -536.507           0.255  
G07  23548525.547     -106510.119       -1843.872           0.247  
G09  23025516.818     -105821.722       -1940.387           0.252  
> 2023 05 18 00 01 28.3688020  0  7                     
G02  24389550.107      323522.215        3932.214           0.239  
G03  22280790.470      -43525.078        -606.151           0.255  
G04  23789356.438     -206630.167       -2880.813           0.244  
G05  22506085.699      196850.093        2681.719           0.255  
G06  20632290.311      -33856.573        -536.743           0.255  
G07  23548560.510     -106694.037       -1838.565           0.247  
G09  23025553.532     -106015.761       -1940.235           0.252  
> 2023 05 18 00 01 28.4688020  0  7                     
G02  24389475.298      323915.427        3931.836           0.239  
G03  22280801.943      -43585.664        -606.322           0.255  
G04  23789411.197     -206918.170       -2880.139           0.244  
G05  22506034.792      197118.319        2682.137           0.255  
G06  20632300.494      -33910.237        -537.006           0.255  
G07  23548595.160     -106877.964       -1839.455           0.247  
G09  23025590.565     -106209.798       -1940.498           0.252  
> 2023 05 18 00 01 28.5688020  0  7                     
G02  24389400.265      324308.642        3932.029           0.239  
G03  22280813.465      -43646.256        -606.443           0.255  
G04  23789465.858     -207206.181       -2880.622           0.244  
G05  22505983.747      197386.532        2682.403           0.255  
G06  20632310.640      -33963.906        -537.052           0.255  
G07  23548630.446     -107061.892       -1839.062           0.247  
G09  23025627.472     -106403.835       -1940.320           0.252  
> 2023 05 18 00 01 28.6688020  0  7                     
G02  24389325.552      324701.850        3931.667           0.239  
G03  22280825.020      -43706.852        -606.380           0.255  
G04  23789520.434     -207494.183       -2879.966           0.244  
G05  22505932.633      197654.677        2686.625           0.255  
G06  20632320.994      -34017.581        -537.093           0.255  
G07  23548665.790     -107245.825       -1839.428           0.247  
G09  23025664.383     -106597.877       -1940.456           0.252  
> 2023 05 18 00 01 28.7688020  0  7                     
G02  24389250.593      325094.816        3903.183           0.239  
G03  22280836.493      -43767.455        -606.448           0.255  
G04  23789575.356     -207782.198       -2880.326           0.244  
G05  22505881.552      197922.842        2674.057           0.255  
G06  20632331.169      -34071.256        -537.058           0.255  
G07  23548700.473     -107429.901       -1860.747           0.247  
G09  23025701.166     -106791.920       -1940.616           0.252  
> 2023 05 18 00 01 28.8688020  0  7                     
G02  24389175.834      325488.288        3932.749           0.239  
G03  22280848.052      -43828.062        -606.108           0.255  
G04  23789630.033     -208070.207       -2880.389           0.244  
G05  22505830.613      198191.139        2681.769           0.255  
G06  20632341.293      -34124.936        -536.780           0.255  
G07  23548735.625     -107613.706       -1846.104           0.247  
G09  23025738.184     -106985.962       -1940.127           0.252  
> 2023 05 18 00 01 28.9688020  0  7                     
G02  24389101.254      325881.500        3932.553           0.239  
G03  22280859.632      -43888.479        -602.431           0.255  
G04  23789684.830     -208358.225       -2880.482           0.244  
G05  22505779.678      198459.341        2681.642           0.255  
G06  20632351.494      -34178.623        -536.638           0.255  
G07  23548770.599     -107797.641       -1839.589           0.247  
G09  23025775.093     -107180.006       -1940.348           0.252  
> 2023 05 18 00 01 29.0688020  0  7                     
G02  24389025.805      326274.708        3931.600           0.239  
G03  22280871.040      -43949.294        -605.567           0.255  
G04  23789739.778     -208646.229       -2879.574           0.244  
G05  22505728.598      198727.547        2681.658           0.255  
G06  20632361.685      -34232.315        -536.608           0.255  
G07  23548805.482     -107981.681       -1849.356           0.247  
G09  23025812.120     -107374.049       -1940.536           0.252  
> 2023 05 18 00 01 29.1688020  0  7                     
G02  24388951.448      326667.923        3931.553           0.239  
G03  22280882.482      -44009.918        -605.299           0.255  
G04  23789794.805     -208934.247       -2880.211           0.244  
G05  22505677.507      198995.741        2682.150           0.255  
G06  20632372.034      -34286.006        -536.525           0.255  
G07  23548840.596     -108165.545       -1839.598           0.247  
G09  23025849.259     -107568.091       -1940.434           0.252  
> 2023 05 18 00 01 29.2688020  0  7                     
G02  24388876.628      327061.140        3932.210           0.239  
G03  22280894.174      -44070.550        -605.355           0.255  
G04  23789849.375     -209222.264       -2880.590           0.244  
G05  22505626.515      199263.934        2682.046           0.255  
G06  20632382.044      -34339.703        -536.279           0.255  
G07  23548875.652     -108349.500       -1839.788           0.247  
G09  23025886.014     -107762.141       -1940.347           0.251  
> 2023 05 18 00 01 29.3688020  0  7                     
G02  24388801.610      327454.227        3914.925           0.239  
G03  22280905.770      -44131.186        -605.398           0.255  
G04  23789903.860     -209510.430       -2906.467           0.244  
G05  22505575.438      199532.037        2655.902           0.255  
G06  20632392.472      -34393.407        -536.328           0.255  
G07  23548910.757     -108533.379       -1827.506           0.247  
G09  23025923.041     -107956.285       -1949.746           0.252  
> 2023 05 18 00 01 29.4688020  0  7                     
G02  24388726.944      327847.568        3932.191           0.239  
G03  22280917.253      -44191.834        -605.934           0.255  
G04  23789959.234     -209798.303       -2880.665           0.244  
G05  22505524.389      199800.313        2681.717           0.255  
G06  20632402.784      -34447.119        -536.568           0.255  
G07  23548945.232     -108717.333       -1818.467           0.247  
G09  23025959.724     -108150.180       -1944.511           0.252  
> 2023 05 18 00 01 29.5688020  0  7                     
G02  24388651.776      328240.778        3931.569           0.239  
G03  22280928.773      -44252.486        -606.280           0.255  
G04  23790013.752     -210086.317       -2880.323           0.244  
G05  22505473.380      200068.493        2681.802           0.255  
G06  20632412.876      -34500.831        -536.694           0.255  
G07  23548980.771     -108901.337       -1836.284           0.247  
G09  23025996.824     -108344.311       -1941.788           0.252  
> 2023 05 18 00 01 29.6688020  0  7                     
G02  24388577.148      328633.991        3931.794           0.239  
G03  22280940.309      -44313.425        -629.776           0.255  
G04  23790068.695     -210374.337       -2880.505           0.244  
G05  22505422.473      200336.670        2687.898           0.255  
G06  20632423.156      -34554.550        -536.999           0.255  
G07  23549015.965     -109085.216       -1830.293           0.247  
G09  23026033.767     -108538.437       -1953.284           0.251  
> 2023 05 18 00 01 29.7688020  0  7                     
G02  24388502.311      329027.211        3932.340           0.239  
G03  22280951.800      -44373.812        -607.085           0.255  
G04  23790123.179     -210662.364       -2880.812           0.244  
G05  22505371.335      200604.808        2665.675           0.255  
G06  20632433.371      -34608.275        -537.267           0.255  
G07  23549050.545     -109269.315       -1854.441           0.247  
G09  23026070.819     -108732.392       -1940.359           0.252  
> 2023 05 18 00 01 29.8688020  0  7                     
G02  24388427.549      329420.426        3932.427           0.239  
G03  22280963.305      -44434.481        -607.314           0.255  
G04  23790178.199     -210950.386       -2880.545           0.244  
G05  22505320.215      200873.031        2681.374           0.255  
G06  20632443.442      -34662.006        -537.553           0.255  
G07  23549085.592     -109453.351       -1857.297           0.247  
G09  23026107.948     -108926.445       -1940.254           0.251  
> 2023 05 18 00 01 29.9688020  0  7                     
G02  24388352.322      329813.637        3931.981           0.239  
G03  22280975.153      -44495.157        -607.219           0.255  
G04  23790232.916     -211238.409       -2880.132           0.244  
G05  22505269.345      201141.201        2681.379           0.255  
G06  20632453.754      -34715.737        -537.754           0.255  
G07  23549120.201     -109637.286       -1839.791           0.247  
G09  23026144.933     -109120.500       -1940.334           0.251  
> 2023 05 18 00 01 30.0688020  0  7                     
G02  24388277.625      330206.846        3931.788           0.239  
G03  22280986.814      -44555.858        -609.361           0.255  
G04  23790287.971     -211526.431       -2879.547           0.244  
G05  22505218.210      201409.370        2681.000           0.255  
G06  20632463.913      -34769.465        -536.198           0.255  
G07  23549155.236     -109821.272       -1839.852           0.247  
G09  23026181.490     -109314.555       -1940.547           0.252  
> 2023 05 18 00 01 30.1688020  0  7                     
G02  24388203.156      330600.051        3932.708           0.239  
G03  22280998.449      -44616.539        -608.666           0.255  
G04  23790342.949     -211814.462       -2880.392           0.244  
G05  22505167.260      201677.537        2681.506           0.255  
G06  20632474.343      -34823.211        -536.808           0.255  
G07  23549189.790     -110005.258       -1839.613           0.247  
G09  23026218.487     -109508.611       -1940.708           0.252  
> 2023 05 18 00 01 30.2688020  0  7                     
G02  24388128.463      330993.264        3932.137           0.239  
G03  22281009.958      -44676.579        -563.529           0.255  
G04  23790397.797     -212102.494       -2879.935           0.244  
G05  22505116.309      201945.661        2692.883           0.255  
G06  20632484.558      -34876.963        -537.025           0.255  
G07  23549224.815     -110189.326       -1859.301           0.247  
G09  23026255.387     -109702.624       -1923.452           0.252  
> 2023 05 18 00 01 30.3688020  0  7                     
G02  24388053.262      331386.482        3932.646           0.239  
G03  22281021.376      -44737.925        -608.421           0.255  
G04  23790452.443     -212390.524       -2880.635           0.244  
G05  22505065.116      202213.858        2681.870           0.255  
G06  20632494.653      -34930.713        -537.540           0.255  
G07  23549260.252     -110373.246       -1840.074           0.247  
G09  23026292.307     -109896.737       -1940.634           0.252  
> 2023 05 18 00 01 30.4688020  0  7                     
G02  24387978.386      331779.689        3931.996           0.239  
G03  22281032.745      -44798.629        -607.443           0.255  
G04  23790507.339     -212678.564       -2880.002           0.244  
G05  22505013.880      202482.013        2681.717           0.255  
G06  20632505.195      -34984.465        -537.739           0.255  
G07  23549295.354     -110557.251       -1840.105           0.247  
G09  23026329.243     -110090.796       -1940.571           0.251  
> 2023 05 18 00 01 30.5688020  0  7                     
G02  24387903.824      332172.900        3931.986           0.239  
G03  22281044.308      -44859.341        -607.230           0.255  
G04  23790562.410     -212966.594       -2879.436           0.244  
G05  22504962.828      202750.167        2681.219           0.255  
G06  20632515.069      -35038.224        -537.703           0.255  
G07  23549330.635     -110741.250       -1839.778           0.247  
G09  23026366.224     -110284.854       -1940.090           0.252  
> 2023 05 18 00 01 30.6688020  0  7                     
G02  24387829.228      332566.115        3932.512           0.239  
G03  22281055.520      -44920.036        -606.400           0.255  
G04  23790617.423     -213254.625       -2879.178           0.244  
G05  22504911.346      203018.317        2680.944           0.255  
G06  20632525.508      -35092.002        -538.959           0.255  
G07  23549365.844     -110925.263       -1840.399           0.247  
G09  23026402.798     -110478.918       -1941.311           0.252  
> 2023 05 18 00 01 30.7688020  0  7                     
G02  24387754.295      332959.326        3931.859           0.239  
G03  22281066.453      -44980.760        -606.451           0.255  
G04  23790671.817     -213542.661       -2880.062           0.244  
G05  22504860.512      203286.467        2681.277           0.255  
G06  20632535.796      -35145.766        -538.707           0.255  
G07  23549401.282     -111109.273       -1840.734           0.247  
G09  23026439.510     -110672.977       -1940.538           0.252  
> 2023 05 18 00 01 30.8688020  0  7                     
G02  24387678.731      333352.539        3931.641           0.239  
G03  22281078.730      -45041.502        -605.861           0.255  
G04  23790726.673     -213830.695       -2879.596           0.244  
G05  22504809.339      203554.615        2681.852           0.255  
G06  20632546.017      -35199.528        -537.864           0.255  
G07  23549436.190     -111293.289       -1840.813           0.247  
G09  23026476.714     -110867.047       -1940.587           0.252  
> 2023 05 18 00 01 30.9688020  0  7                     
G02  24387604.103      333745.757        3931.762           0.239  
G03  22281090.447      -45102.240        -605.599           0.255  
G04  23790781.060     -214118.732       -2879.674           0.244  
G05  22504758.709      203822.754        2681.778           0.255  
G06  20632556.381      -35253.303        -537.616           0.255  
G07  23549470.624     -111477.353       -1835.418           0.247  
G09  23026513.649     -111061.119       -1941.064           0.251  
> 2023 05 18 00 01 31.0688020  0  7                     
G02  24387529.596      334138.968        3932.138           0.239  
G03  22281102.127      -45162.985        -606.409           0.255  
G04  23790835.698     -214406.770       -2879.826           0.244  
G05  22504707.689      204090.889        2681.734           0.255  
G06  20632566.400      -35307.088        -537.475           0.255  
G07  23549505.861     -111661.328       -1840.201           0.247  
G09  23026550.881     -111255.182       -1940.769           0.252  
> 2023 05 18 00 01 31.1688020  0  7                     
G02  24387454.917      334532.187        3932.469           0.239  
G03  22281113.765      -45223.040        -453.553           0.255  
G04  23790890.464     -214694.544       -2886.235           0.244  
G05  22504657.019      204359.032        2712.727           0.255  
G06  20632576.455      -35360.883        -537.862           0.255  
G07  23549541.510     -111845.356       -1840.217           0.247  
G09  23026587.533     -111449.249       -1940.885           0.251  
> 2023 05 18 00 01 31.2688020  0  7                     
G02  24387379.638      334925.399        3931.993           0.239  
G03  22281125.084      -45284.477        -604.862           0.255  
G04  23790945.506     -214982.846       -2880.183           0.244  
G05  22504606.281      204627.156        2681.392           0.255  
G06  20632586.651      -35414.672        -538.784           0.255  
G07  23549576.363     -112029.390       -1840.231           0.247  
G09  23026624.434     -111643.317       -1941.093           0.251  
> 2023 05 18 00 01 31.3688020  0  7                     
G02  24387305.311      335318.611        3932.457           0.239  
G03  22281136.659      -45345.249        -606.468           0.255  
G04  23791000.177     -215270.893       -2879.567           0.244  
G05  22504555.303      204895.287        2681.151           0.255  
G06  20632597.170      -35468.465        -537.806           0.255  
G07  23549610.972     -112213.424       -1840.341           0.247  
G09  23026661.142     -111837.339       -1928.614           0.251  
> 2023 05 18 00 01 31.4688020  0  7                     
G02  24387231.233      335711.824        3932.624           0.240  
G03  22281147.951      -45406.016        -606.358           0.255  
G04  23791055.970     -215558.932       -2879.110           0.244  
G05  22504503.900      205163.503        2700.938           0.255  
G06  20632607.395      -35522.267        -538.242           0.255  
G07  23549645.901     -112397.462       -1840.539           0.247  
G09  23026697.501     -112031.529       -1946.897           0.252  
> 2023 05 18 00 01 31.5688020  0  7                     
G02  24387155.755      336105.019        3931.943           0.239  
G03  22281159.724      -45466.795        -606.505           0.255  
G04  23791110.234     -215846.979       -2880.522           0.244  
G05  22504452.744      205431.539        2681.240           0.255  
G06  20632617.503      -35576.072        -537.781           0.255  
G07  23549680.978     -112581.501       -1840.362           0.247  
G09  23026735.081     -112225.538       -1941.168           0.251  
> 2023 05 18 00 01 31.6688020  0  7                     
G02  24387080.909      336498.236        3932.553           0.239  
G03  22281171.519      -45527.572        -607.128           0.255  
G04  23791164.909     -216135.028       -2880.305           0.244  
G05  22504401.911      205699.662        2681.530           0.255  
G06  20632627.746      -35629.884        -537.775           0.255  
G07  23549716.000     -112765.558       -1840.715           0.247  
G09  23026772.229     -112419.608       -1940.988           0.251  
> 2023 05 18 00 01 31.7688020  0  7                     
G02  24387005.716      336891.450        3932.541           0.239  
G03  22281183.392      -45588.634        -621.670           0.255  
G04  23791219.770     -216423.078       -2880.314           0.244  
G05  22504351.070      205967.886        2711.272           0.255  
G06  20632637.936      -35683.701        -537.978           0.255  
G07  23549750.437     -112949.832       -1879.096           0.247  
G09  23026809.511     -112613.572       -1923.527           0.252  
> 2023 05 18 00 01 31.8688020  0  7                     
G02  24386930.962      337284.659        3932.316           0.239  
G03  22281194.745      -45649.150        -607.812           0.255  
G04  23791274.931     -216711.127       -2880.254           0.244  
G05  22504299.851      206235.888        2681.250           0.255  
G06  20632648.165      -35737.520        -537.937           0.255  
G07  23549786.123     -113133.657       -1839.880           0.247  
G09  23026845.999     -112807.760       -1940.474           0.251  
> 2023 05 18 00 01 31.9688020  0  7                     
G02  24386855.964      337678.031        3907.548           0.239  
G03  22281206.079      -45709.945        -607.262           0.255  
G04  23791329.703     -216999.174       -2880.131           0.244  
G05  22504248.759      206504.132        2705.921           0.255  
G06  20632658.442      -35791.349        -538.302           0.255  
G07  23549820.927     -113317.755       -1877.518           0.247  
G09  23026882.941     -113001.845       -1941.141           0.251  
> 2023 05 18 00 01 32.0688020  0  7                     
G02  24386781.413      338071.088        3932.051           0.239  
G03  22281217.828      -45770.748        -607.932           0.255  
G04  23791384.782     -217287.226       -2880.250           0.244  
G05  22504197.572      206772.299        2706.718           0.255  
G06  20632668.762      -35845.178        -538.454           0.255  
G07  23549855.977     -113501.639       -1816.316           0.247  
G09  23026919.740     -113195.944       -1948.979           0.251  
> 2023 05 18 00 01 32.1688020  0  7                     
G02  24386706.322      338464.309        3932.867           0.239  
G03  22281229.504      -45831.876        -620.700           0.255  
G04  23791438.965     -217575.280       -2880.732           0.244  
G05  22504146.388      207040.375        2685.952           0.255  
G06  20632678.999      -35899.011        -538.478           0.255  
G07  23549891.229     -113685.759       -1826.378           0.247  
G09  23026956.902     -113390.167       -1963.083           0.252  
> 2023 05 18 00 01 32.2688020  0  7                     
G02  24386631.533      338857.519        3932.645           0.239  
G03  22281240.783      -45892.376        -608.437           0.255  
G04  23791494.044     -217863.336       -2880.445           0.244  
G05  22504095.527      207308.357        2668.442           0.255  
G06  20632689.243      -35952.853        -538.699           0.255  
G07  23549925.941     -113869.897       -1824.412           0.247  
G09  23026993.987     -113584.135       -1951.993           0.252  
> 2023 05 18 00 01 32.3688020  0  7                     
G02  24386556.795      339250.725        3931.302           0.239  
G03  22281252.318      -45953.200        -608.638           0.255  
G04  23791548.344     -218151.402       -2880.481           0.244  
G05  22504044.489      207576.411        2681.018           0.255  
G06  20632699.382      -36006.699        -538.933           0.255  
G07  23549961.268     -114053.978       -1840.832           0.247  
G09  23027030.738     -113778.164       -1941.216           0.252  
> 2023 05 18 00 01 32.4688020  0  7                     
G02  24386479.896      339643.937        3931.314           0.239  
G03  22281264.224      -46014.053        -610.258           0.255  
G04  23791602.927     -218439.454       -2880.274           0.244  
G05  22503993.557      207844.499        2680.508           0.255  
G06  20632709.712      -36060.531        -537.005           0.255  
G07  23549996.615     -114238.058       -1840.960           0.247  
G09  23027067.876     -113972.248       -1940.847           0.252  
> 2023 05 18 00 01 32.5688020  0  7                     
G02  24386406.886      340037.190        3946.395           0.239  
G03  22281275.655      -46074.499        -560.178           0.255  
G04  23791658.036     -218727.515       -2880.907           0.244  
G05  22503942.592      208112.739        2690.427           0.255  
G06  20632719.912      -36114.393        -538.236           0.255  
G07  23550031.241     -114421.694       -1784.140           0.247  
G09  23027104.984     -114166.326       -1943.129           0.252  
> 2023 05 18 00 01 32.6688020  0  7                     
G02  24386331.959      340430.244        3926.927           0.239  
G03  22281287.206      -46135.706        -609.385           0.255  
G04  23791713.211     -219015.574       -2880.834           0.244  
G05  22503891.626      208380.922        2720.616           0.255  
G06  20632730.178      -36168.253        -538.770           0.255  
G07  23550066.185     -114606.292       -1858.693           0.247  
G09  23027141.532     -114360.417       -1940.823           0.251  
> 2023 05 18 00 01 32.7688020  0  7                     
G02  24386257.444      340824.000        3978.730           0.239  
G03  22281298.826      -46196.587        -584.264           0.255  
G04  23791767.899     -219303.636       -2880.682           0.244  
G05  22503840.594      208648.598        2675.119           0.255  
G06  20632740.508      -36222.117        -538.921           0.255  
G07  23550101.383     -114790.305       -1840.700           0.247  
G09  23027178.608     -114554.605       -1958.065           0.252  
> 2023 05 18 00 01 32.8688020  0  7                     
G02  24386182.476      341216.799        3931.448           0.239  
G03  22281310.377      -46257.403        -609.222           0.255  
G04  23791822.853     -219591.699       -2880.892           0.244  
G05  22503789.325      208916.832        2681.059           0.255  
G06  20632750.769      -36275.980        -538.861           0.255  
G07  23550136.184     -114974.393       -1840.658           0.247  
G09  23027215.348     -114748.589       -1940.760           0.252  
> 2023 05 18 00 01 32.9688020  0  7                     
G02  24386107.681      341610.011        3931.776           0.239  
G03  22281322.002      -46318.262        -609.262           0.255  
G04  23791877.442     -219879.755       -2880.242           0.244  
G05  22503738.742      209184.909        2680.951           0.255  
G06  20632760.754      -36329.854        -539.170           0.255  
G07  23550170.939     -115158.489       -1840.800           0.247  
G09  23027252.825     -114942.673       -1940.571           0.252  
> 2023 05 18 00 01 33.0688020  0  7                     
G02  24386031.357      342003.230        3933.459           0.240  
G03  22281333.369      -46379.194        -650.952           0.255  
G04  23791932.120     -220167.815       -2880.285           0.244  
G05  22503688.470      209452.985        2680.954           0.255  
G06  20632770.941      -36383.720        -537.592           0.255  
G07  23550206.862     -115342.792       -1867.136           0.247  
G09  23027290.023     -115136.777       -1950.113           0.252  
> 2023 05 18 00 01 33.1688020  0  7                     
G02  24385957.809      342396.446        3932.502           0.239  
G03  22281345.085      -46440.006        -610.737           0.255  
G04  23791987.089     -220455.882       -2880.450           0.244  
G05  22503636.929      209721.054        2680.027           0.255  
G06  20632781.292      -36437.610        -538.560           0.255  
G07  23550241.727     -115526.689       -1840.897           0.247  
G09  23027326.759     -115330.861       -1941.551           0.251  
> 2023 05 18 00 01 33.2688020  0  7                     
G02  24385883.186      342789.641        3932.549           0.239  
G03  22281356.695      -46500.876        -609.609           0.255  
G04  23792042.094     -220743.956       -2880.885           0.244  
G05  22503585.738      209989.119        2679.754           0.255  
G06  20632791.684      -36491.494        -539.425           0.255  
G07  23550276.519     -115710.796       -1840.982           0.247  
G09  23027363.341     -115524.953       -1941.191           0.251  
> 2023 05 18 00 01 33.3688020  0  7                     
G02  24385808.631      343182.921        3935.715           0.239  
G03  22281368.290      -46561.760        -609.652           0.255  
G04  23792096.881     -221031.968       -2875.264           0.244  
G05  22503534.892      210257.193        2680.617           0.255  
G06  20632802.015      -36545.383        -539.573           0.255  
G07  23550311.346     -115894.883       -1817.169           0.247  
G09  23027400.038     -115719.044       -1940.905           0.252  
> 2023 05 18 00 01 33.4688020  0  7                     
G02  24385733.645      343575.863        3898.676           0.239  
G03  22281379.891      -46622.649        -609.732           0.255  
G04  23792151.826     -221320.309       -2907.745           0.244  
G05  22503483.873      210525.254        2680.635           0.255  
G06  20632812.302      -36599.277        -539.525           0.255  
G07  23550346.392     -116079.014       -1840.573           0.247  
G09  23027437.161     -115913.131       -1940.356           0.252  
> 2023 05 18 00 01 33.5688020  0  7                     
G02  24385658.999      343969.273        3931.845           0.239  
G03  22281391.351      -46683.545        -610.058           0.255  
G04  23792207.099     -221608.159       -2881.252           0.244  
G05  22503432.857      210793.317        2680.479           0.255  
G06  20632822.491      -36653.179        -539.618           0.255  
G07  23550381.228     -116263.130       -1840.539           0.247  
G09  23027473.651     -116107.229       -1940.518           0.252  
> 2023 05 18 00 01 33.6688020  0  7                     
G02  24385582.949      344362.494        3931.541           0.239  
G03  22281403.209      -46744.466        -611.817           0.255  
G04  23792261.233     -221896.233       -2881.733           0.244  
G05  22503381.660      211061.369        2680.524           0.255  
G06  20632832.785      -36707.072        -538.212           0.255  
G07  23550416.422     -116447.247       -1840.200           0.247  
G09  23027511.056     -116301.328       -1940.837           0.252  
> 2023 05 18 00 01 33.7688020  0  7                     
G02  24385508.959      344755.701        3931.555           0.239  
G03  22281414.646      -46805.361        -611.235           0.255  
G04  23792316.329     -222184.305       -2881.118           0.244  
G05  22503330.505      211329.422        2680.202           0.255  
G06  20632843.103      -36760.985        -539.009           0.255  
G07  23550451.319     -116631.385       -1841.285           0.247  
G09  23027547.707     -116495.427       -1941.387           0.251  
> 2023 05 18 00 01 33.8688020  0  7                     
G02  24385434.395      345148.921        3931.783           0.239  
G03  22281426.171      -46866.268        -610.264           0.255  
G04  23792371.104     -222472.381       -2881.497           0.244  
G05  22503279.380      211597.472        2680.166           0.255  
G06  20632853.251      -36814.899        -539.676           0.255  
G07  23550486.556     -116815.673       -1866.401           0.247  
G09  23027584.911     -116689.735       -1982.930           0.251  
> 2023 05 18 00 01 33.9688020  0  7                     
G02  24385359.843      345542.131        3932.649           0.239  
G03  22281437.738      -46927.187        -610.239           0.255  
G04  23792425.956     -222760.453       -2881.307           0.244  
G05  22503228.354      211865.525        2680.586           0.255  
G06  20632863.470      -36868.818        -539.810           0.255  
G07  23550521.664     -116999.648       -1841.347           0.247  
G09  23027621.739     -116883.620       -1940.743           0.252  
> 2023 05 18 00 01 34.0688020  0  7                     
G02  24385284.820      345935.352        3932.540           0.239  
G03  22281449.269      -46988.102        -609.130           0.255  
G04  23792481.001     -223048.525       -2881.135           0.244  
G05  22503177.409      212133.565        2680.680           0.255  
G06  20632873.802      -36922.732        -539.544           0.255  
G07  23550556.462     -117183.783       -1841.091           0.247  
G09  23027658.303     -117077.728       -1941.441           0.252  
> 2023 05 18 00 01 34.1688020  0  7                     
G02  24385209.636      346328.561        3931.761           0.239  
G03  22281460.713      -47049.042        -609.578           0.255  
G04  23792535.732     -223336.604       -2879.588           0.244  
G05  22503126.887      212401.604        2680.893           0.255  
G06  20632884.071      -36976.659        -539.919           0.255  
G07  23550591.182     -117367.921       -1841.891           0.247  
G09  23027695.475     -117271.870       -1955.197           0.252  
> 2023 05 18 00 01 34.2688020  0  7                     
G02  24385135.259      346721.780        3931.513           0.239  
G03  22281472.907      -47109.986        -608.575           0.255  
G04  23792590.337     -223624.689       -2880.939           0.244  
G05  22503075.646      212669.641        2680.520           0.255  
G06  20632894.386      -37030.583        -539.142           0.255  
G07  23550625.917     -117552.140       -1830.097           0.247  
G09  23027732.238     -117465.929       -1940.601           0.251  
> 2023 05 18 00 01 34.3688020  0  7                     
G02  24385060.306      347114.988        3932.226           0.239  
G03  22281484.410      -47170.917        -607.520           0.255  
G04  23792645.521     -223912.761       -2880.956           0.244  
G05  22503024.894      212937.676        2680.581           0.255  
G06  20632904.472      -37084.523        -539.452           0.255  
G07  23550661.474     -117736.222       -1842.102           0.247  
G09  23027769.346     -117660.034       -1940.614           0.251  
> 2023 05 18 00 01 34.4688020  0  7                     
G02  24384985.112      347508.209        3932.845           0.239  
G03  22281495.611      -47232.224        -628.520           0.255  
G04  23792700.911     -224200.847       -2880.955           0.244  
G05  22502973.336      213205.421        2657.048           0.255  
G06  20632914.683      -37138.457        -538.591           0.255  
G07  23550697.043     -117920.367       -1842.062           0.248  
G09  23027806.710     -117854.142       -1941.078           0.252  
> 2023 05 18 00 01 34.5688020  0  7                     
G02  24384910.089      347901.420        3932.116           0.239  
G03  22281507.501      -47292.806        -607.162           0.255  
G04  23792754.706     -224488.927       -2881.244           0.244  
G05  22502922.683      213473.593        2686.524           0.255  
G06  20632925.244      -37192.415        -540.567           0.255  
G07  23550732.119     -118104.522       -1841.660           0.247  
G09  23027843.107     -118048.240       -1940.691           0.252  
> 2023 05 18 00 01 34.6688020  0  7                     
G02  24384834.788      348294.636        3932.034           0.239  
G03  22281519.388      -47353.776        -607.050           0.255  
G04  23792809.226     -224777.011       -2880.589           0.244  
G05  22502871.989      213741.757        2680.517           0.255  
G06  20632935.199      -37246.356        -539.743           0.255  
G07  23550766.591     -118288.681       -1841.231           0.247  
G09  23027880.189     -118242.350       -1940.983           0.251  
> 2023 05 18 00 01 34.7688020  0  7                     
G02  24384760.963      348687.836        3931.378           0.239  
G03  22281530.753      -47414.751        -607.996           0.255  
G04  23792863.721     -225065.095       -2880.939           0.244  
G05  22502820.721      214009.782        2680.345           0.255  
G06  20632945.553      -37300.312        -539.683           0.255  
G07  23550801.823     -118472.844       -1841.836           0.247  
G09  23027917.401     -118436.463       -1941.169           0.251  
> 2023 05 18 00 01 34.8688020  0  7                     
G02  24384685.774      349081.052        3932.335           0.239  
G03  22281542.267      -47475.731        -609.606           0.255  
G04  23792918.352     -225353.172       -2880.233           0.244  
G05  22502769.472      214277.802        2680.504           0.255  
G06  20632956.026      -37354.265        -539.713           0.255  
G07  23550837.173     -118657.009       -1841.794           0.247  
G09  23027954.670     -118630.576       -1941.923           0.252  
> 2023 05 18 00 01 34.9688020  0  7                     
G02  24384611.411      349474.275        3932.958           0.239  
G03  22281553.872      -47536.712        -609.106           0.255  
G04  23792973.927     -225641.254       -2878.962           0.244  
G05  22502718.510      214545.815        2679.944           0.255  
G06  20632966.155      -37408.227        -539.129           0.255  
G07  23550872.160     -118841.203       -1837.181           0.247  
G09  23027991.453     -118824.683       -1941.380           0.252  
> 2023 05 18 00 01 35.0688020  0  7                     
G02  24384537.189      349867.485        3931.924           0.239  
G03  22281565.398      -47597.701        -609.263           0.255  
G04  23793028.849     -225929.347       -2879.669           0.244  
G05  22502667.714      214813.831        2680.005           0.255  
G06  20632976.386      -37462.196        -539.232           0.255  
G07  23550907.020     -119025.357       -1842.465           0.247  
G09  23028028.264     -119018.794       -1941.235           0.252  
> 2023 05 18 00 01 35.1688020  0  7                     
G02  24384461.875      350260.695        3931.820           0.239  
G03  22281576.993      -47658.691        -610.280           0.255  
G04  23793083.406     -226217.444       -2880.357           0.244  
G05  22502616.491      215081.843        2680.226           0.255  
G06  20632986.715      -37516.169        -539.741           0.255  
G07  23550942.275     -119209.534       -1842.332           0.247  
G09  23028065.238     -119212.913       -1941.313           0.252  
> 2023 05 18 00 01 35.2688020  0  7                     
G02  24384386.320      350653.911        3931.811           0.239  
G03  22281588.365      -47719.691        -610.298           0.255  
G04  23793139.101     -226505.539       -2880.623           0.244  
G05  22502565.916      215349.848        2680.103           0.255  
G06  20632996.885      -37570.142        -539.681           0.255  
G07  23550976.909     -119393.713       -1842.109           0.247  
G09  23028102.215     -119407.028       -1941.363           0.252  
> 2023 05 18 00 01 35.3688020  0  7                     
G02  24384311.991      351047.129        3931.351           0.239  
G03  22281600.103      -47780.703        -609.896           0.255  
G04  23793193.018     -226793.629       -2881.248           0.244  
G05  22502514.358      215617.840        2680.043           0.255  
G06  20633007.277      -37624.124        -539.338           0.255  
G07  23551012.534     -119577.896       -1841.420           0.247  
G09  23028139.223     -119601.144       -1940.932           0.251  
> 2023 05 18 00 01 35.4688020  0  7                     
G02  24384236.804      351440.345        3932.614           0.239  
G03  22281611.461      -47841.720        -610.299           0.255  
G04  23793247.958     -227081.720       -2881.002           0.244  
G05  22502463.549      215885.841        2680.061           0.255  
G06  20633017.489      -37678.096        -538.846           0.255  
G07  23551047.559     -119762.085       -1841.556           0.247  
G09  23028175.987     -119795.256       -1940.938           0.252  
> 2023 05 18 00 01 35.5688020  0  7                     
G02  24384162.552      351833.558        3932.292           0.239  
G03  22281623.665      -47902.725        -610.022           0.255  
G04  23793301.989     -227369.811       -2880.076           0.244  
G05  22502412.337      216153.842        2680.472           0.255  
G06  20633027.754      -37732.101        -540.206           0.255  
G07  23551082.232     -119946.278       -1842.030           0.247  
G09  23028212.967     -119989.378       -1941.689           0.252  
