     3.03           OBSERVATION DATA    M: Mixed            RINEX VERSION / TYPE
GNSS-SDRLIB v1.1                        20230710 132649 UTC PGM / RUN BY / DATE 
                                                            MARKER NAME         
                                                            MARKER NUMBER       
                                                            MARKER TYPE         
                                                            OBSERVER / AGENCY   
GNSS-SDRLIB         GNSS-SDRLIB         1.1                 REC # / TYPE / VERS 
                                                            ANT # / TYPE        
        0.0000        0.0000        0.0000                  APPROX POSITION XYZ 
        0.0000        0.0000        0.0000                  ANTENNA: DELTA H/E/N
G    4 C1C L1C D1C S1C                                      SYS / # / OBS TYPES 
R    4 C1C L1C D1C S1C                                      SYS / # / OBS TYPES 
E    4 C1C L1C D1C S1C                                      SYS / # / OBS TYPES 
J    4 C1C L1C D1C S1C                                      SYS / # / OBS TYPES 
S    4 C1C L1C D1C S1C                                      SYS / # / OBS TYPES 
C    4 C1C L1C D1C S1C                                      SYS / # / OBS TYPES 
I    4 C1C L1C D1C S1C                                      SYS / # / OBS TYPES 
  1970    01    01    00    00   00.0000000     GPS         TIME OF FIRST OBS   
  1970    01    01    00    00   00.0000000     GPS         TIME OF LAST OBS    
G L1C                                                       SYS / PHASE SHIFT   
R L1C                                                       SYS / PHASE SHIFT   
E L1C  0.00000                                              SYS / PHASE SHIFT   
J L1C                                                       SYS / PHASE SHIFT   
S L1C                                                       SYS / PHASE SHIFT   
C L1C  0.00000                                              SYS / PHASE SHIFT   
I L1C  0.00000                                              SYS / PHASE SHIFT   
  0                                                         GLONASS SLOT / FRQ #
 C1C    0.000 C1P    0.000 C2C    0.000 C2P    0.000        GLONASS COD/PHS/BIS 
                                                            END OF HEADER       
> 2023 05 18 00 00 36.0688020  0  2                     
G04  21387277.828      -97747.407       -4880.151           0.144  
G09  20632825.628      -69005.353       -4178.599           0.152  
> 2023 05 18 00 00 36.0688020  0  4                     
G04  23769661.742      -97708.623       -4878.530           0.144  
G06  20636001.722      -60213.416       -3114.437           0.174  
G07  23539294.269      -76023.652       -4089.021           0.147  
G09  23015209.541      -68972.147       -4178.597           0.152  
> 2023 05 18 00 00 36.0688020  0  5                     
G03  22283853.892      -65426.327       -3158.353           0.162  
G04  23769661.742      -97708.623       -4878.530           0.144  
G06  20636001.722      -60213.416       -3114.437           0.174  
G07  23539294.269      -76023.652       -4089.021           0.147  
G09  23015209.541      -68972.147       -4178.597           0.152  
> 2023 05 18 00 00 36.0688020  0  6                     
G03  22283853.892      -65426.327       -3158.353           0.162  
G04  23769661.742      -97708.623       -4878.530           0.144  
G05  22541797.499      -13895.578        -716.526           0.157  
G06  20636001.722      -60213.416       -3114.437           0.174  
G07  23539294.269      -76023.652       -4089.021           0.147  
G09  23015209.541      -68972.147       -4178.597           0.152  
> 2023 05 18 00 00 36.0688020  0  7                     
G02  24437627.362        5049.810         205.820           0.139  
G03  22283853.892      -65426.327       -3158.353           0.162  
G04  23769661.742      -97708.623       -4878.530           0.144  
G05  22541797.499      -13895.578        -716.526           0.157  
G06  20636001.722      -60213.416       -3114.437           0.174  
G07  23539294.269      -76023.652       -4089.021           0.147  
G09  23015209.541      -68972.147       -4178.597           0.152  
> 2023 05 18 00 00 36.1688020  0  7                     
G02  24437620.147        5069.887         202.374           0.138  
G03  22283932.781      -65742.772       -3163.606           0.160  
G04  23769787.560      -98196.751       -4879.436           0.143  
G05  22541814.021      -13967.299        -744.551           0.158  
G06  20636079.692      -60525.248       -3117.741           0.174  
G07  23539398.241      -76433.800       -4139.279           0.147  
G09  23015315.272      -69390.473       -4283.476           0.150  
> 2023 05 18 00 00 36.2688020  0  7                     
G02  24437613.540        5089.837         197.369           0.139  
G03  22284012.502      -66059.297       -3167.264           0.161  
G04  23769912.996      -98684.999       -4883.962           0.144  
G05  22541834.149      -14039.817        -725.492           0.157  
G06  20636159.943      -60837.180       -3121.807           0.174  
G07  23539497.873      -76842.631       -4097.758           0.147  
G09  23015424.909      -69808.302       -4185.791           0.151  
> 2023 05 18 00 00 36.3688020  0  7                     
G02  24437608.094        5109.758         199.469           0.139  
G03  22284094.724      -66375.913       -3165.603           0.161  
G04  23770036.381      -99173.284       -4882.242           0.143  
G05  22541851.186      -14112.087        -724.370           0.158  
G06  20636238.496      -61149.192       -3118.362           0.174  
G07  23539602.987      -77252.243       -4097.098           0.147  
G09  23015526.896      -70226.468       -4181.354           0.151  
> 2023 05 18 00 00 36.4688020  0  7                     
G02  24437601.543        5130.164         204.551           0.138  
G03  22284176.962      -66692.000       -3158.910           0.160  
G04  23770161.596      -99661.077       -4874.695           0.142  
G05  22541870.004      -14183.767        -716.028           0.156  
G06  20636317.583      -61460.678       -3111.762           0.173  
G07  23539708.889      -77661.316       -4088.964           0.146  
G09  23015633.395      -70644.171       -4175.687           0.151  
> 2023 05 18 00 00 36.5688020  0  7                     
G02  24437598.934        5150.843         206.417           0.137  
G03  22284257.160      -67007.877       -3156.485           0.160  
G04  23770287.680     -100148.640       -4874.414           0.142  
G05  22541887.193      -14255.389        -760.920           0.156  
G06  20636398.439      -61771.968       -3112.542           0.173  
G07  23539812.266      -78070.191       -4086.719           0.145  
G09  23015739.377      -71061.617       -4175.786           0.151  
> 2023 05 18 00 00 36.6688020  0  7                     
G02  24437594.096        5171.496         208.108           0.138  
G03  22284338.655      -67323.779       -3156.928           0.160  
G04  23770408.748     -100636.207       -4871.569           0.142  
G05  22541902.582      -14326.822        -714.733           0.157  
G06  20636477.675      -62083.249       -3110.561           0.173  
G07  23539917.755      -78479.085       -4088.110           0.146  
G09  23015846.469      -71479.129       -4175.176           0.150  
> 2023 05 18 00 00 36.7688020  0  7                     
G02  24437584.678        5192.073         206.898           0.137  
G03  22284416.713      -67639.744       -3159.355           0.159  
G04  23770533.983     -101123.878       -4875.968           0.142  
G05  22541924.153      -14398.422        -716.345           0.156  
G06  20636557.527      -62394.624       -3114.457           0.172  
G07  23540021.499      -78888.068       -4090.028           0.145  
G09  23015950.640      -71896.691       -4179.052           0.149  
> 2023 05 18 00 00 36.8688020  0  7                     
G02  24437578.501        5212.126         197.498           0.136  
G03  22284496.536      -67956.241       -3168.387           0.159  
G04  23770657.174     -101612.047       -4882.212           0.142  
G05  22541940.150      -14470.499        -725.012           0.156  
G06  20636633.943      -62706.490       -3120.980           0.173  
G07  23540127.423      -79297.539       -4099.213           0.145  
G09  23016060.990      -72314.721       -4184.491           0.149  
> 2023 05 18 00 00 36.9688020  0  7                     
G02  24437574.209        5232.200         203.330           0.136  
G03  22284577.858      -68272.708       -3162.323           0.159  
G04  23770781.719     -102100.206       -4878.267           0.143  
G05  22541959.287      -14542.590        -716.872           0.156  
G06  20636714.647      -63018.369       -3114.856           0.173  
G07  23540228.374      -79707.012       -4094.087           0.146  
G09  23016166.203      -72732.772       -4179.944           0.150  
> 2023 05 18 00 00 37.0688020  0  7                     
G02  24437573.324        5252.564         203.136           0.138  
G03  22284658.479      -68588.605       -3170.074           0.160  
G04  23770904.890     -102588.061       -4880.336           0.142  
G05  22541976.531      -14614.401        -716.840           0.156  
G06  20636791.046      -63329.968       -3116.877           0.173  
G07  23540333.548      -80116.149       -4091.909           0.145  
G09  23016270.122      -73150.509       -4179.107           0.149  
> 2023 05 18 00 00 37.1688020  0  7                     
G02  24437566.246        5272.854         199.515           0.138  
G03  22284738.550      -68905.140       -3163.124           0.160  
G04  23771030.058     -103075.986       -4881.255           0.142  
G05  22541993.760      -14686.242        -717.452           0.157  
G06  20636873.014      -63641.595       -3116.297           0.173  
G07  23540435.618      -80525.407       -4093.391           0.145  
G09  23016378.309      -73568.303       -4176.215           0.150  
> 2023 05 18 00 00 37.2688020  0  7                     
G02  24437559.536        5293.165         201.344           0.138  
G03  22284815.959      -69221.381       -3162.094           0.159  
G04  23771156.351     -103563.871       -4877.814           0.142  
G05  22542014.325      -14758.123        -716.601           0.157  
G06  20636951.295      -63953.239       -3116.712           0.172  
G07  23540540.830      -80934.612       -4093.977           0.145  
G09  23016484.131      -73986.138       -4177.859           0.149  
> 2023 05 18 00 00 37.3688020  0  7                     
G02  24437558.640        5313.590         206.246           0.137  
G03  22284897.338      -69537.560       -3163.124           0.160  
G04  23771278.722     -104051.721       -4877.629           0.142  
G05  22542031.195      -14829.865        -713.729           0.156  
G06  20637031.049      -64264.770       -3113.260           0.173  
G07  23540644.587      -81343.807       -4095.949           0.145  
G09  23016590.504      -74403.832       -4175.602           0.149  
> 2023 05 18 00 00 37.4688020  0  7                     
G02  24437552.988        5334.127         205.216           0.137  
G03  22284980.331      -69853.588       -3163.277           0.159  
G04  23771402.487     -104539.382       -4879.632           0.142  
G05  22542049.946      -14901.551        -719.311           0.156  
G06  20637110.233      -64576.195       -3116.304           0.172  
G07  23540746.360      -81752.790       -4093.817           0.146  
G09  23016696.343      -74821.452       -4180.216           0.149  
> 2023 05 18 00 00 37.5688020  0  7                     
G02  24437544.833        5353.892         199.736           0.136  
G03  22285062.096      -70170.351       -3164.969           0.159  
G04  23771527.141     -105027.826       -4882.772           0.142  
G05  22542066.393      -14973.954        -724.097           0.157  
G06  20637189.701      -64888.365       -3118.985           0.172  
G07  23540853.101      -82162.547       -4100.064           0.144  
G09  23016803.916      -75239.772       -4181.064           0.148  
> 2023 05 18 00 00 37.6688020  0  7                     
G02  24437540.297        5374.099         202.511           0.137  
G03  22285142.028      -70486.743       -3160.719           0.160  
G04  23771651.642     -105515.836       -4878.158           0.143  
G05  22542088.043      -15045.906        -721.847           0.156  
G06  20637270.725      -65200.131       -3115.655           0.173  
G07  23540956.615      -82571.920       -4093.449           0.145  
G09  23016908.054      -75657.670       -4179.905           0.149  
> 2023 05 18 00 00 37.7688020  0  7                     
G02  24437534.669        5394.495         203.343           0.137  
G03  22285222.471      -70802.950       -3160.196           0.159  
G04  23771774.954     -106003.708       -4876.788           0.142  
G05  22542104.487      -15117.716        -717.588           0.155  
G06  20637348.043      -65511.725       -3113.645           0.173  
G07  23541060.246      -82981.055       -4089.478           0.146  
G09  23017011.848      -76075.419       -4173.370           0.150  
> 2023 05 18 00 00 37.8688020  0  7                     
G02  24437528.195        5415.141         208.167           0.137  
G03  22285303.975      -71118.908       -3158.591           0.159  
G04  23771902.634     -106491.304       -4876.235           0.142  
G05  22542121.403      -15188.760        -735.409           0.157  
G06  20637426.986      -65823.058       -3111.933           0.173  
G07  23541169.968      -83390.060       -4163.015           0.146  
G09  23017122.566      -76492.452       -4149.502           0.150  
> 2023 05 18 00 00 37.9688020  0  7                     
G02  24437525.316        5435.726         205.534           0.136  
G03  22285383.377      -71434.879       -3159.430           0.160  
G04  23772023.919     -106978.920       -4875.524           0.142  
G05  22542139.852      -15260.804        -716.914           0.156  
G06  20637505.330      -66134.419       -3114.045           0.173  
G07  23541272.503      -83798.925       -4091.261           0.145  
G09  23017228.808      -76910.393       -4176.613           0.150  
> 2023 05 18 00 00 38.0688020  0  7                     
G02  24437518.673        5456.238         205.293           0.138  
G03  22285462.138      -71751.000       -3163.593           0.160  
G04  23772148.416     -107466.670       -4878.472           0.143  
G05  22542156.627      -15332.505        -716.728           0.155  
G06  20637587.566      -66445.928       -3115.818           0.173  
G07  23541373.081      -84208.008       -4092.174           0.146  
G09  23017332.153      -77328.053       -4177.902           0.149  
> 2023 05 18 00 00 38.1688020  0  7                     
G02  24437513.641        5476.754         205.300           0.138  
G03  22285541.080      -72067.061       -3161.001           0.160  
G04  23772269.911     -107954.369       -4876.360           0.142  
G05  22542177.844      -15404.172        -713.323           0.155  
G06  20637664.289      -66757.361       -3113.586           0.173  
G07  23541477.413      -84617.036       -4090.008           0.145  
G09  23017439.915      -77745.652       -4176.532           0.150  
> 2023 05 18 00 00 38.2688020  0  7                     
G02  24437510.035        5496.841         196.875           0.137  
G03  22285621.039      -72383.590       -3170.626           0.160  
G04  23772391.691     -108442.525       -4885.926           0.142  
G05  22542194.258      -15476.291        -726.046           0.155  
G06  20637743.905      -67069.266       -3124.038           0.172  
G07  23541580.925      -85026.518       -4097.894           0.145  
G09  23017545.827      -78163.682       -4185.337           0.150  
> 2023 05 18 00 00 38.3688020  0  7                     
G02  24437502.241        5516.122         190.299           0.137  
G03  22285700.203      -72700.911       -3173.448           0.159  
G04  23772520.174     -108931.464       -4889.688           0.142  
G05  22542214.172      -15549.207        -731.675           0.155  
G06  20637822.101      -67381.971       -3128.132           0.173  
G07  23541687.581      -85436.830       -4104.383           0.144  
G09  23017649.486      -78582.500       -4187.496           0.148  
> 2023 05 18 00 00 38.4688020  0  7                     
G02  24437495.264        5535.770         198.783           0.137  
G03  22285783.124      -73017.875       -3168.246           0.159  
G04  23772643.766     -109420.030       -4883.284           0.142  
G05  22542230.197      -15621.746        -725.792           0.155  
G06  20637903.112      -67694.305       -3124.391           0.172  
G07  23541789.751      -85846.739       -4098.981           0.145  
G09  23017759.799      -79000.985       -4182.631           0.149  
> 2023 05 18 00 00 38.5688020  0  7                     
G02  24437492.968        5555.929         207.394           0.137  
G03  22285865.854      -73334.066       -3149.213           0.159  
G04  23772770.355     -109908.145       -4878.474           0.142  
G05  22542249.971      -15693.444        -575.735           0.156  
G06  20637981.539      -68006.135       -3113.770           0.172  
G07  23541892.654      -86256.176       -4091.128           0.145  
G09  23017867.395      -79418.721       -4136.175           0.149  
> 2023 05 18 00 00 38.6688020  0  7                     
G02  24437485.492        5576.729         211.530           0.137  
G03  22285945.317      -73650.171       -3157.198           0.159  
G04  23772891.811     -110395.571       -4874.062           0.142  
G05  22542268.725      -15765.209        -710.386           0.157  
G06  20638062.467      -68317.332       -3110.012           0.172  
G07  23541999.288      -86664.954       -4082.415           0.145  
G09  23017968.850      -79836.288       -4170.958           0.149  
> 2023 05 18 00 00 38.7688020  0  7                     
G02  24437481.494        5597.319         202.323           0.137  
G03  22286025.758      -73966.208       -3164.077           0.159  
G04  23773013.909     -110883.213       -4880.085           0.141  
G05  22542285.222      -15836.844        -717.095           0.156  
G06  20638138.222      -68628.757       -3117.735           0.173  
G07  23542101.639      -87073.956       -4090.217           0.145  
G09  23018079.011      -80253.839       -4176.835           0.149  
> 2023 05 18 00 00 38.8688020  0  7                     
G02  24437475.282        5617.493         204.096           0.137  
G03  22286105.092      -74282.671       -3162.862           0.159  
G04  23773138.856     -111371.278       -4879.520           0.142  
G05  22542303.350      -15908.897        -719.956           0.157  
G06  20638218.718      -68940.594       -3117.263           0.173  
G07  23542205.081      -87483.376       -4089.322           0.145  
G09  23018187.144      -80671.808       -4176.337           0.149  
> 2023 05 18 00 00 38.9688020  0  7                     
G02  24437469.222        5637.936         206.691           0.137  
G03  22286186.576      -74598.882       -3159.817           0.160  
G04  23773265.936     -111859.093       -4874.988           0.142  
G05  22542321.292      -15980.695        -716.168           0.156  
G06  20638299.339      -69252.193       -3115.170           0.173  
G07  23542312.813      -87892.560       -4091.125           0.145  
G09  23018291.968      -81089.532       -4176.199           0.150  
> 2023 05 18 00 00 39.0688020  0  7                     
G02  24437463.134        5658.573         211.562           0.136  
G03  22286266.455      -74914.867       -3160.105           0.160  
G04  23773389.935     -112346.684       -4873.342           0.142  
G05  22542339.825      -16052.211        -715.385           0.156  
G06  20638377.892      -69563.535       -3112.719           0.173  
G07  23542415.891      -88301.272       -4127.168           0.145  
G09  23018389.692      -81506.999       -4176.045           0.150  
> 2023 05 18 00 00 39.1688020  0  7                     
G02  24437456.712        5679.246         206.165           0.137  
G03  22286348.640      -75230.822       -3159.407           0.160  
G04  23773513.298     -112834.230       -4874.605           0.142  
G05  22542357.129      -16123.751        -716.362           0.157  
G06  20638458.667      -69874.870       -3114.149           0.173  
G07  23542516.393      -88710.422       -4090.445           0.146  
G09  23018503.855      -81924.462       -4175.439           0.150  
> 2023 05 18 00 00 39.2688020  0  7                     
G02  24437451.421        5699.932         205.746           0.137  
G03  22286425.363      -75546.815       -3159.649           0.160  
G04  23773637.282     -113321.821       -4875.225           0.143  
G05  22542376.700      -16195.334        -715.443           0.156  
G06  20638536.206      -70186.218       -3114.074           0.173  
G07  23542622.373      -89119.367       -4090.922           0.145  
G09  23018608.665      -82341.951       -4177.137           0.150  
> 2023 05 18 00 00 39.3688020  0  7                     
G02  24437446.150        5720.433         201.697           0.138  
G03  22286506.387      -75862.925       -3161.685           0.160  
G04  23773760.265     -113809.518       -4875.646           0.142  
G05  22542393.050      -16267.002        -716.857           0.155  
G06  20638615.561      -70497.731       -3115.162           0.173  
G07  23542726.496      -89528.424       -4092.962           0.145  
G09  23018714.842      -82759.520       -4176.839           0.150  
> 2023 05 18 00 00 39.4688020  0  7                     
G02  24437439.483        5740.955         201.828           0.138  
G03  22286583.878      -76179.054       -3122.767           0.160  
G04  23773886.081     -114297.269       -4877.529           0.142  
G05  22542411.363      -16338.684        -715.539           0.156  
G06  20638693.250      -70809.240       -3113.816           0.173  
G07  23542829.840      -89937.524       -4092.765           0.145  
G09  23018821.775      -83177.367       -4139.612           0.150  
> 2023 05 18 00 00 39.5688020  0  7                     
G02  24437437.582        5761.509         204.144           0.136  
G03  22286665.693      -76495.229       -3161.465           0.160  
G04  23774009.710     -114784.988       -4878.319           0.143  
G05  22542429.182      -16410.397        -716.074           0.156  
G06  20638772.038      -71120.755       -3115.126           0.173  
G07  23542932.519      -90346.603       -4092.891           0.146  
G09  23018929.986      -83594.759       -4173.763           0.149  
> 2023 05 18 00 00 39.6688020  0  7                     
G02  24437430.852        5782.071         207.461           0.137  
G03  22286745.944      -76811.329       -3161.267           0.160  
G04  23774133.585     -115272.657       -4876.151           0.142  
G05  22542446.902      -16482.050        -716.892           0.156  
G06  20638851.478      -71432.222       -3114.146           0.173  
G07  23543041.100      -90755.621       -4087.652           0.145  
G09  23019032.637      -84012.318       -4173.550           0.149  
> 2023 05 18 00 00 39.7688020  0  7                     
G02  24437425.303        5802.801         208.992           0.139  
G03  22286827.210      -77127.065       -3087.379           0.160  
G04  23774257.662     -115760.153       -4873.760           0.142  
G05  22542465.268      -16553.655        -738.768           0.156  
G06  20638931.166      -71743.508       -3112.361           0.173  
G07  23543140.940      -91165.059       -4196.812           0.145  
G09  23019140.288      -84429.719       -4172.914           0.150  
> 2023 05 18 00 00 39.8688020  0  7                     
G02  24437422.451        5823.586         204.754           0.137  
G03  22286908.570      -77443.123       -3157.242           0.159  
G04  23774382.485     -116247.601       -4872.748           0.142  
G05  22542484.381      -16625.007        -714.956           0.156  
G06  20639010.997      -72054.758       -3112.751           0.173  
G07  23543245.801      -91573.667       -4098.430           0.146  
G09  23019246.220      -84847.094       -4174.506           0.149  
> 2023 05 18 00 00 39.9688020  0  7                     
G02  24437417.116        5844.394         203.939           0.137  
G03  22286989.957      -77759.038       -3161.620           0.160  
G04  23774503.374     -116735.068       -4877.333           0.142  
G05  22542501.586      -16696.445        -716.194           0.157  
G06  20639088.701      -72366.005       -3113.515           0.173  
G07  23543349.840      -91982.140       -4088.087           0.146  
G09  23019350.462      -85264.463       -4176.387           0.150  
> 2023 05 18 00 00 40.0688020  0  7                     
G02  24437410.239        5864.999         206.676           0.137  
G03  22287070.910      -78075.136       -3161.635           0.159  
G04  23774624.398     -117222.737       -4877.310           0.143  
G05  22542520.025      -16768.088        -718.136           0.157  
G06  20639169.041      -72677.465       -3116.185           0.172  
G07  23543455.009      -92391.208       -4094.214           0.145  
G09  23019458.463      -85681.992       -4176.956           0.149  
> 2023 05 18 00 00 40.1688020  0  7                     
G02  24437402.938        5885.233         205.030           0.136  
G03  22287149.615      -78391.578       -3165.596           0.160  
G04  23774750.552     -117710.753       -4882.153           0.142  
G05  22542538.340      -16840.098        -722.964           0.156  
G06  20639248.441      -72989.274       -3119.607           0.173  
G07  23543556.045      -92800.572       -4096.201           0.146  
G09  23019563.675      -86099.879       -4178.604           0.150  
> 2023 05 18 00 00 40.2688020  0  7                     
G02  24437396.952        5905.167         201.026           0.136  
G03  22287231.605      -78708.367       -3167.374           0.160  
G04  23774877.715     -118199.083       -4883.823           0.142  
G05  22542557.630      -16912.660        -830.402           0.156  
G06  20639328.663      -73301.409       -3121.246           0.173  
G07  23543661.272      -93210.915       -4120.621           0.145  
G09  23019669.973      -86518.151       -4169.520           0.149  
> 2023 05 18 00 00 40.3688020  0  7                     
G02  24437395.070        5925.010         200.156           0.137  
G03  22287309.962      -79025.164       -3165.885           0.159  
G04  23775000.867     -118687.463       -4883.287           0.142  
G05  22542572.450      -16984.775        -724.767           0.156  
G06  20639407.285      -73613.576       -3120.441           0.173  
G07  23543767.713      -93620.042       -4097.854           0.145  
G09  23019778.502      -86936.363       -4181.329           0.150  
> 2023 05 18 00 00 40.4688020  0  7                     
G02  24437386.262        5944.998         195.560           0.137  
G03  22287389.510      -79341.887       -3165.616           0.160  
G04  23775125.386     -119175.721       -4881.679           0.142  
G05  22542590.950      -17057.016        -724.024           0.156  
G06  20639487.588      -73925.652       -3121.222           0.173  
G07  23543872.391      -94029.688       -4096.562           0.145  
G09  23019882.635      -87354.514       -4181.582           0.151  
> 2023 05 18 00 00 40.5688020  0  7                     
G02  24437382.540        5964.306         187.575           0.137  
G03  22287469.151      -79659.304       -3178.500           0.159  
G04  23775249.900     -119664.689       -4893.692           0.143  
G05  22542610.808      -17130.421        -866.606           0.158  
G06  20639565.295      -74238.420       -3131.217           0.172  
G07  23543975.365      -94440.120       -4070.538           0.146  
G09  23019989.364      -87773.732       -4234.503           0.150  
> 2023 05 18 00 00 40.6688020  0  7                     
G02  24437381.708        5983.158         190.408           0.137  
G03  22287551.005      -79977.178       -3174.251           0.160  
G04  23775372.918     -120154.099       -4891.756           0.141  
G05  22542631.019      -17203.365        -731.571           0.157  
G06  20639645.389      -74551.655       -3130.373           0.172  
G07  23544079.770      -94850.840       -4107.654           0.146  
G09  23020093.553      -88192.660       -4190.417           0.150  
> 2023 05 18 00 00 40.7688020  0  7                     
G02  24437376.956        6002.692         200.823           0.135  
G03  22287633.661      -80294.411       -3168.614           0.159  
G04  23775499.348     -120642.856       -4882.834           0.141  
G05  22542649.355      -17276.117        -725.105           0.155  
G06  20639724.139      -74864.220       -3121.973           0.172  
G07  23544184.400      -95260.955       -4097.957           0.144  
G09  23020202.571      -88611.291       -4180.916           0.148  
> 2023 05 18 00 00 40.8688020  0  7                     
G02  24437373.102        6022.404         195.066           0.136  
G03  22287712.470      -80611.374       -3172.973           0.159  
G04  23775620.383     -121131.354       -4883.969           0.142  
G05  22542664.101      -17348.605        -727.265           0.155  
G06  20639806.430      -75176.549       -3124.638           0.172  
G07  23544285.364      -95670.855       -4102.208           0.144  
G09  23020311.308      -89029.703       -4183.873           0.149  
> 2023 05 18 00 00 40.9688020  0  7                     
G02  24437364.256        6042.766         206.068           0.136  
G03  22287794.342      -80927.720       -3161.110           0.158  
G04  23775743.321     -121619.245       -4873.686           0.141  
G05  22542684.406      -17420.527        -715.779           0.156  
G06  20639882.654      -75488.247       -3112.992           0.172  
G07  23544392.795      -96080.126       -4088.290           0.143  
G09  23020413.485      -89447.482       -4170.631           0.147  
> 2023 05 18 00 00 41.0688020  0  7                     
G02  24437358.402        6063.577         207.569           0.136  
G03  22287873.973      -81243.657       -3158.579           0.159  
G04  23775866.946     -122106.729       -4873.388           0.141  
G05  22542703.841      -17492.020        -717.697           0.156  
G06  20639962.466      -75799.544       -3112.295           0.172  
G07  23544497.450      -96489.008       -4089.315           0.146  
G09  23020520.251      -89864.858       -4174.214           0.150  
> 2023 05 18 00 00 41.1688020  0  7                     
G02  24437351.167        6084.291         206.942           0.137  
G03  22287956.070      -81559.687       -3161.429           0.159  
G04  23775994.322     -122594.254       -4873.890           0.142  
G05  22542720.584      -17563.564        -717.434           0.155  
G06  20640040.836      -76110.916       -3112.970           0.173  
G07  23544600.051      -96897.940       -4090.418           0.145  
G09  23020627.425      -90282.305       -4174.982           0.150  
> 2023 05 18 00 00 41.2688020  0  7                     
G02  24437346.147        6105.025         208.847           0.137  
G03  22288034.156      -81875.674       -3159.527           0.159  
G04  23776120.795     -123081.774       -4872.293           0.141  
G05  22542736.324      -17635.081        -714.580           0.154  
G06  20640119.185      -76422.267       -3113.101           0.170  
G07  23544702.534      -97306.857       -4087.150           0.144  
G09  23020734.391      -90699.730       -4174.570           0.148  
> 2023 05 18 00 00 41.3688020  0  7                     
G02  24437341.935        6125.901         209.719           0.134  
G03  22288117.809      -82191.524       -3156.995           0.157  
G04  23776244.997     -123569.140       -4869.827           0.140  
G05  22542756.381      -17706.444        -667.996           0.153  
G06  20640199.503      -76733.455       -3110.125           0.168  
G07  23544809.747      -97715.946       -4149.953           0.142  
G09  23020840.441      -91116.987       -4173.642           0.147  
> 2023 05 18 00 00 41.4688020  0  7                     
G02  24437336.260        6146.300         193.002           0.132  
G03  22288195.010      -82507.756       -3098.983           0.156  
G04  23776369.649     -124057.003       -4888.563           0.138  
G05  22542776.068      -17778.238        -652.417           0.151  
G06  20640278.739      -77045.145       -3126.034           0.168  
G07  23544913.481      -98124.849       -4099.716           0.141  
G09  23020946.961      -91534.614       -4219.934           0.145  
> 2023 05 18 00 00 41.5688020  0  7                     
G02  24437331.480        6166.320         204.078           0.133  
G03  22288275.667      -82824.635       -3161.989           0.155  
G04  23776491.773     -124545.281       -4880.592           0.137  
G05  22542793.826      -17850.541        -716.753           0.152  
G06  20640359.554      -77357.244       -3117.586           0.168  
G07  23545014.753      -98534.546       -4092.488           0.141  
G09  23021051.961      -91952.858       -4178.013           0.146  
> 2023 05 18 00 00 41.6688020  0  7                     
G02  24437323.300        6186.893         204.893           0.134  
G03  22288352.471      -83140.831       -3162.352           0.156  
G04  23776617.469     -125032.972       -4876.656           0.139  
G05  22542811.533      -17922.268        -716.796           0.155  
G06  20640438.405      -77668.786       -3115.815           0.170  
G07  23545119.063      -98943.582       -4086.831           0.141  
G09  23021158.951      -92370.488       -4176.002           0.146  
> 2023 05 18 00 00 41.7688020  0  7                     
G02  24437317.516        6207.517         205.485           0.134  
G03  22288436.711      -83456.975       -3161.694           0.157  
G04  23776736.778     -125520.631       -4875.850           0.139  
G05  22542827.152      -17993.941        -718.200           0.154  
G06  20640519.792      -77980.250       -3114.920           0.170  
G07  23545227.016      -99352.684       -4089.393           0.144  
G09  23021265.893      -92787.992       -4174.795           0.147  
> 2023 05 18 00 00 41.8688020  0  7                     
G02  24437310.267        6227.442         193.599           0.134  
G03  22288518.557      -83773.832       -3172.852           0.157  
G04  23776865.052     -126008.984       -4888.112           0.139  
G05  22542846.703      -18066.307        -728.592           0.154  
G06  20640595.096      -78292.476       -3127.300           0.170  
G07  23545329.370      -99762.401       -4100.303           0.142  
G09  23021372.391      -93206.225       -4186.796           0.147  
> 2023 05 18 00 00 41.9688020  0  7                     
G02  24437307.521        6247.556         203.785           0.134  
G03  22288597.684      -84090.475       -3163.674           0.157  
G04  23776989.300     -126497.112       -4876.807           0.140  
G05  22542862.181      -18138.422        -718.476           0.155  
G06  20640675.449      -78604.446       -3117.005           0.170  
G07  23545433.767     -100171.995       -4093.800           0.143  
G09  23021475.214      -93624.271       -4178.226           0.147  
> 2023 05 18 00 00 42.0688020  0  7                     
G02  24437301.493        6268.034         198.747           0.135  
G03  22288679.308      -84406.800       -3165.232           0.157  
G04  23777113.085     -126984.901       -4880.246           0.140  
G05  22542882.054      -18210.245        -721.954           0.155  
G06  20640752.587      -78916.085       -3118.787           0.171  
G07  23545540.225     -100581.150       -4095.554           0.142  
G09  23021585.636      -94041.953       -4179.164           0.147  
> 2023 05 18 00 00 42.1688020  0  7                     
G02  24437293.859        6288.218         203.999           0.135  
G03  22288759.149      -84723.596       -3121.649           0.158  
G04  23777238.331     -127473.002       -4879.257           0.139  
G05  22542901.635      -18282.342        -720.183           0.155  
G06  20640834.228      -79228.044       -3117.995           0.171  
G07  23545641.606     -100990.691       -4092.368           0.144  
G09  23021690.796      -94459.934       -4177.017           0.149  
> 2023 05 18 00 00 42.2688020  0  7                     
G02  24437288.490        6308.723         205.203           0.135  
G03  22288840.470      -85039.686       -3160.019           0.158  
G04  23777362.152     -127960.783       -4875.510           0.139  
G05  22542920.999      -18354.147        -717.531           0.155  
G06  20640914.238      -79539.665       -3113.195           0.171  
G07  23545744.020     -101399.883       -4093.077           0.143  
G09  23021795.971      -94877.607       -4175.375           0.148  
> 2023 05 18 00 00 42.3688020  0  7                     
G02  24437285.823        6329.353         205.750           0.136  
G03  22288919.456      -85355.834       -3160.212           0.158  
G04  23777485.359     -128448.452       -4878.905           0.141  
G05  22542940.197      -18425.810        -715.340           0.154  
G06  20640992.435      -79851.153       -3114.804           0.171  
G07  23545850.272     -101808.926       -4094.325           0.144  
G09  23021902.687      -95295.136       -4176.331           0.148  
> 2023 05 18 00 00 42.4688020  0  7                     
G02  24437281.150        6349.682         198.023           0.134  
G03  22289000.639      -85672.337       -3170.564           0.157  
G04  23777607.685     -128936.407       -4882.783           0.139  
G05  22542955.332      -18497.750        -723.386           0.152  
G06  20641072.218      -80162.977       -3122.496           0.170  
G07  23545953.413     -102218.290       -4095.564           0.142  
G09  23022008.483      -95712.976       -4180.604           0.147  
> 2023 05 18 00 00 42.5688020  0  7                     
G02  24437273.548        6369.390         202.147           0.134  
G03  22289079.897      -85989.442       -3169.342           0.157  
G04  23777733.178     -129424.994       -4885.044           0.139  
G05  22542974.136      -18570.399        -725.098           0.153  
G06  20641150.432      -80475.421       -3122.934           0.170  
G07  23546057.506     -102628.280       -4098.881           0.142  
G09  23022114.235      -96131.453       -4183.379           0.147  
> 2023 05 18 00 00 42.6688020  0  7                     
G02  24437271.782        6388.195         184.922           0.132  
G03  22289159.598      -86307.476       -3253.492           0.154  
G04  23777858.566     -129914.402       -4900.228           0.138  
G05  22542993.348      -18642.627        -533.498           0.152  
G06  20641231.969      -80788.718       -3139.002           0.169  
G07  23546160.669     -103039.195       -4115.770           0.139  
G09  23022220.487      -96550.267       -4185.650           0.144  
> 2023 05 18 00 00 42.7688020  0  7                     
G02  24437266.451        6406.939         191.143           0.133  
G03  22289239.318      -86625.438       -3175.172           0.156  
G04  23777982.663     -130403.916       -4888.765           0.138  
G05  22543010.465      -18717.354        -730.547           0.153  
G06  20641309.133      -81102.093       -3128.407           0.169  
G07  23546269.036     -103450.078       -4103.271           0.140  
G09  23022325.468      -96970.173       -4188.771           0.146  
> 2023 05 18 00 00 42.8688020  0  7                     
G02  24437257.151        6426.811         202.433           0.135  
G03  22289320.739      -86942.413       -3165.899           0.156  
G04  23778108.528     -130892.325       -4881.665           0.139  
G05  22543028.458      -18789.834        -721.496           0.155  
G06  20641390.254      -81414.392       -3119.513           0.171  
G07  23546369.429     -103859.944       -4097.323           0.143  
G09  23022436.112      -97388.494       -4178.701           0.146  
> 2023 05 18 00 00 42.9688020  0  7                     
G02  24437253.648        6446.931         196.827           0.136  
G03  22289405.343      -87259.113       -3170.511           0.158  
G04  23778235.915     -131380.532       -4883.137           0.143  
G05  22543046.525      -18861.989        -725.769           0.156  
G06  20641468.869      -81726.428       -3123.046           0.172  
G07  23546476.022     -104269.769       -4145.894           0.144  
G09  23022543.333      -97805.759       -4092.664           0.148  
> 2023 05 18 00 00 43.0688020  0  7                     
G02  24437251.125        6467.055         205.881           0.137  
G03  22289481.733      -87575.819       -3163.430           0.159  
G04  23778358.778     -131868.695       -4875.564           0.143  
G05  22543066.385      -18934.206        -718.992           0.157  
G06  20641549.437      -82038.466       -3115.842           0.173  
G07  23546579.993     -104679.101       -4090.231           0.146  
G09  23022645.765      -98224.581       -4175.959           0.150  
> 2023 05 18 00 00 43.1688020  0  7                     
G02  24437247.055        6487.664         207.985           0.138  
G03  22289566.301      -87892.043       -3163.734           0.160  
G04  23778481.345     -132356.365       -4876.406           0.143  
G05  22543084.006      -19005.884        -719.858           0.156  
G06  20641626.693      -82350.016       -3116.305           0.173  
G07  23546685.639     -105088.209       -4090.645           0.146  
G09  23022751.904      -98642.123       -4175.338           0.151  
> 2023 05 18 00 00 43.2688020  0  7                     
G02  24437239.763        6508.403         209.545           0.137  
G03  22289644.231      -88208.130       -3159.350           0.159  
G04  23778601.980     -132843.918       -4874.808           0.142  
G05  22543102.420      -19077.445        -713.339           0.156  
G06  20641707.141      -82661.435       -3114.199           0.172  
G07  23546785.353     -105497.201       -4089.809           0.144  
G09  23022859.072      -99059.576       -4173.371           0.149  
> 2023 05 18 00 00 43.3688020  0  7                     
G02  24437232.854        6529.270         208.284           0.135  
G03  22289726.326      -88524.093       -3160.947           0.158  
G04  23778726.894     -133331.308       -4873.330           0.141  
G05  22543119.565      -19148.904        -712.322           0.154  
G06  20641784.387      -82972.712       -3113.833           0.170  
G07  23546890.774     -105906.025       -4090.875           0.144  
G09  23022967.999      -99476.841       -4173.550           0.148  
> 2023 05 18 00 00 43.4688020  0  7                     
G02  24437227.039        6550.186         211.354           0.133  
G03  22289805.106      -88840.044       -3159.445           0.157  
G04  23778848.449     -133818.736       -4875.730           0.139  
G05  22543136.296      -19220.306        -715.198           0.153  
G06  20641864.900      -83284.001       -3113.094           0.169  
G07  23546998.325     -106315.482       -4162.088           0.141  
G09  23023071.489      -99894.730       -4216.478           0.147  
> 2023 05 18 00 00 43.5688020  0  7                     
G02  24437222.639        6570.620         201.486           0.134  
G03  22289883.502      -89156.424       -3165.186           0.156  
G04  23778975.960     -134306.555       -4883.356           0.139  
G05  22543154.941      -19292.183        -722.079           0.152  
G06  20641943.300      -83595.712       -3122.231           0.169  
G07  23547097.422     -106724.122       -4096.127           0.142  
G09  23023177.985     -100311.845       -4181.588           0.146  
> 2023 05 18 00 00 43.6688020  0  7                     
G02  24437218.941        6590.637         201.998           0.135  
G03  22289965.874      -89473.267       -3166.412           0.156  
G04  23779099.919     -134794.811       -4882.213           0.139  
G05  22543167.958      -19364.490        -721.839           0.153  
G06  20642023.537      -83907.863       -3121.823           0.169  
G07  23547202.794     -107133.859       -4098.313           0.142  
G09  23023280.403     -100729.998       -4180.585           0.146  
> 2023 05 18 00 00 43.7688020  0  7                     
G02  24437213.995        6610.670         202.615           0.135  
G03  22290046.627      -89790.096       -3167.400           0.156  
G04  23779222.047     -135283.051       -4879.985           0.139  
G05  22543190.453      -19436.743        -720.624           0.152  
G06  20642103.943      -84220.008       -3120.105           0.169  
G07  23547309.165     -107543.528       -4095.282           0.142  
G09  23023386.878     -101148.146       -4178.705           0.147  
> 2023 05 18 00 00 43.8688020  0  7                     
G02  24437204.731        6631.026         207.677           0.134  
G03  22290127.046      -90106.629       -3163.380           0.156  
G04  23779346.152     -135771.010       -4878.025           0.139  
G05  22543210.323      -19508.393        -638.232           0.152  
G06  20642181.810      -84531.846       -3116.976           0.169  
G07  23547412.387     -107952.926       -4092.449           0.143  
G09  23023492.493     -101565.984       -4175.275           0.146  
> 2023 05 18 00 00 43.9688020  0  7                     
G02  24437200.387        6651.770         209.093           0.135  
G03  22290203.667      -90422.713       -3158.510           0.156  
G04  23779467.206     -136258.548       -4873.143           0.139  
G05  22543229.664      -19580.291        -711.612           0.153  
G06  20642264.383      -84843.264       -3113.128           0.170  
G07  23547515.758     -108361.908       -4088.881           0.143  
G09  23023601.145     -101983.362       -4171.946           0.146  
> 2023 05 18 00 00 44.0688020  0  7                     
G02  24437196.389        6672.782         211.160           0.134  
G03  22290289.411      -90738.569       -3158.872           0.157  
G04  23779594.140     -136745.814       -4872.440           0.139  
G05  22543247.467      -19651.637        -713.036           0.154  
G06  20642340.819      -85154.420       -3111.583           0.170  
G07  23547616.656     -108770.586       -4083.984           0.142  
G09  23023711.973     -102400.511       -4167.467           0.146  
> 2023 05 18 00 00 44.1688020  0  7                     
G02  24437190.689        6693.908         214.452           0.134  
G03  22290366.137      -91054.318       -3156.939           0.157  
G04  23779717.867     -137232.991       -4872.462           0.139  
G05  22543262.529      -19722.849        -713.855           0.153  
G06  20642423.023      -85465.502       -3111.196           0.170  
G07  23547722.786     -109179.254       -4088.700           0.143  
G09  23023815.537     -102817.592       -4170.567           0.146  
> 2023 05 18 00 00 44.2688020  0  7                     
G02  24437182.199        6714.982         212.364           0.134  
G03  22290448.842      -91370.432       -3172.236           0.157  
G04  23779843.027     -137720.223       -4872.028           0.138  
G05  22543283.266      -19793.987        -630.134           0.153  
G06  20642498.111      -85776.607       -3110.049           0.169  
G07  23547826.348     -109588.261       -4178.581           0.142  
G09  23023920.260     -103234.784       -4287.152           0.147  
> 2023 05 18 00 00 44.3688020  0  7                     
G02  24437177.568        6736.049         210.030           0.134  
G03  22290529.587      -91685.931       -3158.014           0.156  
G04  23779969.870     -138207.403       -4872.206           0.139  
G05  22543299.411      -19865.369        -713.719           0.153  
G06  20642577.505      -86087.729       -3112.846           0.169  
G07  23547935.147     -109996.517       -4086.689           0.142  
G09  23024030.490     -103651.755       -4171.143           0.146  
> 2023 05 18 00 00 44.4688020  0  7                     
G02  24437168.043        6757.091         210.664           0.133  
G03  22290610.011      -92001.772       -3159.656           0.156  
G04  23780092.216     -138694.675       -4870.930           0.139  
G05  22543315.883      -19936.650        -715.009           0.154  
G06  20642653.379      -86398.870       -3110.359           0.170  
G07  23548038.650     -110405.259       -4086.946           0.143  
G09  23024133.970     -104068.924       -4168.479           0.145  
> 2023 05 18 00 00 44.5688020  0  7                     
G02  24437163.551        6778.037         206.728           0.134  
G03  22290687.943      -92317.502       -3184.077           0.157  
G04  23780212.991     -139182.044       -4874.646           0.139  
G05  22543334.576      -20008.040        -715.075           0.153  
G06  20642735.453      -86710.157       -3113.649           0.169  
G07  23548141.069     -110813.450       -4099.585           0.141  
G09  23024238.335     -104485.503       -4170.127           0.146  
> 2023 05 18 00 00 44.6688020  0  7                     
G02  24437159.940        6798.488         202.077           0.134  
G03  22290768.332      -92634.198       -3168.088           0.156  
G04  23780336.671     -139669.883       -4880.967           0.139  
G05  22543353.328      -20079.979        -720.648           0.153  
G06  20642812.826      -87021.915       -3119.519           0.169  
G07  23548239.479     -111223.384       -4096.964           0.141  
G09  23024346.178     -104903.882       -4179.460           0.146  
> 2023 05 18 00 00 44.7688020  0  7                     
G02  24437156.325        6818.780         205.361           0.133  
G03  22290847.525      -92950.804       -3165.680           0.156  
G04  23780462.574     -140157.914       -4876.699           0.139  
G05  22543371.031      -20152.021        -718.653           0.153  
G06  20642893.466      -87333.834       -3116.924           0.169  
G07  23548349.465     -111632.872       -4096.793           0.141  
G09  23024453.889     -105321.803       -4177.760           0.145  
> 2023 05 18 00 00 44.8688020  0  7                     
G02  24437147.038        6839.158         204.401           0.133  
G03  22290927.523      -93267.335       -3166.727           0.156  
G04  23780586.381     -140645.832       -4877.397           0.140  
G05  22543391.263      -20223.969        -719.047           0.153  
G06  20642973.372      -87645.674       -3118.083           0.169  
G07  23548453.362     -112042.221       -4092.470           0.141  
G09  23024554.766     -105739.610       -4178.490           0.146  
> 2023 05 18 00 00 44.9688020  0  7                     
G02  24437141.364        6859.498         202.906           0.134  
G03  22291009.993      -93583.888       -3166.039           0.157  
G04  23780709.226     -141133.798       -4880.132           0.140  
G05  22543409.003      -20295.968        -720.173           0.153  
G06  20643051.076      -87957.541       -3119.529           0.170  
G07  23548560.076     -112451.626       -4093.129           0.143  
G09  23024661.991     -106157.410       -4177.849           0.146  
> 2023 05 18 00 00 45.0688020  0  7                     
G02  24437138.022        6879.975         204.647           0.135  
G03  22291090.991      -93900.338       -3162.203           0.157  
G04  23780832.025     -141621.643       -4878.457           0.140  
G05  22543426.993      -20368.245        -748.903           0.152  
G06  20643131.145      -88269.302       -3116.242           0.170  
G07  23548661.176     -112860.936       -4093.579           0.144  
G09  23024772.793     -106575.151       -4174.578           0.147  
> 2023 05 18 00 00 45.1688020  0  7                     
G02  24437132.965        6900.661         206.763           0.134  
G03  22291174.536      -94216.581       -3162.208           0.157  
G04  23780959.856     -142109.230       -4873.200           0.139  
G05  22543444.336      -20439.550        -716.174           0.153  
G06  20643210.101      -88580.837       -3114.348           0.170  
G07  23548764.722     -113270.008       -4089.557           0.142  
G09  23024877.176     -106992.634       -4174.614           0.147  
> 2023 05 18 00 00 45.2688020  0  7                     
G02  24437126.383        6921.415         207.353           0.135  
G03  22291251.502      -94532.773       -3163.019           0.156  
G04  23781082.954     -142596.815       -4874.990           0.140  
G05  22543460.162      -20511.190        -718.166           0.151  
G06  20643293.024      -88892.341       -3115.554           0.170  
G07  23548866.000     -113679.060       -4089.011           0.143  
G09  23024985.215     -107410.078       -4173.310           0.146  
> 2023 05 18 00 00 45.3688020  0  7                     
G02  24437124.309        6942.124         209.470           0.133  
G03  22291335.713      -94848.839       -3165.053           0.156  
G04  23781207.932     -143084.411       -4874.326           0.139  
G05  22543478.570      -20582.575        -659.990           0.154  
G06  20643369.764      -89203.837       -3114.910           0.169  
G07  23548969.087     -114088.083       -4089.711           0.143  
G09  23025087.529     -107827.692       -4156.087           0.146  
> 2023 05 18 00 00 45.4688020  0  7                     
G02  24437120.051        6962.871         206.314           0.133  
G03  22291412.631      -95165.137       -3162.819           0.155  
G04  23781332.280     -143571.996       -4877.404           0.139  
G05  22543497.830      -20654.367        -713.846           0.151  
G06  20643450.095      -89515.323       -3115.229           0.169  
G07  23549078.204     -114497.111       -4093.665           0.140  
G09  23025194.458     -108245.009       -4175.700           0.145  
> 2023 05 18 00 00 45.5688020  0  7                     
G02  24437113.381        6983.062         197.698           0.133  
G03  22291493.281      -95481.917       -3173.984           0.155  
G04  23781456.652     -144060.135       -4890.430           0.138  
G05  22543515.976      -20726.580        -728.263           0.151  
G06  20643525.525      -89827.400       -3127.898           0.168  
G07  23549180.007     -114906.730       -4103.011           0.140  
G09  23025300.612     -108663.040       -4187.398           0.145  
> 2023 05 18 00 00 45.6688020  0  7                     
G02  24437110.141        7002.293         193.982           0.133  
G03  22291575.185      -95799.626       -3176.068           0.156  
G04  23781578.555     -144549.168       -4888.640           0.137  
G05  22543536.220      -20799.692        -729.221           0.153  
G06  20643607.924      -90140.393       -3128.949           0.169  
G07  23549283.556     -115317.255       -4103.127           0.141  
G09  23025409.837     -109081.951       -4186.713           0.145  
> 2023 05 18 00 00 45.7688020  0  7                     
G02  24437102.355        7021.937         198.699           0.134  
G03  22291654.785      -96116.922       -3171.715           0.156  
G04  23781701.956     -145037.827       -4883.707           0.139  
G05  22543551.914      -20873.077        -746.392           0.153  
G06  20643685.382      -90452.980       -3123.570           0.170  
G07  23549389.086     -115729.033       -4266.286           0.142  
G09  23025516.709     -109500.250       -4170.278           0.147  
> 2023 05 18 00 00 45.8688020  0  7                     
G02  24437095.210        7041.958         197.158           0.134  
G03  22291734.388      -96433.880       -3170.339           0.156  
G04  23781827.865     -145526.127       -4884.532           0.138  
G05  22543571.914      -20944.798        -725.720           0.154  
G06  20643766.576      -90765.223       -3124.647           0.169  
G07  23549497.157     -116137.191       -4100.083           0.142  
G09  23025620.116     -109918.656       -4184.337           0.146  
> 2023 05 18 00 00 45.9688020  0  7                     
G02  24437093.145        7061.321         188.983           0.133  
G03  22291813.962      -96751.443       -3179.296           0.156  
G04  23781953.221     -146015.041       -4893.447           0.138  
G05  22543587.873      -21017.792        -733.222           0.153  
G06  20643845.288      -91078.094       -3134.077           0.169  
G07  23549595.642     -116547.594       -4110.187           0.141  
G09  23025725.454     -110337.499       -4192.855           0.147  
> 2023 05 18 00 00 46.0688020  0  7                     
G02  24437086.981        7080.506         199.416           0.133  
G03  22291891.639      -97069.242       -3172.072           0.156  
G04  23782078.607     -146504.182       -4883.897           0.138  
G05  22543605.667      -21090.988        -726.126           0.152  
G06  20643922.788      -91391.181       -3123.949           0.168  
G07  23549700.478     -116958.197       -4098.535           0.142  
G09  23025836.548     -110756.509       -4183.499           0.146  
> 2023 05 18 00 00 46.1688020  0  7                     
G02  24437082.166        7100.773         207.417           0.133  
G03  22291975.948      -97385.939       -3163.717           0.156  
G04  23782202.351     -146992.252       -4878.405           0.138  
G05  22543626.819      -21163.089        -719.096           0.152  
G06  20644002.031      -91703.161       -3117.437           0.168  
G07  23549807.439     -117367.720       -4091.760           0.141  
G09  23025939.719     -111174.411       -4176.166           0.145  
> 2023 05 18 00 00 46.2688020  0  7                     
G02  24437076.522        7121.782         210.991           0.133  
G03  22292059.743      -97701.881       -3156.391           0.155  
G04  23782326.515     -147479.532       -4870.961           0.139  
G05  22543646.118      -21234.443        -709.726           0.153  
G06  20644081.556      -92014.397       -3109.076           0.169  
G07  23549912.801     -117776.485       -4083.857           0.141  
G09  23026044.437     -111591.577       -4167.521           0.145  
> 2023 05 18 00 00 46.3688020  0  7                     
G02  24437071.152        7142.488         205.797           0.134  
G03  22292139.366      -98018.173       -3163.047           0.155  
G04  23782449.253     -147967.194       -4879.610           0.139  
G05  22543663.440      -21306.134        -716.771           0.152  
G06  20644163.893      -92325.982       -3117.039           0.169  
G07  23550011.671     -118185.629       -4093.724           0.141  
G09  23026151.346     -112009.120       -4178.458           0.146  
> 2023 05 18 00 00 46.4688020  0  7                     
G02  24437067.367        7163.462         216.677           0.132  
G03  22292223.858      -98334.206       -3158.185           0.156  
G04  23782573.210     -148454.511       -4869.015           0.139  
G05  22543681.181      -21377.527        -710.301           0.153  
G06  20644242.305      -92637.296       -3109.677           0.169  
G07  23550118.943     -118594.460       -4085.619           0.141  
G09  23026255.717     -112426.333       -4168.089           0.147  
> 2023 05 18 00 00 46.5688020  0  7                     
G02  24437059.867        7184.558         210.465           0.133  
G03  22292299.314      -98650.052       -3157.633           0.156  
G04  23782697.449     -148941.726       -4872.986           0.139  
G05  22543700.556      -21448.819        -713.165           0.152  
G06  20644322.624      -92948.442       -3111.371           0.169  
G07  23550220.598     -119003.158       -4086.876           0.143  
G09  23026365.863     -112843.421       -4170.657           0.146  
> 2023 05 18 00 00 46.6688020  0  7                     
G02  24437055.404        7205.683         212.406           0.133  
G03  22292378.367      -98965.912       -3158.070           0.156  
G04  23782822.364     -149428.892       -4872.104           0.139  
G05  22543718.099      -21520.078        -713.216           0.152  
G06  20644400.933      -93259.580       -3110.101           0.169  
G07  23550325.265     -119411.970       -4118.323           0.142  
G09  23026471.706     -113260.470       -4170.792           0.146  
> 2023 05 18 00 00 46.7688020  0  7                     
G02  24437050.239        7226.856         214.576           0.133  
G03  22292459.009      -99281.763       -3159.042           0.156  
G04  23782942.871     -149916.052       -4869.464           0.139  
G05  22543733.225      -21591.309        -711.564           0.153  
G06  20644478.060      -93570.705       -3109.504           0.169  
G07  23550430.619     -119820.462       -4086.791           0.142  
G09  23026576.239     -113677.491       -4168.757           0.147  
> 2023 05 18 00 00 46.8688020  0  7                     
G02  24437040.363        7247.995         212.245           0.133  
G03  22292538.809      -99597.608       -3159.913           0.156  
G04  23783066.510     -150403.236       -4870.376           0.138  
G05  22543750.281      -21662.564        -712.244           0.152  
G06  20644556.280      -93881.868       -3112.416           0.169  
G07  23550529.951     -120229.111       -4084.056           0.141  
G09  23026681.695     -114094.568       -4169.287           0.146  
> 2023 05 18 00 00 46.9688020  0  7                     
G02  24437038.408        7269.069         211.657           0.134  
G03  22292620.075      -99913.524       -3158.850           0.157  
G04  23783191.202     -150890.463       -4870.484           0.139  
G05  22543767.892      -21733.894        -711.562           0.152  
G06  20644636.243      -94193.054       -3111.135           0.169  
G07  23550637.400     -120637.905       -4086.067           0.142  
G09  23026789.904     -114511.706       -4174.527           0.145  
> 2023 05 18 00 00 47.0688020  0  7                     
G02  24437032.385        7290.158         208.717           0.134  
G03  22292696.676     -100229.653       -3204.632           0.156  
G04  23783316.185     -151377.720       -4873.337           0.139  
G05  22543788.345      -21805.208        -714.872           0.153  
G06  20644714.515      -94504.295       -3112.741           0.169  
G07  23550741.262     -121046.633       -4086.752           0.142  
G09  23026895.343     -114928.803       -4192.074           0.145  
> 2023 05 18 00 00 47.1688020  0  7                     
G02  24437025.280        7311.072         213.359           0.134  
G03  22292778.624     -100545.570       -3161.542           0.156  
G04  23783440.513     -151865.157       -4873.979           0.139  
G05  22543805.039      -21876.701        -714.659           0.153  
G06  20644795.100      -94815.671       -3114.213           0.169  
G07  23550845.506     -121455.565       -4088.134           0.142  
G09  23027000.359     -115346.102       -4173.593           0.147  
> 2023 05 18 00 00 47.2688020  0  7                     
G02  24437020.182        7331.861         210.606           0.134  
G03  22292859.406     -100861.783       -3161.508           0.156  
G04  23783564.385     -152352.664       -4874.939           0.139  
G05  22543823.641      -21948.321        -716.147           0.153  
G06  20644872.747      -95127.178       -3115.436           0.169  
G07  23550952.009     -121864.624       -4090.579           0.141  
G09  23027108.530     -115763.509       -4172.662           0.147  
> 2023 05 18 00 00 47.3688020  0  7                     
G02  24437012.533        7352.589         209.119           0.133  
G03  22292941.867     -101178.075       -3162.970           0.156  
G04  23783688.658     -152840.255       -4876.608           0.138  
G05  22543841.293      -22020.265        -731.513           0.152  
G06  20644951.833      -95438.715       -3114.479           0.169  
G07  23551053.099     -122274.908       -4206.695           0.142  
G09  23027217.928     -116180.965       -4172.741           0.146  
> 2023 05 18 00 00 47.4688020  0  7                     
G02  24437008.318        7373.467         210.298           0.133  
G03  22293020.717     -101494.377       -3136.029           0.155  
G04  23783814.348     -153327.677       -4872.860           0.139  
G05  22543860.745      -22091.818        -771.497           0.154  
G06  20645033.609      -95750.134       -3113.435           0.169  
G07  23551156.315     -122682.639       -4086.955           0.142  
G09  23027320.685     -116598.299       -4173.816           0.145  
> 2023 05 18 00 00 47.5688020  0  7                     
G02  24437001.195        7394.251         206.349           0.133  
G03  22293103.120     -101810.486       -3164.536           0.155  
G04  23783941.022     -153815.262       -4878.526           0.139  
G05  22543879.206      -22163.154        -718.323           0.152  
G06  20645111.807      -96061.691       -3118.052           0.169  
G07  23551261.093     -123091.729       -4095.232           0.141  
G09  23027427.327     -117015.735       -4176.483           0.146  
> 2023 05 18 00 00 47.6688020  0  7                     
G02  24436994.108        7414.941         203.675           0.134  
G03  22293181.280     -102126.825       -3165.653           0.155  
G04  23784062.566     -154302.893       -4878.312           0.138  
G05  22543893.705      -22234.825        -716.735           0.152  
G06  20645191.921      -96373.287       -3117.875           0.169  
G07  23551367.213     -123500.888       -4092.884           0.141  
G09  23027534.435     -117433.227       -4176.476           0.145  
> 2023 05 18 00 00 47.7688020  0  7                     
G02  24436991.661        7435.424         205.687           0.134  
G03  22293261.329     -102443.382       -3163.202           0.155  
G04  23784186.259     -154790.753       -4877.248           0.139  
G05  22543914.091      -22306.785        -714.742           0.153  
G06  20645270.344      -96685.137       -3117.268           0.169  
G07  23551468.690     -123910.237       -4091.125           0.141  
G09  23027636.615     -117850.950       -4175.204           0.145  
> 2023 05 18 00 00 47.8688020  0  7                     
G02  24436983.526        7455.622         196.738           0.133  
G03  22293345.313     -102760.225       -3172.700           0.156  
G04  23784309.365     -155278.887       -4884.946           0.139  
G05  22543931.276      -22378.689        -673.500           0.153  
G06  20645350.259      -96997.253       -3125.789           0.169  
G07  23551570.155     -124319.879       -4098.821           0.142  
G09  23027744.634     -118269.361       -4254.822           0.145  
> 2023 05 18 00 00 47.9688020  0  7                     
G02  24436982.170        7475.731         202.303           0.132  
G03  22293422.866     -103077.188       -3166.825           0.156  
G04  23784433.648     -155767.119       -4882.509           0.138  
G05  22543951.131      -22451.321        -720.976           0.151  
G06  20645427.258      -97309.479       -3119.631           0.169  
G07  23551677.512     -124729.631       -4092.762           0.142  
G09  23027851.686     -118687.078       -4180.547           0.146  
> 2023 05 18 00 00 48.0688020  0  7                     
G02  24436982.078        7496.149         202.412           0.133  
G03  22293502.355     -103393.777       -3164.430           0.156  
G04  23784558.353     -156254.981       -4877.159           0.138  
G05  22543968.246      -22523.296        -716.042           0.152  
G06  20645508.928      -97621.356       -3117.234           0.169  
G07  23551780.919     -125139.047       -4092.830           0.143  
G09  23027960.448     -119104.829       -4174.709           0.145  
> 2023 05 18 00 00 48.1688020  0  7                     
G02  24436973.374        7516.871         211.528           0.132  
G03  22293581.380     -103710.128       -3160.904           0.156  
G04  23784683.469     -156742.624       -4874.444           0.138  
G05  22543987.305      -22595.784        -767.598           0.153  
G06  20645584.806      -97932.979       -3113.351           0.168  
G07  23551883.216     -125548.191       -4090.855           0.141  
G09  23028061.753     -119522.334       -4171.573           0.146  
> 2023 05 18 00 00 48.2688020  0  7                     
G02  24436968.217        7537.500         204.995           0.132  
G03  22293665.384     -104026.536       -3160.828           0.155  
G04  23784806.605     -157230.292       -4874.624           0.138  
G05  22544004.882      -22666.778        -715.370           0.153  
G06  20645666.102      -98244.654       -3114.305           0.169  
G07  23551990.455     -125957.374       -4090.419           0.141  
G09  23028169.915     -119939.875       -4172.780           0.146  
> 2023 05 18 00 00 48.3688020  0  7                     
G02  24436962.911        7558.312         205.645           0.134  
G03  22293745.018     -104342.802       -3162.885           0.156  
G04  23784927.517     -157717.824       -4874.605           0.138  
G05  22544023.142      -22738.438        -717.906           0.153  
G06  20645745.863      -98556.184       -3114.688           0.169  
G07  23552096.018     -126366.404       -4087.735           0.141  
G09  23028276.330     -120357.282       -4173.022           0.146  
> 2023 05 18 00 00 48.4688020  0  7                     
G02  24436955.478        7579.227         208.409           0.133  
G03  22293828.766     -104658.966       -3161.536           0.156  
G04  23785054.262     -158205.267       -4874.947           0.139  
G05  22544040.892      -22809.927        -714.131           0.153  
G06  20645825.403      -98867.619       -3115.152           0.169  
G07  23552198.280     -126775.388       -4090.010           0.142  
G09  23028381.520     -120774.587       -4172.817           0.146  
> 2023 05 18 00 00 48.5688020  0  7                     
G02  24436949.293        7600.070         205.313           0.133  
G03  22293906.731     -104975.182       -3161.258           0.155  
G04  23785177.542     -158692.740       -4877.084           0.138  
G05  22544057.947      -22881.492        -716.436           0.152  
G06  20645903.148      -99179.101       -3115.972           0.169  
G07  23552302.913     -127184.241       -4122.680           0.142  
G09  23028487.870     -121191.952       -4175.303           0.146  
> 2023 05 18 00 00 48.6688020  0  7                     
G02  24436943.443        7620.928         205.899           0.133  
G03  22293987.061     -105291.410       -3161.738           0.155  
G04  23785300.068     -159180.245       -4875.918           0.138  
G05  22544077.698      -22953.126        -716.590           0.152  
G06  20645982.496      -99490.616       -3115.216           0.169  
G07  23552410.210     -127593.391       -4088.688           0.141  
G09  23028594.866     -121609.320       -4173.293           0.146  
> 2023 05 18 00 00 48.7688020  0  7                     
G02  24436938.458        7641.891         209.980           0.132  
G03  22294065.949     -105607.568       -3162.191           0.156  
G04  23785424.287     -159667.629       -4872.517           0.138  
G05  22544097.601      -23024.633        -715.297           0.153  
G06  20646063.676      -99802.039       -3114.661           0.169  
G07  23552510.887     -128002.361       -4090.050           0.141  
G09  23028699.505     -122026.608       -4171.636           0.146  
> 2023 05 18 00 00 48.8688020  0  7                     
G02  24436935.521        7662.219         194.254           0.132  
G03  22294147.346     -105924.314       -3175.412           0.155  
G04  23785551.100     -160155.597       -4884.904           0.138  
G05  22544113.821      -23096.694        -725.641           0.151  
G06  20646141.312     -100114.029       -3126.415           0.168  
G07  23552613.325     -128411.863       -4103.505           0.140  
G09  23028806.135     -122444.476       -4188.318           0.144  
> 2023 05 18 00 00 48.9688020  0  7                     
G02  24436928.983        7682.102         204.644           0.133  
G03  22294227.957     -106241.518       -3167.441           0.155  
G04  23785674.576     -160644.069       -4877.101           0.138  
G05  22544131.151      -23169.231        -719.439           0.152  
G06  20646222.132     -100426.510       -3119.357           0.168  
G07  23552716.981     -128821.859       -4095.502           0.141  
G09  23028914.246     -122862.799       -4178.906           0.145  
> 2023 05 18 00 00 49.0688020  0  7                     
G02  24436919.979        7702.337         201.066           0.133  
G03  22294305.046     -106558.398       -3169.984           0.156  
G04  23785801.581     -161132.157       -4879.059           0.138  
G05  22544148.969      -23241.479        -722.646           0.152  
G06  20646300.516     -100738.646       -3122.121           0.169  
G07  23552822.885     -129231.507       -4097.867           0.142  
G09  23029021.631     -123280.797       -4183.219           0.145  
> 2023 05 18 00 00 49.1688020  0  7                     
G02  24436919.209        7722.595         205.011           0.133  
G03  22294388.703     -106875.275       -3167.738           0.156  
G04  23785924.469     -161620.294       -4878.004           0.138  
G05  22544168.947      -23313.690        -718.837           0.151  
G06  20646380.411     -101050.756       -3119.878           0.169  
G07  23552926.759     -129641.161       -4095.703           0.141  
G09  23029124.758     -123698.760       -4178.770           0.146  
> 2023 05 18 00 00 49.2688020  0  7                     
G02  24436909.477        7743.041         207.785           0.134  
G03  22294466.183     -107191.922       -3164.376           0.156  
G04  23786046.006     -162108.164       -4875.511           0.138  
G05  22544183.281      -23385.684        -717.013           0.151  
G06  20646457.442     -101362.683       -3118.040           0.169  
G07  23553032.374     -130050.561       -4088.859           0.141  
G09  23029232.598     -124116.527       -4174.566           0.146  
> 2023 05 18 00 00 49.3688020  0  7                     
G02  24436908.672        7763.633         206.539           0.133  
G03  22294549.123     -107508.429       -3164.934           0.155  
G04  23786172.698     -162595.923       -4875.938           0.138  
G05  22544203.750      -23457.514        -719.342           0.153  
G06  20646538.267     -101674.446       -3118.444           0.169  
G07  23553137.166     -130459.908       -4092.418           0.141  
G09  23029338.016     -124534.153       -4175.524           0.145  
> 2023 05 18 00 00 49.4688020  0  7                     
G02  24436902.043        7784.369         206.654           0.134  
G03  22294631.652     -107824.613       -3184.484           0.156  
G04  23786296.014     -163083.508       -4876.193           0.138  
G05  22544221.739      -23528.548        -682.127           0.152  
G06  20646614.951     -101986.075       -3115.783           0.168  
G07  23553238.842     -130868.999       -4089.937           0.142  
G09  23029442.383     -124951.467       -4125.067           0.145  
> 2023 05 18 00 00 49.5688020  0  7                     
G02  24436895.182        7804.741         196.342           0.132  
G03  22294713.420     -108141.558       -3173.760           0.154  
G04  23786421.619     -163571.485       -4884.859           0.138  
G05  22544240.370      -23601.317        -724.497           0.153  
G06  20646695.520     -102298.098       -3126.359           0.168  
G07  23553342.423     -131278.549       -4099.251           0.140  
G09  23029550.036     -125369.506       -4183.706           0.146  
> 2023 05 18 00 00 49.6688020  0  7                     
G02  24436890.775        7824.194         192.471           0.132  
G03  22294791.230     -108459.227       -3176.907           0.155  
G04  23786542.775     -164060.379       -4889.692           0.137  
G05  22544260.882      -23674.327        -730.735           0.153  
G06  20646775.483     -102611.023       -3129.659           0.169  
G07  23553449.578     -131688.952       -4102.984           0.140  
G09  23029656.765     -125788.270       -4187.993           0.145  
> 2023 05 18 00 00 49.7688020  0  7                     
G02  24436882.365        7843.654         198.755           0.132  
G03  22294872.089     -108776.865       -3171.480           0.155  
G04  23786667.970     -164549.215       -4882.182           0.138  
G05  22544278.145      -23747.280        -726.549           0.152  
G06  20646853.391     -102923.921       -3124.544           0.168  
G07  23553554.929     -132099.385       -4098.526           0.140  
G09  23029761.827     -126206.988       -4181.702           0.145  
> 2023 05 18 00 00 49.8688020  0  7                     
G02  24436878.552        7864.102         202.945           0.133  
G03  22294953.054     -109093.581       -3165.927           0.155  
G04  23786792.423     -165037.138       -4877.625           0.138  
G05  22544295.689      -23819.318        -718.654           0.151  
G06  20646934.458     -103235.878       -3117.211           0.168  
G07  23553658.808     -132508.881       -4096.403           0.141  
G09  23029871.812     -126624.806       -4177.564           0.145  
> 2023 05 18 00 00 49.9688020  0  7                     
G02  24436872.173        7884.907         206.194           0.133  
G03  22295033.225     -109409.905       -3163.522           0.155  
G04  23786917.806     -165524.679       -4876.660           0.137  
G05  22544313.803      -23890.985        -717.550           0.152  
G06  20647012.709     -103547.438       -3116.747           0.168  
G07  23553762.241     -132917.993       -4091.771           0.140  
G09  23029978.421     -127042.204       -4173.505           0.145  
> 2023 05 18 00 00 50.0688020  0  7                     
G02  24436868.718        7905.850         211.473           0.133  
G03  22295114.560     -109726.138       -3162.449           0.156  
G04  23787040.843     -166012.096       -4873.643           0.138  
G05  22544330.898      -23962.508        -716.151           0.152  
G06  20647095.113     -103858.904       -3113.634           0.169  
G07  23553867.750     -133326.957       -4091.188           0.141  
G09  23030082.627     -127459.492       -4172.154           0.146  
> 2023 05 18 00 00 50.1688020  0  7                     
G02  24436861.174        7926.757         207.226           0.133  
G03  22295192.135     -110042.379       -3164.702           0.156  
G04  23787166.276     -166499.546       -4876.898           0.138  
G05  22544348.215      -24034.075        -718.143           0.152  
G06  20647172.418     -104170.407       -3116.727           0.169  
G07  23553966.907     -133735.949       -4086.712           0.141  
G09  23030188.978     -127876.819       -4175.023           0.145  
> 2023 05 18 00 00 50.2688020  0  7                     
G02  24436850.376        7947.557         206.886           0.134  
G03  22295273.215     -110358.709       -3162.456           0.156  
G04  23787288.524     -166987.085       -4875.029           0.140  
G05  22544368.104      -24105.762        -716.426           0.152  
G06  20647252.329     -104482.008       -3116.807           0.169  
G07  23554069.309     -134145.055       -4091.315           0.142  
G09  23030297.812     -128294.246       -4175.033           0.145  
> 2023 05 18 00 00 50.3688020  0  7                     
G02  24436845.014        7968.227         206.279           0.133  
G03  22295351.694     -110675.238       -3165.584           0.156  
G04  23787414.040     -167474.814       -4877.740           0.140  
G05  22544386.339      -24177.607        -718.241           0.154  
G06  20647330.395     -104793.773       -3118.802           0.169  
G07  23554178.457     -134554.380       -4095.620           0.141  
G09  23030400.667     -128711.827       -4178.515           0.146  
> 2023 05 18 00 00 50.4688020  0  7                     
G02  24436844.415        7988.821         205.274           0.133  
G03  22295434.412     -110991.756       -3165.718           0.156  
G04  23787537.435     -167962.527       -4878.826           0.139  
G05  22544403.703      -24249.422        -716.345           0.152  
G06  20647410.492     -105105.539       -3118.223           0.169  
G07  23554278.918     -134963.633       -4095.945           0.143  
G09  23030505.403     -129129.405       -4175.161           0.146  
> 2023 05 18 00 00 50.5688020  0  7                     
G02  24436840.394        8009.500         204.859           0.134  
G03  22295516.025     -111308.226       -3164.853           0.156  
G04  23787659.298     -168450.175       -4874.786           0.139  
G05  22544423.517      -24321.236        -717.877           0.153  
G06  20647486.559     -105417.255       -3116.163           0.169  
G07  23554386.570     -135372.860       -4093.110           0.142  
G09  23030612.744     -129546.953       -4175.818           0.145  
> 2023 05 18 00 00 50.6688020  0  7                     
G02  24436835.573        8030.252         210.696           0.133  
G03  22295597.081     -111624.674       -3164.842           0.157  
G04  23787785.094     -168937.817       -4877.531           0.139  
G05  22544440.489      -24392.988        -717.098           0.153  
G06  20647569.250     -105728.960       -3117.837           0.169  
G07  23554486.558     -135782.073       -4092.136           0.142  
G09  23030719.701     -129964.439       -4173.262           0.146  
> 2023 05 18 00 00 50.7688020  0  7                     
G02  24436827.779        8051.007         207.187           0.134  
G03  22295676.050     -111941.079       -3163.824           0.157  
G04  23787908.144     -169425.413       -4878.207           0.139  
G05  22544458.939      -24464.723        -717.374           0.154  
G06  20647647.668     -106040.614       -3116.337           0.170  
G07  23554592.384     -136191.235       -4090.354           0.142  
G09  23030825.173     -130381.925       -4176.318           0.147  
> 2023 05 18 00 00 50.8688020  0  7                     
G02  24436826.906        8071.749         205.495           0.135  
G03  22295756.600     -112257.543       -3164.980           0.157  
G04  23788032.387     -169913.030       -4876.176           0.140  
G05  22544474.628      -24536.453        -717.520           0.154  
G06  20647727.553     -106352.315       -3117.144           0.170  
G07  23554697.767     -136600.424       -4093.054           0.143  
G09  23030933.889     -130799.441       -4177.917           0.146  
> 2023 05 18 00 00 50.9688020  0  7                     
G02  24436819.566        8092.477         203.145           0.134  
G03  22295836.840     -112573.977       -3165.643           0.156  
G04  23788157.608     -170400.642       -4877.854           0.139  
G05  22544494.449      -24608.171        -717.490           0.153  
G06  20647806.771     -106663.980       -3116.767           0.170  
G07  23554800.927     -137009.611       -4092.576           0.142  
G09  23031040.755     -131216.917       -4174.490           0.146  
> 2023 05 18 00 00 51.0688020  0  7                     
G02  24436812.557        8113.200         205.960           0.134  
G03  22295916.909     -112890.454       -3166.282           0.156  
G04  23788278.842     -170888.318       -4878.458           0.140  
G05  22544511.316      -24679.973        -715.686           0.154  
G06  20647883.747     -106975.714       -3116.290           0.170  
G07  23554905.399     -137418.847       -4092.646           0.143  
G09  23031143.661     -131634.427       -4174.823           0.147  
> 2023 05 18 00 00 51.1688020  0  7                     
G02  24436810.334        8133.850         209.159           0.134  
G03  22295997.092     -113207.007       -3164.558           0.157  
G04  23788404.165     -171376.034       -4878.080           0.140  
G05  22544530.337      -24751.829        -716.956           0.153  
G06  20647965.591     -107287.504       -3117.367           0.170  
G07  23555010.332     -137828.133       -4093.217           0.143  
G09  23031249.885     -132052.007       -4171.271           0.147  
> 2023 05 18 00 00 51.2688020  0  7                     
G02  24436800.892        8154.504         207.177           0.135  
G03  22296075.198     -113523.536       -3163.385           0.157  
G04  23788529.005     -171863.720       -4876.578           0.139  
G05  22544549.658      -24823.647        -717.831           0.154  
G06  20648043.261     -107599.287       -3117.988           0.170  
G07  23555111.746     -138237.410       -4091.634           0.143  
G09  23031359.090     -132469.604       -4173.392           0.147  
> 2023 05 18 00 00 51.3688020  0  7                     
G02  24436793.174        8175.141         204.100           0.135  
G03  22296157.050     -113840.102       -3164.026           0.157  
G04  23788652.858     -172351.451       -4878.680           0.140  
G05  22544565.725      -24895.522        -719.959           0.154  
G06  20648125.072     -107911.079       -3117.728           0.171  
G07  23555215.637     -138646.720       -4096.451           0.142  
G09  23031463.458     -132887.202       -4176.636           0.148  
> 2023 05 18 00 00 51.4688020  0  7                     
G02  24436794.793        8195.743         206.079           0.134  
G03  22296234.834     -114157.124       -3194.975           0.157  
G04  23788776.303     -172839.236       -4878.998           0.140  
G05  22544585.060      -24967.257        -737.359           0.154  
G06  20648202.331     -108222.931       -3118.566           0.170  
G07  23555320.416     -139054.976       -3983.115           0.143  
G09  23031567.806     -133304.096       -4020.247           0.147  
> 2023 05 18 00 00 51.5688020  0  7                     
G02  24436787.762        8216.297         205.252           0.134  
G03  22296318.915     -114473.365       -3164.858           0.156  
G04  23788899.365     -173326.999       -4876.991           0.139  
G05  22544603.032      -25039.346        -718.495           0.154  
G06  20648283.175     -108534.800       -3116.948           0.170  
G07  23555425.584     -139465.449       -4094.400           0.143  
G09  23031680.058     -133722.478       -4174.575           0.147  
> 2023 05 18 00 00 51.6688020  0  7                     
G02  24436780.174        8236.951         206.752           0.135  
G03  22296401.335     -114789.935       -3164.702           0.157  
G04  23789024.210     -173814.718       -4875.505           0.140  
G05  22544619.841      -25111.166        -713.776           0.153  
G06  20648359.220     -108846.611       -3117.552           0.170  
G07  23555531.082     -139874.770       -4092.397           0.142  
G09  23031782.428     -134140.096       -4174.450           0.147  
> 2023 05 18 00 00 51.7688020  0  7                     
G02  24436774.963        8257.587         207.909           0.134  
G03  22296479.425     -115106.507       -3165.480           0.157  
G04  23789147.237     -174302.465       -4878.472           0.139  
G05  22544638.481      -25183.049        -716.714           0.154  
G06  20648440.616     -109158.435       -3118.957           0.170  
G07  23555634.416     -140284.089       -4091.981           0.142  
G09  23031890.306     -134557.694       -4175.946           0.146  
> 2023 05 18 00 00 51.8688020  0  7                     
G02  24436766.262        8278.295         206.394           0.134  
G03  22296559.945     -115423.030       -3164.094           0.157  
G04  23789273.284     -174790.155       -4878.232           0.140  
G05  22544655.369      -25254.901        -719.682           0.154  
G06  20648517.559     -109470.206       -3118.658           0.170  
G07  23555738.145     -140693.337       -4091.337           0.142  
G09  23031998.247     -134975.261       -4177.380           0.147  
> 2023 05 18 00 00 51.9688020  0  7                     
G02  24436761.404        8298.996         207.279           0.135  
G03  22296638.332     -115739.540       -3165.086           0.157  
G04  23789397.637     -175277.773       -4875.015           0.140  
G05  22544675.865      -25326.698        -718.083           0.154  
G06  20648597.287     -109781.936       -3116.813           0.170  
G07  23555843.908     -141102.604       -4094.868           0.143  
G09  23032105.072     -135392.771       -4175.245           0.147  
> 2023 05 18 00 00 52.0688020  0  7                     
G02  24436759.428        8319.747         209.729           0.135  
G03  22296720.076     -116056.043       -3164.048           0.157  
G04  23789520.759     -175765.418       -4874.540           0.140  
G05  22544690.557      -25398.455        -717.014           0.153  
G06  20648676.976     -110093.674       -3117.768           0.170  
G07  23555947.696     -141511.801       -4090.305           0.142  
G09  23032207.338     -135810.260       -4173.928           0.147  
> 2023 05 18 00 00 52.1688020  0  7                     
G02  24436752.044        8340.444         205.909           0.134  
G03  22296797.677     -116372.607       -3166.150           0.157  
G04  23789645.805     -176253.099       -4878.836           0.138  
G05  22544712.561      -25470.256        -718.464           0.154  
G06  20648755.512     -110405.429       -3117.973           0.169  
G07  23556050.611     -141921.111       -4094.011           0.143  
G09  23032316.068     -136227.828       -4176.555           0.146  
> 2023 05 18 00 00 52.2688020  0  7                     
G02  24436747.432        8361.086         205.224           0.134  
G03  22296883.281     -116689.197       -3166.245           0.157  
G04  23789767.560     -176740.798       -4877.879           0.139  
G05  22544730.817      -25542.154        -719.721           0.153  
G06  20648835.569     -110717.263       -3118.649           0.170  
G07  23556154.751     -142330.403       -4093.583           0.142  
G09  23032422.389     -136645.405       -4176.118           0.147  
> 2023 05 18 00 00 52.3688020  0  7                     
G02  24436744.650        8381.711         204.880           0.134  
G03  22296961.687     -117005.832       -3165.271           0.157  
G04  23789895.428     -177228.554       -4875.751           0.140  
G05  22544747.854      -25614.041        -720.213           0.154  
G06  20648912.903     -111029.111       -3117.764           0.170  
G07  23556258.354     -142739.770       -4093.682           0.142  
G09  23032523.727     -137063.040       -4176.669           0.146  
> 2023 05 18 00 00 52.4688020  0  7                     
G02  24436733.588        8402.177         204.598           0.134  
G03  22297044.205     -117322.590       -3166.221           0.156  
G04  23790016.192     -177716.471       -4878.364           0.139  
G05  22544764.800      -25686.109        -721.992           0.155  
G06  20648995.214     -111341.138       -3120.612           0.170  
G07  23556363.180     -143149.233       -4092.051           0.142  
G09  23032634.728     -137480.846       -4181.189           0.147  
> 2023 05 18 00 00 52.5688020  0  7                     
G02  24436732.882        8422.559         207.222           0.135  
G03  22297123.339     -117639.623       -3209.487           0.156  
G04  23790140.149     -178204.467       -4879.567           0.140  
G05  22544781.462      -25758.237        -721.496           0.152  
G06  20649073.830     -111653.249       -3120.850           0.170  
G07  23556465.911     -143558.890       -4094.525           0.142  
G09  23032738.777     -137898.715       -4180.288           0.147  
> 2023 05 18 00 00 52.6688020  0  7                     
G02  24436724.433        8442.946         206.071           0.133  
G03  22297205.533     -117956.358       -3168.469           0.157  
G04  23790264.621     -178692.452       -4881.347           0.139  
G05  22544803.469      -25830.123        -655.849           0.154  
G06  20649154.457     -111965.342       -3121.545           0.170  
G07  23556568.352     -143968.427       -4094.917           0.141  
G09  23032840.238     -138316.520       -4248.148           0.147  
> 2023 05 18 00 00 52.7688020  0  7                     
G02  24436715.916        8463.478         203.813           0.134  
G03  22297288.840     -118273.091       -3167.332           0.157  
G04  23790390.729     -179180.269       -4879.748           0.139  
G05  22544820.494      -25902.360        -719.622           0.154  
G06  20649233.239     -112277.281       -3120.882           0.170  
G07  23556675.316     -144377.912       -4096.333           0.143  
G09  23032948.076     -138734.261       -4180.060           0.147  
> 2023 05 18 00 00 52.8688020  0  7                     
G02  24436710.997        8484.032         205.132           0.134  
G03  22297367.612     -118589.809       -3166.641           0.157  
G04  23790515.265     -179668.099       -4880.202           0.140  
G05  22544839.512      -25974.324        -717.300           0.153  
G06  20649312.567     -112589.234       -3120.529           0.170  
G07  23556776.556     -144787.307       -4093.148           0.143  
G09  23033056.131     -139151.963       -4179.867           0.146  
> 2023 05 18 00 00 52.9688020  0  7                     
G02  24436709.305        8504.529         200.729           0.133  
G03  22297448.897     -118906.574       -3167.899           0.157  
G04  23790639.923     -180155.977       -4879.305           0.139  
G05  22544855.886      -26046.407        -726.042           0.154  
G06  20649389.670     -112901.208       -3121.590           0.170  
G07  23556880.702     -145196.858       -4098.878           0.141  
G09  23033160.266     -139569.669       -4180.147           0.147  
> 2023 05 18 00 00 53.0688020  0  7                     
G02  24436701.265        8524.717         204.552           0.134  
G03  22297528.034     -119223.669       -3169.031           0.156  
G04  23790763.591     -180644.144       -4879.344           0.138  
G05  22544877.117      -26118.748        -721.878           0.153  
G06  20649471.063     -113213.535       -3122.018           0.169  
G07  23556988.585     -145607.469       -4202.438           0.141  
G09  23033267.618     -139987.741       -4179.216           0.147  
> 2023 05 18 00 00 53.1688020  0  7                     
G02  24436697.889        8544.605         197.058           0.134  
G03  22297610.085     -119541.095       -3175.614           0.157  
G04  23790887.465     -181132.674       -4887.277           0.138  
G05  22544893.880      -26191.398        -728.391           0.153  
G06  20649548.985     -113526.135       -3126.958           0.169  
G07  23557093.902     -146016.757       -4101.868           0.143  
G09  23033375.523     -140406.105       -4185.957           0.146  
> 2023 05 18 00 00 53.2688020  0  7                     
G02  24436693.964        8564.350         193.286           0.134  
G03  22297688.698     -119858.598       -3175.493           0.156  
G04  23791013.094     -181621.270       -4887.461           0.139  
G05  22544910.002      -26264.142        -728.470           0.153  
G06  20649630.364     -113838.872       -3127.922           0.169  
G07  23557196.544     -146426.964       -4102.934           0.143  
G09  23033478.408     -140824.582       -4185.488           0.147  
> 2023 05 18 00 00 53.3688020  0  7                     
G02  24436688.143        8584.458         202.457           0.133  
G03  22297769.944     -120175.656       -3140.192           0.156  
G04  23791136.637     -182109.576       -4879.743           0.139  
G05  22544928.131      -26336.610        -721.141           0.151  
G06  20649708.925     -114151.301       -3118.998           0.169  
G07  23557300.359     -146836.908       -4095.183           0.142  
G09  23033584.058     -141242.576       -4129.292           0.146  
> 2023 05 18 00 00 53.4688020  0  7                     
G02  24436681.092        8605.200         207.802           0.134  
G03  22297847.669     -120492.379       -3162.820           0.156  
G04  23791260.228     -182597.181       -4873.410           0.138  
G05  22544946.171      -26408.386        -717.202           0.153  
G06  20649787.547     -114463.083       -3115.188           0.169  
G07  23557404.637     -147246.122       -4089.622           0.140  
G09  23033692.727     -141660.247       -4172.952           0.146  
> 2023 05 18 00 00 53.5688020  0  7                     
G02  24436674.218        8626.214         209.779           0.134  
G03  22297928.085     -120808.695       -3163.432           0.157  
G04  23791382.571     -183084.596       -4875.203           0.139  
G05  22544965.898      -26479.951        -715.540           0.153  
G06  20649868.125     -114774.600       -3114.739           0.170  
G07  23557510.487     -147655.180       -4092.142           0.142  
G09  23033801.937     -142077.517       -4171.674           0.146  
> 2023 05 18 00 00 53.6688020  0  7                     
G02  24436670.796        8647.234         209.543           0.134  
G03  22298008.144     -121124.940       -3162.451           0.156  
G04  23791506.388     -183571.896       -4873.847           0.140  
G05  22544982.477      -26551.454        -714.271           0.152  
G06  20649945.156     -115086.069       -3114.199           0.169  
G07  23557614.715     -148064.101       -4089.926           0.142  
G09  23033905.495     -142494.733       -4172.487           0.146  
> 2023 05 18 00 00 53.7688020  0  7                     
G02  24436666.817        8668.286         209.139           0.134  
G03  22298089.926     -121441.221       -3163.141           0.156  
G04  23791629.623     -184059.260       -4872.158           0.139  
G05  22545001.065      -26622.983        -717.676           0.153  
G06  20650026.577     -115397.556       -3114.451           0.170  
G07  23557714.656     -148473.097       -4090.454           0.143  
G09  23034013.029     -142911.970       -4171.629           0.147  
> 2023 05 18 00 00 53.8688020  0  7                     
G02  24436664.337        8689.265         210.021           0.134  
G03  22298171.912     -121757.565       -3162.602           0.156  
G04  23791755.503     -184546.674       -4872.235           0.139  
G05  22545019.461      -26694.572        -716.635           0.153  
G06  20650104.932     -115709.118       -3114.756           0.169  
G07  23557819.938     -148882.125       -4089.881           0.142  
G09  23034119.325     -143329.287       -4173.972           0.146  
> 2023 05 18 00 00 53.9688020  0  7                     
G02  24436655.717        8710.214         208.323           0.133  
G03  22298250.463     -122073.936       -3163.972           0.157  
G04  23791879.206     -185034.104       -4873.561           0.139  
G05  22545036.848      -26766.190        -716.687           0.154  
G06  20650185.936     -116020.680       -3115.119           0.169  
G07  23557923.852     -149291.203       -4089.197           0.142  
G09  23034223.266     -143746.560       -4172.311           0.146  
> 2023 05 18 00 00 54.0688020  0  7                     
G02  24436650.644        8731.085         208.525           0.135  
G03  22298332.307     -122390.387       -3166.144           0.157  
G04  23792003.907     -185521.635       -4874.621           0.140  
G05  22545055.640      -26837.852        -720.596           0.153  
G06  20650262.671     -116332.370       -3118.409           0.170  
G07  23558028.205     -149700.361       -4092.785           0.142  
G09  23034329.955     -144163.965       -4173.905           0.147  
> 2023 05 18 00 00 54.1688020  0  7                     
G02  24436646.993        8751.891         208.677           0.134  
G03  22298411.725     -122706.933       -3167.037           0.156  
G04  23792131.459     -186009.252       -4876.890           0.140  
G05  22545072.871      -26909.608        -719.442           0.154  
G06  20650342.414     -116644.102       -3118.092           0.170  
G07  23558133.993     -150109.653       -4096.232           0.141  
G09  23034438.606     -144581.436       -4176.328           0.147  
> 2023 05 18 00 00 54.2688020  0  7                     
G02  24436640.170        8772.493         203.681           0.134  
G03  22298494.125     -123023.624       -3168.190           0.157  
G04  23792252.255     -186496.973       -4876.900           0.139  
G05  22545091.615      -26981.559        -719.652           0.152  
G06  20650419.409     -116956.004       -3119.199           0.170  
G07  23558236.159     -150518.956       -4091.029           0.142  
G09  23034542.736     -144999.055       -4176.305           0.147  
> 2023 05 18 00 00 54.3688020  0  7                     
G02  24436632.413        8793.105         205.189           0.134  
G03  22298574.635     -123340.362       -3167.578           0.157  
G04  23792373.637     -186984.784       -4877.104           0.139  
G05  22545109.738      -27053.486        -720.967           0.153  
G06  20650499.333     -117267.935       -3120.340           0.170  
G07  23558338.691     -150928.419       -4093.910           0.142  
G09  23034646.551     -145416.712       -4175.404           0.146  
> 2023 05 18 00 00 54.4688020  0  7                     
G02  24436628.667        8813.634         207.817           0.135  
G03  22298654.359     -123657.212       -3167.517           0.156  
G04  23792500.412     -187472.663       -4876.482           0.139  
G05  22545127.066      -27125.555        -721.142           0.153  
G06  20650579.227     -117579.971       -3118.921           0.170  
G07  23558445.688     -151337.926       -4095.142           0.142  
G09  23034753.440     -145834.480       -4176.083           0.146  
> 2023 05 18 00 00 54.5688020  0  7                     
G02  24436619.273        8834.327         203.736           0.134  
G03  22298732.459     -123973.873       -3168.482           0.157  
G04  23792624.555     -187960.389       -4876.590           0.138  
G05  22545146.248      -27197.452        -721.003           0.153  
G06  20650658.139     -117891.832       -3119.787           0.170  
G07  23558550.541     -151747.285       -4090.619           0.142  
G09  23034860.080     -146252.050       -4176.560           0.147  
> 2023 05 18 00 00 54.6688020  0  7                     
G02  24436617.091        8854.751         201.267           0.133  
G03  22298813.920     -124290.827       -3175.071           0.157  
G04  23792747.065     -188448.376       -4884.581           0.139  
G05  22545163.262      -27269.617        -725.917           0.153  
G06  20650738.428     -118204.011       -3127.383           0.170  
G07  23558653.287     -152156.919       -4100.358           0.141  
G09  23034965.873     -146669.904       -4184.493           0.147  
> 2023 05 18 00 00 54.7688020  0  7                     
G02  24436611.512        8874.413         195.920           0.133  
G03  22298891.875     -124608.500       -3175.870           0.156  
G04  23792871.160     -188937.073       -4883.524           0.139  
G05  22545182.015      -27342.530        -729.254           0.154  
G06  20650816.465     -118516.872       -3127.462           0.169  
G07  23558758.272     -152567.303       -4105.073           0.142  
G09  23035073.767     -147088.494       -4187.227           0.146  
> 2023 05 18 00 00 54.8688020  0  7                     
G02  24436602.375        8894.168         201.780           0.134  
G03  22298977.707     -124926.088       -3170.886           0.156  
G04  23792997.943     -189425.725       -4881.195           0.138  
G05  22545199.613      -27415.338        -722.682           0.153  
G06  20650898.107     -118829.683       -3122.805           0.169  
G07  23558861.173     -152977.587       -4100.011           0.142  
G09  23035181.630     -147506.997       -4180.868           0.147  
> 2023 05 18 00 00 54.9688020  0  7                     
G02  24436598.466        8914.434         201.227           0.134  
G03  22299057.414     -125243.201       -3171.067           0.156  
G04  23793121.609     -189913.847       -4880.313           0.139  
G05  22545216.627      -27487.649        -721.361           0.152  
G06  20650976.799     -119141.996       -3123.130           0.169  
G07  23558964.258     -153387.351       -4097.265           0.141  
G09  23035286.571     -147924.975       -4178.311           0.147  
> 2023 05 18 00 00 55.0688020  0  7                     
G02  24436591.777        8934.943         203.560           0.134  
G03  22299136.737     -125560.056       -3167.427           0.157  
G04  23793244.023     -190401.717       -4875.745           0.139  
G05  22545237.407      -27559.725        -720.028           0.154  
G06  20651059.518     -119454.052       -3119.791           0.170  
G07  23559068.533     -153797.013       -4066.033           0.143  
G09  23035393.950     -148342.612       -4230.204           0.147  
> 2023 05 18 00 00 55.1688020  0  7                     
G02  24436586.610        8955.715         208.079           0.134  
G03  22299220.293     -125876.683       -3167.676           0.156  
G04  23793370.646     -190889.398       -4875.764           0.138  
G05  22545254.932      -27631.554        -720.426           0.152  
G06  20651136.972     -119765.859       -3118.496           0.170  
G07  23559171.030     -154206.215       -4096.193           0.141  
G09  23035502.578     -148760.264       -4176.436           0.146  
> 2023 05 18 00 00 55.2688020  0  7                     
G02  24436579.581        8976.485         207.992           0.134  
G03  22299298.783     -126193.291       -3167.169           0.156  
G04  23793493.316     -191377.031       -4875.177           0.139  
G05  22545273.803      -27703.377        -718.470           0.152  
G06  20651216.095     -120077.668       -3117.316           0.170  
G07  23559275.206     -154615.490       -4093.175           0.143  
G09  23035605.671     -149177.782       -4176.524           0.146  
> 2023 05 18 00 00 55.3688020  0  7                     
G02  24436575.513        8997.390         209.374           0.135  
G03  22299381.025     -126509.765       -3163.667           0.157  
G04  23793615.525     -191864.532       -4874.848           0.139  
G05  22545291.658      -27775.703        -875.333           0.154  
G06  20651293.122     -120389.333       -3114.641           0.170  
G07  23559380.775     -155024.607       -4089.249           0.141  
G09  23035712.095     -149595.578       -4174.884           0.146  
> 2023 05 18 00 00 55.4688020  0  7                     
G02  24436571.398        9018.464         213.646           0.135  
G03  22299458.320     -126826.081       -3162.345           0.157  
G04  23793742.118     -192351.867       -4875.218           0.139  
G05  22545311.462      -27846.576        -716.237           0.154  
G06  20651372.486     -120700.832       -3113.416           0.170  
G07  23559487.503     -155433.614       -4090.360           0.143  
G09  23035817.347     -150012.341       -4173.550           0.147  
> 2023 05 18 00 00 55.5688020  0  7                     
G02  24436566.154        9039.624         211.731           0.134  
G03  22299536.821     -127142.317       -3160.259           0.157  
G04  23793864.102     -192839.104       -4872.927           0.140  
G05  22545328.271      -27918.005        -713.706           0.154  
G06  20651451.271     -121012.278       -3113.448           0.169  
G07  23559595.516     -155842.533       -4091.174           0.142  
G09  23035925.094     -150429.456       -4174.208           0.147  
> 2023 05 18 00 00 55.6688020  0  7                     
G02  24436557.207        9060.713         208.721           0.135  
G03  22299618.366     -127458.656       -3164.916           0.157  
G04  23793985.816     -193326.406       -4873.446           0.139  
G05  22545347.158      -27989.501        -714.982           0.154  
G06  20651531.652     -121323.759       -3115.613           0.170  
G07  23559696.088     -156251.517       -4090.663           0.143  
G09  23036028.002     -150846.606       -4172.255           0.147  
> 2023 05 18 00 00 55.7688020  0  7                     
G02  24436554.547        9081.698         210.655           0.134  
G03  22299698.498     -127775.981       -3240.820           0.157  
G04  23794110.581     -193813.823       -4874.679           0.140  
G05  22545361.432      -28061.734        -821.447           0.154  
G06  20651610.224     -121635.363       -3116.471           0.170  
G07  23559799.881     -156660.568       -4095.115           0.142  
G09  23036135.071     -151263.906       -4174.415           0.147  
> 2023 05 18 00 00 55.8688020  0  7                     
G02  24436547.854        9102.626         207.299           0.134  
G03  22299781.198     -128091.857       -3178.731           0.156  
G04  23794236.753     -194301.313       -4874.704           0.139  
G05  22545382.353      -28132.779        -718.624           0.153  
G06  20651689.148     -121947.028       -3118.280           0.170  
G07  23559904.405     -157070.383       -4163.395           0.142  
G09  23036242.296     -151681.620       -4193.624           0.146  
> 2023 05 18 00 00 55.9688020  0  7                     
G02  24436544.467        9123.543         209.052           0.135  
G03  22299861.999     -128408.041       -3164.075           0.156  
G04  23794363.377     -194788.814       -4872.590           0.139  
G05  22545400.305      -28204.483        -715.288           0.153  
G06  20651770.742     -122258.705       -3114.760           0.170  
G07  23560006.918     -157478.865       -4090.925           0.142  
G09  23036349.379     -152098.600       -4171.438           0.146  
> 2023 05 18 00 00 56.0688020  0  7                     
G02  24436539.749        9144.163         206.353           0.133  
G03  22299943.185     -128724.831       -3169.271           0.157  
G04  23794486.738     -195276.606       -4878.962           0.139  
G05  22545418.504      -28276.446        -722.010           0.153  
G06  20651847.809     -122570.675       -3120.241           0.169  
G07  23560109.991     -157888.317       -4097.881           0.142  
G09  23036453.740     -152516.247       -4176.450           0.147  
> 2023 05 18 00 00 56.1688020  0  7                     
G02  24436531.325        9164.492         203.926           0.133  
G03  22300021.204     -129041.919       -3170.915           0.156  
G04  23794611.037     -195764.688       -4884.237           0.139  
G05  22545437.273      -28348.724        -723.664           0.153  
G06  20651929.234     -122882.953       -3122.967           0.169  
G07  23560215.402     -158298.048       -4095.628           0.142  
G09  23036560.596     -152934.193       -4180.394           0.146  
> 2023 05 18 00 00 56.2688020  0  7                     
G02  24436526.703        9184.793         202.366           0.133  
G03  22300104.222     -129359.058       -3170.528           0.156  
G04  23794734.861     -196252.778       -4879.683           0.139  
G05  22545452.812      -28421.032        -722.306           0.152  
G06  20652006.608     -123195.267       -3122.334           0.168  
G07  23560320.780     -158707.180       -4021.936           0.140  
G09  23036663.118     -153352.172       -4179.032           0.146  
> 2023 05 18 00 00 56.3688020  0  7                     
G02  24436521.130        9205.373         209.582           0.132  
G03  22300182.273     -129675.937       -3167.058           0.155  
G04  23794858.044     -196740.638       -4876.605           0.138  
G05  22545472.732      -28493.080        -718.195           0.152  
G06  20652087.377     -123507.337       -3118.183           0.168  
G07  23560425.611     -159117.391       -4096.791           0.141  
G09  23036772.752     -153769.925       -4176.473           0.145  
> 2023 05 18 00 00 56.4688020  0  7                     
G02  24436515.329        9226.039         209.634           0.132  
G03  22300265.076     -129992.663       -3166.422           0.156  
G04  23794981.950     -197228.370       -4877.574           0.138  
G05  22545490.794      -28564.990        -717.365           0.152  
G06  20652164.920     -123819.250       -3118.627           0.168  
G07  23560527.540     -159526.764       -4092.187           0.141  
G09  23036880.222     -154187.487       -4175.474           0.145  
> 2023 05 18 00 00 56.5688020  0  7                     
G02  24436514.792        9246.749         205.213           0.132  
G03  22300345.118     -130309.405       -3168.341           0.155  
G04  23795106.380     -197716.036       -4875.633           0.138  
G05  22545506.976      -28636.899        -719.476           0.152  
G06  20652245.718     -124131.179       -3118.697           0.168  
G07  23560633.049     -159936.179       -4096.531           0.141  
G09  23036983.268     -154605.062       -4176.622           0.146  
> 2023 05 18 00 00 56.6688020  0  7                     
G02  24436508.856        9267.476         209.702           0.133  
G03  22300425.524     -130626.128       -3168.269           0.156  
G04  23795227.355     -198203.770       -4878.759           0.138  
G05  22545524.803      -28708.816        -720.616           0.153  
G06  20652322.060     -124443.100       -3121.081           0.169  
G07  23560735.488     -160345.532       -4095.945           0.142  
G09  23037090.102     -155022.604       -4175.115           0.145  
> 2023 05 18 00 00 56.7688020  0  7                     
G02  24436502.444        9287.992         206.174           0.134  
G03  22300504.966     -130943.029       -3168.008           0.156  
G04  23795351.560     -198691.596       -4877.424           0.139  
G05  22545544.680      -28780.909        -721.162           0.153  
G06  20652402.127     -124755.164       -3120.211           0.169  
G07  23560838.036     -160755.081       -4096.405           0.142  
G09  23037196.339     -155440.330       -4175.029           0.147  
> 2023 05 18 00 00 56.8688020  0  7                     
G02  24436496.856        9308.566         204.835           0.133  
G03  22300585.150     -131259.928       -3169.503           0.156  
G04  23795476.987     -199179.458       -4879.033           0.139  
G05  22545563.959      -28852.964        -722.820           0.153  
G06  20652481.922     -125067.248       -3121.834           0.169  
G07  23560943.761     -161164.603       -4093.974           0.142  
G09  23037301.068     -155858.066       -4178.820           0.147  
> 2023 05 18 00 00 56.9688020  0  7                     
G02  24436488.411        9329.149         208.427           0.134  
G03  22300665.633     -131576.816       -3166.623           0.156  
G04  23795600.509     -199667.326       -4877.757           0.140  
G05  22545580.865      -28925.034        -718.780           0.153  
G06  20652562.375     -125379.302       -3117.795           0.169  
G07  23561049.068     -161573.909       -3950.392           0.142  
G09  23037407.356     -156275.826       -4176.580           0.146  
> 2023 05 18 00 00 57.0688020  0  7                     
G02  24436484.235        9349.679         202.812           0.135  
G03  22300747.077     -131893.732       -3170.976           0.156  
G04  23795724.343     -200155.189       -4881.120           0.139  
G05  22545599.259      -28997.113        -722.380           0.153  
G06  20652642.200     -125691.413       -3122.693           0.169  
G07  23561152.376     -161983.717       -4096.691           0.142  
G09  23037517.459     -156693.566       -4180.185           0.146  
> 2023 05 18 00 00 57.1688020  0  7                     
G02  24436480.530        9369.908         199.998           0.134  
G03  22300827.519     -132211.006       -3173.054           0.156  
G04  23795849.087     -200643.397       -4881.766           0.140  
G05  22545619.317      -29069.525        -724.841           0.153  
G06  20652719.681     -126003.828       -3125.750           0.170  
G07  23561256.717     -162393.644       -4102.169           0.142  
G09  23037623.686     -157111.619       -4183.571           0.146  
> 2023 05 18 00 00 57.2688020  0  7                     
G02  24436470.880        9390.056         201.672           0.134  
G03  22300904.037     -132528.323       -3172.992           0.157  
G04  23795973.522     -201131.647       -4881.358           0.138  
G05  22545635.270      -29141.988        -723.007           0.153  
G06  20652801.701     -126316.325       -3124.818           0.169  
G07  23561362.709     -162803.546       -4099.994           0.142  
G09  23037727.893     -157529.724       -4179.877           0.147  
> 2023 05 18 00 00 57.3688020  0  7                     
G02  24436469.059        9410.248         202.223           0.134  
G03  22300990.928     -132845.781       -3186.080           0.156  
G04  23796098.368     -201619.891       -4880.542           0.140  
G05  22545653.916      -29214.433        -723.052           0.152  
G06  20652880.270     -126628.784       -3124.617           0.169  
G07  23561461.956     -163212.187       -3904.023           0.141  
G09  23037834.927     -157947.572       -4167.852           0.146  
> 2023 05 18 00 00 57.4688020  0  7                     
G02  24436462.650        9430.630         202.001           0.134  
G03  22301071.267     -133162.713       -3171.213           0.156  
G04  23796222.862     -202107.937       -4881.092           0.138  
G05  22545672.924      -29286.711        -721.676           0.153  
G06  20652960.097     -126941.069       -3123.157           0.169  
G07  23561567.124     -163624.874       -4261.725           0.141  
G09  23037940.363     -158365.751       -4179.581           0.145  
> 2023 05 18 00 00 57.5688020  0  7                     
G02  24436456.746        9450.948         203.740           0.133  
G03  22301152.201     -133479.861       -3170.296           0.155  
G04  23796343.376     -202596.034       -4881.793           0.138  
G05  22545692.760      -29359.002        -719.946           0.152  
G06  20653038.699     -127253.392       -3123.467           0.168  
G07  23561672.443     -164033.051       -4095.256           0.141  
G09  23038049.129     -158783.736       -4179.295           0.145  
> 2023 05 18 00 00 57.6688020  0  7                     
G02  24436452.716        9471.329         205.215           0.132  
G03  22301230.284     -133796.949       -3170.163           0.156  
G04  23796470.519     -203084.024       -4880.106           0.138  
G05  22545709.577      -29431.236        -720.438           0.152  
G06  20653117.925     -127565.638       -3121.773           0.169  
G07  23561776.980     -164442.762       -4099.761           0.142  
G09  23038154.789     -159201.609       -4178.813           0.145  
> 2023 05 18 00 00 57.7688020  0  7                     
G02  24436448.646        9491.912         207.122           0.134  
G03  22301309.506     -134113.912       -3168.930           0.156  
G04  23796594.479     -203571.932       -4877.735           0.138  
G05  22545727.312      -29503.336        -719.993           0.152  
G06  20653196.552     -127877.763       -3121.442           0.169  
G07  23561880.312     -164852.332       -4091.717           0.140  
G09  23038264.467     -159619.346       -4177.108           0.145  
> 2023 05 18 00 00 57.8688020  0  7                     
G02  24436443.297        9512.611         210.141           0.133  
G03  22301387.283     -134430.670       -3165.932           0.156  
G04  23796721.452     -204059.611       -4873.712           0.138  
G05  22545743.141      -29575.263        -718.170           0.153  
G06  20653275.998     -128189.686       -3117.841           0.169  
G07  23561984.783     -165261.738       -4095.548           0.142  
G09  23038369.238     -160036.910       -4175.727           0.146  
> 2023 05 18 00 00 57.9688020  0  7                     
G02  24436433.833        9533.468         211.335           0.133  
G03  22301469.766     -134747.332       -3166.150           0.156  
G04  23796842.992     -204547.191       -4875.352           0.138  
G05  22545761.482      -29647.067        -716.896           0.153  
G06  20653354.378     -128501.519       -3117.744           0.169  
G07  23562093.285     -165670.999       -4090.724           0.141  
G09  23038473.048     -160454.395       -4173.801           0.146  
> 2023 05 18 00 00 58.0688020  0  7                     
G02  24436428.190        9554.303         205.941           0.133  
G03  22301552.341     -135064.017       -3168.821           0.155  
G04  23796967.399     -205034.758       -4874.450           0.139  
G05  22545779.419      -29718.884        -720.011           0.153  
G06  20653435.461     -128813.338       -3118.560           0.169  
G07  23562193.933     -166080.311       -4094.590           0.142  
G09  23038578.354     -160871.839       -4174.406           0.145  
> 2023 05 18 00 00 58.1688020  0  7                     
G02  24436423.173        9575.037         208.413           0.134  
G03  22301634.162     -135380.816       -3167.928           0.157  
G04  23797091.232     -205522.510       -4877.764           0.139  
G05  22545796.163      -29790.832        -718.925           0.153  
G06  20653513.825     -129125.317       -3118.103           0.169  
G07  23562297.888     -166489.739       -4092.518           0.142  
G09  23038684.692     -161289.439       -4175.189           0.146  
> 2023 05 18 00 00 58.2688020  0  7                     
G02  24436418.625        9595.752         206.754           0.134  
G03  22301713.209     -135697.577       -3166.121           0.157  
G04  23797216.346     -206010.172       -4877.638           0.140  
G05  22545817.230      -29862.745        -718.868           0.153  
G06  20653592.795     -129437.247       -3118.917           0.169  
G07  23562403.093     -166899.145       -4095.755           0.142  
G09  23038789.514     -161706.970       -4175.230           0.147  
> 2023 05 18 00 00 58.3688020  0  7                     
G02  24436409.872        9616.572         207.689           0.135  
G03  22301793.481     -136014.299       -3168.310           0.157  
G04  23797341.981     -206497.792       -4875.174           0.140  
G05  22545833.412      -29934.600        -720.566           0.153  
G06  20653674.056     -129749.119       -3119.086           0.170  
G07  23562507.642     -167308.464       -4094.517           0.143  
G09  23038900.071     -162124.439       -4174.454           0.147  
> 2023 05 18 00 00 58.4688020  0  7                     
G02  24436408.325        9637.425         208.972           0.134  
G03  22301875.841     -136330.980       -3167.422           0.157  
G04  23797465.678     -206985.400       -4875.341           0.138  
G05  22545853.886      -30006.408        -718.522           0.153  
G06  20653751.615     -130060.961       -3118.493           0.169  
G07  23562610.980     -167717.768       -4092.565           0.142  
G09  23039003.261     -162541.911       -4174.668           0.146  
> 2023 05 18 00 00 58.5688020  0  7                     
G02  24436403.641        9658.277         208.887           0.135  
G03  22301957.087     -136647.657       -3166.640           0.156  
G04  23797588.377     -207472.962       -4875.085           0.139  
G05  22545871.462      -30078.230        -718.560           0.153  
G06  20653833.207     -130372.797       -3118.399           0.169  
G07  23562712.075     -168127.054       -4093.195           0.142  
G09  23039106.206     -162959.356       -4174.473           0.146  
> 2023 05 18 00 00 58.6688020  0  7                     
G02  24436398.947        9678.917         207.764           0.133  
G03  22302038.550     -136964.514       -3167.332           0.157  
G04  23797712.733     -207960.735       -4876.437           0.140  
G05  22545887.268      -30150.231        -717.781           0.153  
G06  20653910.574     -130684.817       -3118.563           0.169  
G07  23562819.057     -168536.551       -4094.034           0.142  
G09  23039215.137     -163376.956       -4172.662           0.145  
> 2023 05 18 00 00 58.7688020  0  7                     
G02  24436392.468        9699.830         208.715           0.134  
G03  22302113.704     -137281.154       -3165.267           0.157  
G04  23797836.673     -208448.262       -4874.701           0.139  
G05  22545907.640      -30222.008        -717.502           0.153  
G06  20653991.531     -130996.618       -3117.423           0.170  
G07  23562918.340     -168945.811       -4093.588           0.142  
G09  23039325.760     -163794.385       -4173.210           0.146  
> 2023 05 18 00 00 58.8688020  0  7                     
G02  24436387.712        9720.751         207.682           0.134  
G03  22302194.734     -137597.762       -3164.719           0.156  
G04  23797956.235     -208935.734       -4872.839           0.139  
G05  22545926.127      -30293.720        -716.641           0.154  
G06  20654068.753     -131308.367       -3117.559           0.170  
G07  23563023.629     -169355.037       -4090.941           0.143  
G09  23039428.511     -164211.750       -4173.292           0.147  
> 2023 05 18 00 00 58.9688020  0  7                     
G02  24436382.629        9741.714         208.168           0.134  
G03  22302274.060     -137914.383       -3167.287           0.156  
G04  23798083.366     -209423.243       -4873.768           0.139  
G05  22545945.221      -30365.467        -718.370           0.153  
G06  20654149.133     -131620.139       -3117.883           0.169  
G07  23563130.022     -169764.245       -4092.465           0.142  
G09  23039536.026     -164629.104       -4173.059           0.147  
> 2023 05 18 00 00 59.0688020  0  7                     
G02  24436374.672        9762.544         207.975           0.133  
G03  22302354.564     -138231.122       -3169.361           0.156  
G04  23798206.368     -209910.855       -4874.679           0.140  
G05  22545961.064      -30437.322        -718.527           0.153  
G06  20654225.866     -131932.031       -3119.731           0.169  
G07  23563236.055     -170173.614       -4092.652           0.143  
G09  23039644.232     -165046.617       -4174.603           0.146  
> 2023 05 18 00 00 59.1688020  0  7                     
G02  24436372.722        9783.344         207.117           0.133  
G03  22302439.032     -138547.819       -3166.655           0.156  
G04  23798331.486     -210398.444       -4873.471           0.140  
G05  22545978.837      -30509.153        -718.493           0.153  
G06  20654306.107     -132243.906       -3120.091           0.169  
G07  23563340.666     -170582.917       -4093.835           0.141  
G09  23039746.815     -165464.065       -4175.764           0.146  
> 2023 05 18 00 00 59.2688020  0  7                     
G02  24436365.282        9804.230         207.060           0.133  
G03  22302519.492     -138864.511       -3166.552           0.156  
G04  23798455.229     -210886.034       -4876.111           0.139  
G05  22545998.371      -30580.944        -716.536           0.153  
G06  20654384.695     -132555.730       -3118.352           0.169  
G07  23563444.903     -170992.229       -4091.169           0.141  
G09  23039853.247     -165881.473       -4174.533           0.146  
> 2023 05 18 00 00 59.3688020  0  7                     
G02  24436359.749        9825.050         209.607           0.134  
G03  22302601.464     -139181.288       -3168.080           0.156  
G04  23798581.733     -211373.667       -4875.415           0.139  
G05  22546016.947      -30652.832        -720.309           0.153  
G06  20654464.775     -132867.662       -3119.510           0.169  
G07  23563551.198     -171401.618       -4094.414           0.142  
G09  23039958.418     -166298.974       -4175.806           0.146  
> 2023 05 18 00 00 59.4688020  0  7                     
G02  24436354.115        9845.758         208.715           0.134  
G03  22302677.863     -139498.164       -3168.524           0.156  
G04  23798706.144     -211861.403       -4876.857           0.140  
G05  22546036.077      -30724.813        -719.730           0.153  
G06  20654544.660     -133179.679       -3120.559           0.170  
G07  23563650.554     -171811.095       -4091.084           0.142  
G09  23040066.162     -166716.588       -4175.678           0.146  
> 2023 05 18 00 00 59.5688020  0  7                     
G02  24436347.700        9866.523         206.903           0.133  
G03  22302760.281     -139814.940       -3167.386           0.157  
G04  23798826.797     -212349.055       -4875.511           0.139  
G05  22546051.881      -30796.702        -718.484           0.153  
G06  20654622.562     -133491.612       -3118.981           0.170  
G07  23563755.840     -172220.465       -4095.087           0.142  
G09  23040169.140     -167134.099       -4177.063           0.146  
> 2023 05 18 00 00 59.6688020  0  7                     
G02  24436340.885        9887.465         212.102           0.134  
G03  22302840.165     -140131.642       -3165.205           0.157  
G04  23798950.659     -212836.594       -4872.166           0.139  
G05  22546070.072      -30868.505        -715.638           0.154  
G06  20654703.769     -133803.460       -3118.648           0.170  
G07  23563858.925     -172629.745       -4087.071           0.142  
G09  23040277.645     -167551.496       -4173.447           0.147  
> 2023 05 18 00 00 59.7688020  0  7                     
G02  24436338.971        9908.368         210.718           0.134  
G03  22302919.460     -140448.285       -3168.554           0.157  
G04  23799074.709     -213324.107       -4876.098           0.139  
G05  22546087.155      -30940.258        -717.092           0.152  
G06  20654782.708     -134115.234       -3117.991           0.169  
G07  23563961.587     -173039.019       -4096.259           0.142  
G09  23040384.940     -167968.888       -4176.053           0.146  
> 2023 05 18 00 00 59.8688020  0  7                     
G02  24436331.163        9928.223         190.815           0.132  
G03  22303002.282     -140766.030       -3183.198           0.155  
G04  23799200.276     -213812.720       -4893.755           0.138  
G05  22546105.768      -31013.090        -732.710           0.153  
G06  20654862.159     -134428.134       -3134.285           0.169  
G07  23564066.372     -173449.333       -4106.892           0.141  
G09  23040489.191     -168387.345       -4189.135           0.145  
> 2023 05 18 00 00 59.9688020  0  7                     
G02  24436324.958        9947.643         194.430           0.134  
G03  22303081.731     -141084.194       -3182.025           0.157  
G04  23799322.611     -214301.714       -4888.426           0.139  
G05  22546125.554      -31086.354        -731.301           0.152  
G06  20654940.505     -134741.420       -3131.089           0.169  
G07  23564170.190     -173860.125       -4107.626           0.142  
G09  23040597.859     -168806.226       -4187.870           0.146  
> 2023 05 18 00 01 00.0688020  0  7                     
G02  24436321.233        9967.169         197.595           0.134  
G03  22303163.636     -141402.250       -3177.125           0.157  
G04  23799449.060     -214790.626       -4886.458           0.139  
G05  22546144.060      -31159.505        -729.300           0.153  
G06  20655021.082     -135054.635       -3130.780           0.170  
G07  23564278.171     -174270.762       -4109.069           0.142  
G09  23040707.476     -169224.982       -4186.208           0.146  
> 2023 05 18 00 01 00.1688020  0  7                     
G02  24436314.070        9987.212         200.866           0.135  
G03  22303243.852     -141719.796       -3175.429           0.157  
G04  23799570.309     -215279.023       -4885.577           0.140  
G05  22546164.206      -31232.187        -726.456           0.153  
G06  20655099.115     -135367.316       -3127.005           0.170  
G07  23564381.012     -174680.906       -4100.571           0.142  
G09  23040808.626     -169643.254       -4183.670           0.146  
> 2023 05 18 00 01 00.2688020  0  7                     
G02  24436311.943       10007.373         198.770           0.135  
G03  22303327.642     -142037.277       -3177.071           0.157  
G04  23799697.768     -215767.342       -4886.272           0.140  
G05  22546180.483      -31304.719        -726.878           0.152  
G06  20655179.398     -135679.953       -3129.224           0.170  
G07  23564487.816     -175090.929       -4098.786           0.142  
G09  23040914.009     -170061.416       -4185.313           0.147  
> 2023 05 18 00 01 00.3688020  0  7                     
G02  24436302.662       10027.436         198.575           0.135  
G03  22303404.581     -142354.829       -3174.276           0.157  
G04  23799821.062     -216255.756       -4885.737           0.139  
G05  22546200.484      -31377.403        -728.525           0.154  
G06  20655259.008     -135992.626       -3127.971           0.170  
G07  23564589.577     -175501.095       -4097.886           0.142  
G09  23041021.534     -170479.652       -4182.236           0.147  
> 2023 05 18 00 01 00.4688020  0  7                     
G02  24436296.028       10047.518         198.577           0.134  
G03  22303488.020     -142672.375       -3177.329           0.157  
G04  23799944.554     -216744.093       -4883.844           0.139  
G05  22546216.890      -31450.008        -728.856           0.153  
G06  20655338.731     -136305.281       -3127.269           0.170  
G07  23564694.510     -175911.233       -4104.490           0.142  
G09  23041128.234     -170897.878       -4183.398           0.147  
> 2023 05 18 00 01 00.5688020  0  7                     
G02  24436293.140       10067.513         206.024           0.134  
G03  22303566.631     -142990.001       -3171.083           0.156  
G04  23800068.862     -217232.560       -4878.266           0.140  
G05  22546233.573      -31522.731        -722.075           0.153  
G06  20655418.553     -136618.063       -3122.510           0.170  
G07  23564797.534     -176321.426       -4096.390           0.142  
G09  23041235.647     -171316.230       -4179.580           0.147  
> 2023 05 18 00 01 00.6688020  0  7                     
G02  24436287.901       10087.902         200.667           0.134  
G03  22303648.413     -143307.252       -3178.510           0.156  
G04  23800192.996     -217720.611       -4884.454           0.140  
G05  22546252.488      -31595.488        -734.079           0.154  
G06  20655496.698     -136930.434       -3128.743           0.169  
G07  23564905.962     -176731.247       -4100.548           0.142  
G09  23041340.369     -171734.145       -4184.016           0.146  
> 2023 05 18 00 01 00.7688020  0  7                     
G02  24436283.768       10107.534         192.504           0.133  
G03  22303730.815     -143625.191       -3180.027           0.157  
G04  23800320.190     -218209.393       -4888.490           0.139  
G05  22546270.283      -31668.104        -732.478           0.153  
G06  20655579.599     -137243.526       -3132.220           0.170  
G07  23565008.963     -177141.807       -4106.663           0.142  
G09  23041446.257     -172152.798       -4187.738           0.146  
> 2023 05 18 00 01 00.8688020  0  7                     
G02  24436277.770       10127.455         200.528           0.134  
G03  22303810.399     -143942.963       -3177.647           0.156  
G04  23800442.676     -218698.000       -4882.499           0.139  
G05  22546292.017      -31740.924        -728.950           0.154  
G06  20655655.532     -137556.429       -3129.072           0.169  
G07  23565111.945     -177552.164       -4100.829           0.142  
G09  23041551.765     -172571.236       -4183.536           0.147  
> 2023 05 18 00 01 00.9688020  0  7                     
G02  24436268.968       10147.825         209.030           0.134  
G03  22303890.775     -144260.229       -3164.805           0.156  
G04  23800568.373     -219186.113       -4874.877           0.139  
G05  22546307.368      -31813.286        -718.135           0.154  
G06  20655737.185     -137868.835       -3118.716           0.169  
G07  23565216.588     -177962.023       -4094.126           0.142  
G09  23041660.441     -172989.091       -4179.159           0.146  
> 2023 05 18 00 01 01.0688020  0  7                     
G02  24436261.947       10168.913         214.122           0.133  
G03  22303968.622     -144576.777       -3162.714           0.156  
G04  23800688.346     -219673.468       -4870.939           0.139  
G05  22546327.756      -31884.914        -712.108           0.152  
G06  20655815.734     -138180.510       -3114.654           0.169  
G07  23565322.156     -178371.123       -4088.989           0.143  
G09  23041765.202     -173406.406       -4170.141           0.147  
> 2023 05 18 00 01 01.1688020  0  7                     
G02  24436259.077       10190.432         215.477           0.134  
G03  22304048.362     -144892.926       -3161.943           0.156  
G04  23800812.111     -220160.406       -4868.983           0.139  
G05  22546344.841      -31956.132        -712.588           0.153  
G06  20655896.706     -138491.772       -3110.990           0.170  
G07  23565421.541     -178779.830       -4086.959           0.143  
G09  23041871.808     -173823.220       -4168.326           0.146  
> 2023 05 18 00 01 01.2688020  0  7                     
G02  24436254.159       10211.894         212.701           0.133  
G03  22304130.096     -145209.109       -3162.289           0.157  
G04  23800937.939     -220647.394       -4870.289           0.140  
G05  22546362.463      -32027.358        -712.884           0.154  
G06  20655973.970     -138803.081       -3112.267           0.170  
G07  23565526.548     -179188.594       -4089.068           0.142  
G09  23041979.167     -174240.052       -4168.984           0.147  
> 2023 05 18 00 01 01.3688020  0  7                     
G02  24436248.991       10233.409         214.416           0.133  
G03  22304211.907     -145525.288       -3162.007           0.157  
G04  23801063.422     -221134.326       -4869.608           0.139  
G05  22546379.120      -32098.598        -714.142           0.153  
G06  20656053.766     -139114.358       -3112.320           0.170  
G07  23565629.949     -179597.318       -4090.761           0.143  
G09  23042084.950     -174656.865       -4169.115           0.146  
> 2023 05 18 00 01 01.4688020  0  7                     
G02  24436245.023       10254.542         204.455           0.134  
G03  22304290.533     -145841.799       -3170.838           0.155  
G04  23801187.839     -221621.656       -4879.239           0.139  
G05  22546398.718      -32170.198        -722.813           0.153  
G06  20656130.887     -139426.023       -3123.012           0.169  
G07  23565736.386     -180006.398       -4099.064           0.141  
G09  23042189.704     -175074.037       -4178.707           0.146  
> 2023 05 18 00 01 01.5688020  0  7                     
G02  24436240.193       10274.791         200.719           0.135  
G03  22304374.074     -146159.201       -3178.692           0.157  
G04  23801313.292     -222109.847       -4887.444           0.139  
G05  22546417.134      -32242.635        -731.031           0.152  
G06  20656210.197     -139738.534       -3128.409           0.169  
G07  23565838.230     -180416.381       -4100.735           0.142  
G09  23042295.937     -175492.085       -4184.890           0.147  
> 2023 05 18 00 01 01.6688020  0  7                     
G02  24436235.153       10294.634         197.464           0.133  
G03  22304452.725     -146477.031       -3179.478           0.156  
G04  23801434.623     -222598.471       -4887.935           0.139  
G05  22546434.702      -32315.532        -730.497           0.153  
G06  20656290.749     -140051.493       -3130.133           0.170  
G07  23565943.435     -180826.796       -4107.815           0.143  
G09  23042400.839     -175910.583       -4184.329           0.147  
> 2023 05 18 00 01 01.7688020  0  7                     
G02  24436226.171       10313.876         193.916           0.134  
G03  22304534.047     -146795.471       -3183.675           0.156  
G04  23801560.584     -223087.702       -4891.077           0.139  
G05  22546455.353      -32389.050        -736.711           0.154  
G06  20656369.453     -140365.075       -3136.723           0.170  
G07  23566050.565     -181237.778       -4108.154           0.141  
G09  23042504.848     -176329.687       -4189.480           0.146  
> 2023 05 18 00 01 01.8688020  0  7                     
G02  24436223.933       10333.359         200.695           0.134  
G03  22304615.857     -147113.672       -3179.019           0.157  
G04  23801684.057     -223576.669       -4882.788           0.138  
G05  22546471.818      -32462.290        -728.783           0.153  
G06  20656451.015     -140678.372       -3128.948           0.168  
G07  23566152.013     -181648.961       -3953.066           0.142  
G09  23042615.936     -176748.515       -4183.391           0.146  
> 2023 05 18 00 01 01.9688020  0  7                     
G02  24436217.585       10354.133         213.781           0.132  
G03  22304696.305     -147430.541       -3163.352           0.155  
G04  23801808.092     -224064.314       -4869.586           0.138  
G05  22546490.012      -32534.210        -713.142           0.152  
G06  20656529.718     -140990.378       -3115.226           0.169  
G07  23566257.626     -182057.952       -4087.734           0.140  
G09  23042723.346     -177166.037       -4172.572           0.146  
> 2023 05 18 00 01 02.0688020  0  7                     
G02  24436213.664       10376.006         219.259           0.133  
G03  22304777.856     -147746.374       -3157.633           0.156  
G04  23801931.272     -224550.962       -4865.668           0.139  
G05  22546508.789      -32605.106        -707.505           0.153  
G06  20656610.910     -141301.332       -3109.336           0.170  
G07  23566358.436     -182466.380       -4082.581           0.142  
G09  23042828.378     -177582.487       -4163.320           0.146  
> 2023 05 18 00 01 02.1688020  0  7                     
G02  24436209.321       10398.022         219.295           0.134  
G03  22304853.735     -148061.738       -3173.132           0.156  
G04  23802057.775     -225037.389       -4865.919           0.139  
G05  22546525.070      -32675.840        -706.447           0.153  
G06  20656687.452     -141612.137       -3108.191           0.169  
G07  23566464.809     -182875.484       -4186.812           0.143  
G09  23042935.849     -177998.802       -4161.983           0.147  
> 2023 05 18 00 01 02.2688020  0  7                     
G02  24436199.832       10419.955         220.075           0.133  
G03  22304937.928     -148377.821       -3159.909           0.156  
G04  23802180.471     -225523.913       -4865.510           0.139  
G05  22546545.268      -32746.658        -708.899           0.153  
G06  20656768.092     -141923.036       -3110.057           0.170  
G07  23566567.259     -183282.912       -4081.046           0.142  
G09  23043039.818     -178415.202       -4165.453           0.147  
> 2023 05 18 00 01 02.3688020  0  7                     
G02  24436194.248       10441.766         214.015           0.133  
G03  22305016.256     -148693.694       -3161.318           0.156  
G04  23802303.830     -226010.557       -4865.200           0.139  
G05  22546560.096      -32817.580        -710.288           0.153  
G06  20656845.633     -142234.018       -3109.934           0.170  
G07  23566668.430     -183691.324       -4087.240           0.142  
G09  23043149.615     -178831.692       -4165.926           0.147  
> 2023 05 18 00 01 02.4688020  0  7                     
G02  24436189.916       10463.512         217.510           0.133  
G03  22305100.132     -149009.707       -3160.859           0.156  
G04  23802426.075     -226497.347       -4868.748           0.139  
G05  22546579.643      -32888.678        -714.071           0.153  
G06  20656924.909     -142545.159       -3111.737           0.170  
G07  23566778.554     -184099.906       -4088.335           0.142  
G09  23043252.277     -179248.335       -4166.509           0.146  
> 2023 05 18 00 01 02.5688020  0  7                     
G02  24436184.369       10485.059         209.107           0.133  
G03  22305178.256     -149325.885       -3143.793           0.157  
G04  23802550.715     -226984.260       -4875.069           0.131  
G05  22546597.437      -32960.064        -712.778           0.148  
G06  20657002.758     -142856.420       -3116.659           0.163  
G07  23566877.456     -184507.596       -3881.670           0.139  
G09  23043358.726     -179665.165       -4155.992           0.147  
> 2023 05 18 00 01 02.6688020  0  7                     
G02  24436177.732       10504.010         184.397           0.129  
G03  22305259.384     -149644.626       -3191.746           0.149  
G04  23802674.552     -227473.745       -4897.179           0.131  
G05  22546616.269      -33033.647        -743.364           0.151  
G06  20657082.456     -143170.320       -3143.157           0.168  
G07  23566983.973     -184919.906       -4117.840           0.139  
G09  23043467.686     -180084.488       -4197.932           0.139  
> 2023 05 18 00 01 02.7688020  0  7                     
G02  24436175.146       10523.110         190.699           0.133  
G03  22305340.455     -149963.205       -3181.902           0.156  
G04  23802796.602     -227963.109       -4891.692           0.139  
G05  22546634.924      -33107.275        -733.815           0.153  
G06  20657161.759     -143484.015       -3135.051           0.169  
G07  23567089.632     -185331.068       -4105.605           0.140  
G09  23043571.666     -180503.682       -4189.807           0.146  
> 2023 05 18 00 01 02.8688020  0  7                     
G02  24436169.783       10542.740         198.025           0.134  
G03  22305423.063     -150281.342       -3176.291           0.157  
G04  23802923.311     -228451.942       -4882.947           0.139  
G05  22546652.719      -33180.422        -726.168           0.152  
G06  20657243.498     -143797.239       -3126.839           0.168  
G07  23567194.348     -185741.751       -4104.663           0.141  
G09  23043678.600     -180922.413       -4184.677           0.146  
> 2023 05 18 00 01 02.9688020  0  7                     
G02  24436166.455       10563.201         202.505           0.133  
G03  22305502.350     -150598.604       -3175.206           0.155  
G04  23803047.037     -228939.977       -4883.229           0.139  
G05  22546669.023      -33252.733        -724.474           0.154  
G06  20657324.254     -144109.630       -3127.165           0.169  
G07  23567299.261     -186151.528       -4099.175           0.141  
G09  23043786.169     -181341.007       -4234.042           0.145  
> 2023 05 18 00 01 03.0688020  0  7                     
G02  24436159.265       10583.670         206.276           0.134  
G03  22305578.093     -150915.886       -3171.406           0.156  
G04  23803174.369     -229427.997       -4877.710           0.139  
G05  22546686.476      -33325.040        -720.647           0.153  
G06  20657401.828     -144422.002       -3120.232           0.168  
G07  23567400.972     -186561.336       -4095.528           0.142  
G09  23043890.987     -181758.132       -4176.116           0.146  
> 2023 05 18 00 01 03.1688020  0  7                     
G02  24436153.833       10604.819         212.031           0.133  
G03  22305660.893     -151232.442       -3163.564           0.156  
G04  23803295.153     -229915.307       -4871.965           0.139  
G05  22546708.986      -33396.663        -716.059           0.153  
G06  20657483.090     -144733.693       -3115.451           0.170  
G07  23567509.516     -186970.427       -4089.375           0.140  
G09  23043995.992     -182175.313       -4169.752           0.146  
> 2023 05 18 00 01 03.2688020  0  7                     
G02  24436142.477       10626.212         214.285           0.134  
G03  22305737.684     -151548.799       -3163.549           0.156  
G04  23803419.636     -230402.388       -4869.118           0.139  
G05  22546724.911      -33468.047        -715.355           0.153  
G06  20657559.531     -145045.142       -3114.645           0.170  
G07  23567609.370     -187379.335       -4084.638           0.142  
G09  23044105.024     -182592.256       -4168.016           0.146  
> 2023 05 18 00 01 03.3688020  0  7                     
G02  24436135.591       10647.657         215.688           0.134  
G03  22305822.415     -151865.106       -3161.387           0.157  
G04  23803545.781     -230889.455       -4869.562           0.140  
G05  22546742.412      -33539.496        -766.458           0.153  
G06  20657641.617     -145356.551       -3111.133           0.169  
G07  23567715.453     -187788.434       -4082.660           0.142  
G09  23044210.595     -183009.140       -4165.365           0.146  
> 2023 05 18 00 01 03.4688020  0  7                     
G02  24436132.048       10669.460         219.324           0.134  
G03  22305904.007     -152181.087       -3160.907           0.156  
G04  23803667.125     -231376.158       -4867.909           0.140  
G05  22546761.520      -33610.369        -711.919           0.153  
G06  20657717.969     -145667.653       -3111.955           0.169  
G07  23567819.884     -188196.676       -4081.967           0.142  
G09  23044312.929     -183425.717       -4166.671           0.147  
> 2023 05 18 00 01 03.5688020  0  7                     
G02  24436126.638       10691.283         217.483           0.133  
G03  22305981.353     -152497.005       -3159.852           0.156  
G04  23803791.131     -231862.777       -4866.532           0.139  
G05  22546779.209      -33681.305        -711.563           0.154  
G06  20657798.990     -145978.665       -3110.109           0.169  
G07  23567921.877     -188605.169       -4088.800           0.142  
G09  23044424.813     -183842.203       -4165.733           0.146  
> 2023 05 18 00 01 03.6688020  0  7                     
G02  24436118.644       10712.446         203.869           0.133  
G03  22306063.830     -152813.616       -3171.652           0.155  
G04  23803915.995     -232350.078       -4874.751           0.139  
G05  22546796.140      -33752.926        -719.460           0.153  
G06  20657877.438     -146290.374       -3120.218           0.170  
G07  23568024.390     -189014.305       -4099.588           0.142  
G09  23044525.324     -184259.390       -4176.806           0.145  
> 2023 05 18 00 01 03.7688020  0  7                     
G02  24436115.159       10733.361         210.987           0.134  
G03  22306143.540     -153130.468       -3167.816           0.156  
G04  23804040.734     -232837.695       -4875.576           0.139  
G05  22546813.198      -33824.832        -719.577           0.153  
G06  20657957.044     -146602.335       -3118.269           0.169  
G07  23568128.473     -189423.674       -4091.935           0.142  
G09  23044634.812     -184676.832       -4174.007           0.146  
> 2023 05 18 00 01 03.8688020  0  7                     
G02  24436110.234       10754.315         211.367           0.134  
G03  22306226.308     -153447.496       -3156.174           0.157  
G04  23804164.086     -233325.196       -4874.309           0.139  
G05  22546832.575      -33896.623        -716.468           0.153  
G06  20658034.326     -146914.243       -3117.523           0.170  
G07  23568235.971     -189833.612       -4135.821           0.142  
G09  23044739.794     -185094.725       -4270.424           0.147  
> 2023 05 18 00 01 03.9688020  0  7                     
G02  24436108.792       10775.593         214.026           0.134  
G03  22306305.489     -153763.752       -3163.387           0.156  
G04  23804289.768     -233812.393       -4871.263           0.139  
G05  22546849.044      -33968.139        -715.811           0.153  
G06  20658114.724     -147225.820       -3114.709           0.170  
G07  23568338.410     -190242.008       -4087.889           0.142  
G09  23044847.679     -185511.248       -4169.277           0.146  
> 2023 05 18 00 01 04.0688020  0  7                     
G02  24436101.237       10796.971         213.508           0.134  
G03  22306389.104     -154080.176       -3164.610           0.157  
G04  23804413.872     -234299.518       -4872.498           0.139  
G05  22546868.609      -34039.542        -715.630           0.153  
G06  20658193.801     -147537.329       -3113.981           0.170  
G07  23568441.009     -190650.948       -4090.216           0.143  
G09  23044947.231     -185928.214       -4170.053           0.147  
> 2023 05 18 00 01 04.1688020  0  7                     
G02  24436095.425       10818.505         210.550           0.133  
G03  22306464.075     -154396.417       -3166.461           0.156  
G04  23804536.189     -234786.445       -4872.857           0.139  
G05  22546886.686      -34110.797        -714.042           0.154  
G06  20658271.637     -147848.675       -3115.331           0.169  
G07  23568549.310     -191059.733       -4089.930           0.143  
G09  23045055.576     -186345.033       -4170.757           0.146  
> 2023 05 18 00 01 04.2688020  0  7                     
G02  24436089.442       10839.662         208.575           0.133  
G03  22306544.918     -154713.001       -3167.560           0.157  
G04  23804658.247     -235273.736       -4873.546           0.140  
G05  22546905.209      -34182.402        -715.680           0.154  
G06  20658350.980     -148160.355       -3117.377           0.169  
G07  23568652.636     -191468.832       -4094.916           0.142  
G09  23045165.005     -186762.166       -4174.145           0.147  
> 2023 05 18 00 01 04.3688020  0  7                     
G02  24436084.311       10860.565         208.005           0.134  
G03  22306625.126     -155029.881       -3169.358           0.156  
G04  23804780.255     -235761.300       -4876.833           0.139  
G05  22546925.365      -34254.237        -717.452           0.153  
G06  20658427.803     -148472.339       -3120.258           0.169  
G07  23568755.971     -191878.226       -4095.859           0.142  
G09  23045268.616     -187179.602       -4177.504           0.146  
> 2023 05 18 00 01 04.4688020  0  7                     
G02  24436079.626       10881.354         209.432           0.134  
G03  22306705.842     -155346.888       -3167.032           0.157  
G04  23804907.496     -236249.000       -4874.818           0.139  
G05  22546942.137      -34326.251        -714.829           0.152  
G06  20658511.369     -148784.453       -3118.958           0.169  
G07  23568856.165     -192287.751       -4093.443           0.142  
G09  23045375.502     -187597.150       -4173.363           0.146  
> 2023 05 18 00 01 04.5688020  0  7                     
G02  24436073.946       10902.633         213.668           0.134  
G03  22306785.069     -155663.423       -3166.028           0.156  
G04  23805030.389     -236736.226       -4872.898           0.140  
G05  22546960.650      -34397.828        -716.365           0.152  
G06  20658590.398     -149096.078       -3116.458           0.169  
G07  23568963.670     -192696.824       -4093.156           0.142  
G09  23045484.865     -188014.225       -4170.458           0.147  
> 2023 05 18 00 01 04.6688020  0  7                     
G02  24436068.800       10923.433         210.830           0.134  
G03  22306870.398     -155980.431       -3168.367           0.156  
G04  23805155.080     -237223.927       -4877.840           0.139  
G05  22546977.952      -34469.811        -718.296           0.153  
G06  20658669.993     -149408.199       -3119.728           0.170  
G07  23569063.985     -193106.339       -4095.285           0.142  
G09  23045589.484     -188431.779       -4174.986           0.147  
> 2023 05 18 00 01 04.7688020  0  7                     
G02  24436062.229       10944.186         207.713           0.135  
G03  22306948.033     -156297.471       -3169.764           0.156  
G04  23805280.371     -237711.640       -4879.064           0.139  
G05  22546994.813      -34541.859        -720.043           0.151  
G06  20658747.396     -149720.339       -3123.424           0.169  
G07  23569167.876     -193515.879       -4096.993           0.142  
G09  23045694.179     -188849.348       -4176.413           0.146  
> 2023 05 18 00 01 04.8688020  0  7                     
G02  24436059.116       10964.021         203.084           0.133  
G03  22307027.308     -156615.468       -3177.346           0.156  
G04  23805404.969     -238200.307       -4884.975           0.138  
G05  22547013.962      -34614.819        -728.479           0.153  
G06  20658829.047     -150033.408       -3129.485           0.169  
G07  23569275.298     -193926.384       -4105.143           0.141  
G09  23045801.162     -189267.857       -4182.144           0.146  
> 2023 05 18 00 01 04.9688020  0  7                     
G02  24436049.493       10984.210         206.083           0.135  
G03  22307110.311     -156933.076       -3173.194           0.157  
G04  23805525.550     -238688.587       -4879.150           0.139  
G05  22547030.183      -34687.459        -724.527           0.153  
G06  20658905.914     -150346.113       -3124.076           0.169  
G07  23569378.860     -194336.491       -4099.375           0.142  
G09  23045907.252     -189686.012       -4176.316           0.147  
> 2023 05 18 00 01 05.0688020  0  7                     
G02  24436045.036       11005.026         208.577           0.134  
G03  22307190.816     -157250.086       -3169.220           0.156  
G04  23805648.473     -239176.250       -4874.874           0.139  
G05  22547051.140      -34759.435        -719.079           0.155  
G06  20658986.878     -150658.205       -3119.599           0.169  
G07  23569481.625     -194746.024       -4094.936           0.143  
G09  23046013.118     -190103.543       -4174.214           0.146  
> 2023 05 18 00 01 05.1688020  0  7                     
G02  24436040.636       11025.899         204.342           0.135  
G03  22307274.084     -157567.023       -3173.780           0.156  
G04  23805776.101     -239663.876       -4881.157           0.139  
G05  22547068.872      -34831.351        -720.964           0.152  
G06  20659063.297     -150970.230       -3123.112           0.169  
G07  23569589.533     -195155.441       -4099.490           0.142  
G09  23046121.973     -190521.007       -4178.801           0.147  
> 2023 05 18 00 01 05.2688020  0  7                     
G02  24436037.591       11046.277         201.302           0.134  
G03  22307350.569     -157884.479       -3177.044           0.156  
G04  23805901.799     -240151.970       -4882.718           0.139  
G05  22547084.205      -34903.791        -724.604           0.153  
G06  20659144.158     -151282.766       -3127.115           0.169  
G07  23569691.208     -195565.418       -4102.030           0.142  
G09  23046228.923     -190938.973       -4180.987           0.147  
> 2023 05 18 00 01 05.3688020  0  7                     
G02  24436027.807       11066.744         209.938           0.134  
G03  22307432.350     -158201.873       -3171.071           0.156  
G04  23806026.621     -240640.029       -4878.340           0.138  
G05  22547104.375      -34976.158        -719.743           0.153  
G06  20659222.963     -151595.238       -3120.889           0.169  
G07  23569796.601     -195975.713       -4049.284           0.142  
G09  23046332.358     -191357.238       -4260.884           0.146  
> 2023 05 18 00 01 05.4688020  0  7                     
G02  24436025.059       11087.764         212.533           0.134  
G03  22307512.441     -158518.644       -3167.065           0.156  
G04  23806148.952     -241127.456       -4873.141           0.139  
G05  22547120.447      -35048.074        -822.733           0.153  
G06  20659303.427     -151907.106       -3117.746           0.169  
G07  23569899.130     -196384.904       -4190.850           0.141  
G09  23046438.815     -191774.190       -4170.968           0.146  
> 2023 05 18 00 01 05.5688020  0  7                     
G02  24436019.729       11109.236         217.679           0.133  
G03  22307594.980     -158835.006       -3160.177           0.156  
G04  23806274.199     -241614.470       -4866.079           0.139  
G05  22547142.293      -35119.277        -712.713           0.154  
G06  20659382.921     -152218.562       -3111.949           0.169  
G07  23570005.182     -196793.466       -4087.034           0.141  
G09  23046547.303     -192191.051       -4165.661           0.146  
> 2023 05 18 00 01 05.6688020  0  7                     
G02  24436011.968       11131.113         215.259           0.133  
G03  22307675.422     -159150.954       -3158.644           0.156  
G04  23806397.124     -242101.041       -4864.609           0.139  
G05  22547156.879      -35190.177        -708.119           0.152  
G06  20659462.452     -152529.579       -3110.792           0.170  
G07  23570107.507     -197201.863       -4082.297           0.141  
G09  23046649.208     -192607.490       -4164.246           0.146  
> 2023 05 18 00 01 05.7688020  0  7                     
G02  24436005.532       11153.221         221.493           0.134  
G03  22307753.050     -159466.233       -3077.004           0.157  
G04  23806521.595     -242587.495       -4865.237           0.140  
G05  22547177.272      -35260.819        -668.388           0.153  
G06  20659543.769     -152840.432       -3109.277           0.169  
G07  23570210.796     -197610.213       -3984.066           0.143  
G09  23046756.089     -193023.752       -4163.011           0.146  
> 2023 05 18 00 01 05.8688020  0  7                     
G02  24435999.693       11175.163         220.025           0.133  
G03  22307835.717     -159782.512       -3081.232           0.156  
G04  23806644.801     -243074.042       -4866.300           0.140  
G05  22547193.327      -35332.354        -691.548           0.152  
G06  20659620.033     -153151.430       -3109.538           0.169  
G07  23570317.972     -198018.701       -4063.433           0.143  
G09  23046862.353     -193440.407       -4201.132           0.146  
> 2023 05 18 00 01 05.9688020  0  7                     
G02  24435991.714       11196.755         211.158           0.133  
G03  22307916.553     -160098.936       -3167.340           0.156  
G04  23806769.328     -243560.923       -4873.667           0.138  
G05  22547212.813      -35403.043        -714.394           0.152  
G06  20659699.525     -153462.763       -3116.604           0.169  
G07  23570419.509     -198427.357       -4092.633           0.142  
G09  23046969.712     -193856.954       -4172.375           0.145  
> 2023 05 18 00 01 06.0688020  0  7                     
G02  24435986.292       11217.570         207.981           0.133  
G03  22307997.116     -160415.968       -3172.883           0.156  
G04  23806890.768     -244048.590       -4878.291           0.138  
G05  22547229.405      -35475.048        -721.088           0.153  
G06  20659776.543     -153774.887       -3122.639           0.169  
G07  23570522.505     -198836.873       -4097.131           0.141  
G09  23047071.904     -194274.459       -4176.349           0.145  
> 2023 05 18 00 01 06.1688020  0  7                     
G02  24435984.260       11238.772         211.805           0.133  
G03  22308070.523     -160732.805       -3189.511           0.156  
G04  23807016.459     -244535.905       -4873.262           0.139  
G05  22547247.540      -35546.490        -612.429           0.151  
G06  20659858.322     -154086.656       -3117.749           0.169  
G07  23570626.366     -199246.752       -4192.285           0.142  
G09  23047180.335     -194691.618       -4172.703           0.147  
> 2023 05 18 00 01 06.2688020  0  7                     
G02  24435973.949       11259.613         205.120           0.134  
G03  22308154.716     -161049.646       -3173.179           0.155  
G04  23807140.442     -245023.572       -4880.339           0.139  
G05  22547267.723      -35618.633        -720.276           0.152  
G06  20659937.025     -154398.750       -3123.701           0.169  
G07  23570732.477     -199655.583       -4102.627           0.142  
G09  23047283.509     -195109.121       -4178.898           0.144  
> 2023 05 18 00 01 06.3688020  0  7                     
G02  24435969.842       11280.121         203.908           0.134  
G03  22308234.199     -161367.001       -3171.830           0.156  
G04  23807263.496     -245511.543       -4877.854           0.138  
G05  22547283.777      -35690.970        -722.570           0.152  
G06  20660016.706     -154711.167       -3121.466           0.168  
G07  23570839.927     -200065.391       -4099.948           0.142  
G09  23047392.258     -195526.935       -4175.205           0.147  
> 2023 05 18 00 01 06.4688020  0  7                     
G02  24435966.338       11300.092         194.572           0.133  
G03  22308317.108     -161684.902       -3184.046           0.154  
G04  23807387.645     -246000.082       -4886.884           0.138  
G05  22547303.811      -35763.822        -732.616           0.151  
G06  20660095.158     -155024.155       -3133.886           0.168  
G07  23570938.632     -200475.745       -4105.413           0.140  
G09  23047495.906     -195945.319       -4184.129           0.144  
> 2023 05 18 00 01 06.5688020  0  7                     
G02  24435960.645       11319.936         203.267           0.132  
G03  22308399.171     -162002.980       -3173.627           0.154  
G04  23807513.109     -246488.771       -4879.456           0.137  
G05  22547319.336      -35836.836        -723.266           0.151  
G06  20660174.457     -155337.303       -3123.968           0.168  
G07  23571047.932     -200886.334       -4101.111           0.140  
G09  23047606.130     -196363.846       -4174.795           0.143  
> 2023 05 18 00 01 06.6688020  0  7                     
G02  24435958.662       11340.353         197.021           0.133  
G03  22308484.171     -162320.446       -3178.864           0.155  
G04  23807636.895     -246976.825       -4886.786           0.138  
G05  22547341.902      -35909.246        -726.931           0.152  
G06  20660253.458     -155649.846       -3129.576           0.169  
G07  23571150.330     -201296.231       -4103.417           0.141  
G09  23047709.999     -196781.376       -4175.515           0.145  
> 2023 05 18 00 01 06.7688020  0  7                     
G02  24435952.628       11360.940         203.491           0.133  
G03  22308564.637     -162637.761       -3171.260           0.157  
G04  23807762.841     -247464.746       -4878.899           0.138  
G05  22547358.589      -35981.543        -720.524           0.154  
G06  20660333.080     -155962.224       -3121.756           0.169  
G07  23571251.919     -201706.063       -4097.383           0.142  
G09  23047816.923     -197199.575       -4176.581           0.146  
> 2023 05 18 00 01 06.8688020  0  7                     
G02  24435946.043       11381.736         206.705           0.135  
G03  22308643.862     -162954.873       -3170.787           0.157  
G04  23807884.337     -247952.463       -4878.113           0.139  
G05  22547375.826      -36053.618        -720.787           0.153  
G06  20660413.281     -156274.385       -3121.020           0.170  
G07  23571356.860     -202115.653       -4100.017           0.142  
G09  23047927.209     -197617.133       -4176.296           0.146  
> 2023 05 18 00 01 06.9688020  0  7                     
G02  24435938.619       11402.649         209.791           0.133  
G03  22308722.718     -163271.859       -3169.891           0.156  
G04  23808007.770     -248440.057       -4876.941           0.139  
G05  22547393.878      -36125.536        -720.834           0.154  
G06  20660492.291     -156586.459       -3120.888           0.169  
G07  23571464.535     -202525.062       -4095.024           0.141  
G09  23048028.471     -198034.573       -4174.346           0.146  
> 2023 05 18 00 01 07.0688020  0  7                     
G02  24435932.737       11423.580         206.992           0.134  
G03  22308800.932     -163588.810       -3169.565           0.156  
G04  23808133.161     -248927.600       -4874.828           0.138  
G05  22547410.741      -36197.384        -717.739           0.153  
G06  20660574.195     -156898.464       -3120.460           0.169  
G07  23571567.942     -202934.536       -4095.212           0.141  
G09  23048135.408     -198451.980       -4172.625           0.146  
> 2023 05 18 00 01 07.1688020  0  7                     
G02  24435926.034       11444.909         215.918           0.133  
G03  22308883.403     -163905.424       -3162.761           0.156  
G04  23808256.033     -249414.814       -4871.343           0.138  
G05  22547431.316      -36268.998        -715.480           0.152  
G06  20660651.150     -157210.158       -3115.789           0.169  
G07  23571671.152     -203343.576       -4087.476           0.142  
G09  23048241.355     -198869.061       -4170.366           0.146  
> 2023 05 18 00 01 07.2688020  0  7                     
G02  24435921.042       11465.994         209.247           0.134  
G03  22308962.953     -164222.275       -3169.432           0.156  
G04  23808381.594     -249902.241       -4876.033           0.138  
G05  22547448.336      -36340.762        -718.014           0.154  
G06  20660732.213     -157522.044       -3120.314           0.169  
G07  23571774.043     -203752.905       -4092.173           0.141  
G09  23048351.274     -199286.320       -4174.084           0.146  
> 2023 05 18 00 01 07.3688020  0  7                     
G02  24435915.912       11487.074         212.822           0.133  
G03  22309046.748     -164539.125       -3166.687           0.156  
G04  23808503.190     -250389.664       -4872.462           0.139  
G05  22547465.789      -36412.539        -716.109           0.152  
G06  20660807.718     -157833.979       -3118.212           0.169  
G07  23571876.896     -204162.241       -4093.647           0.142  
G09  23048453.697     -199703.620       -4171.542           0.146  
> 2023 05 18 00 01 07.4688020  0  7                     
G02  24435912.224       11508.542         215.500           0.134  
G03  22309121.930     -164855.586       -3166.238           0.156  
G04  23808627.931     -250876.732       -4868.225           0.139  
G05  22547486.324      -36483.215        -670.206           0.153  
G06  20660888.746     -158145.507       -3115.895           0.169  
G07  23571984.055     -204571.402       -4162.162           0.141  
G09  23048565.383     -200120.521       -4169.465           0.146  
> 2023 05 18 00 01 07.5688020  0  7                     
G02  24435906.699       11529.963         213.252           0.133  
G03  22309203.086     -165172.081       -3166.867           0.156  
G04  23808752.588     -251363.773       -4871.133           0.140  
G05  22547504.377      -36555.353        -716.365           0.153  
G06  20660966.436     -158457.032       -3116.017           0.169  
G07  23572085.400     -204980.140       -4091.241           0.142  
G09  23048669.664     -200537.445       -4171.356           0.146  
> 2023 05 18 00 01 07.6688020  0  7                     
G02  24435899.247       11551.050         207.396           0.133  
G03  22309285.475     -165488.933       -3171.187           0.156  
G04  23808877.536     -251851.236       -4880.238           0.138  
G05  22547524.871      -36627.131        -722.342           0.152  
G06  20661047.127     -158768.970       -3123.750           0.169  
G07  23572187.978     -205389.434       -4095.915           0.141  
G09  23048773.019     -200954.727       -4176.567           0.147  
> 2023 05 18 00 01 07.7688020  0  7                     
G02  24435894.901       11571.821         209.196           0.133  
G03  22309365.799     -165806.115       -3169.494           0.156  
G04  23809001.890     -252338.967       -4876.252           0.138  
G05  22547537.227      -36699.242        -720.611           0.152  
G06  20661125.888     -159081.197       -3121.521           0.169  
G07  23572297.082     -205799.103       -4094.292           0.141  
G09  23048877.565     -201372.323       -4172.933           0.146  
> 2023 05 18 00 01 07.8688020  0  7                     
G02  24435891.577       11593.140         212.959           0.134  
G03  22309448.657     -166122.730       -3167.480           0.155  
G04  23809124.965     -252826.128       -4869.451           0.138  
G05  22547555.612      -36770.789        -716.504           0.153  
G06  20661204.364     -159392.886       -3116.648           0.168  
G07  23572399.151     -206208.175       -4091.302           0.140  
G09  23048982.914     -201789.348       -4168.599           0.146  
> 2023 05 18 00 01 07.9688020  0  7                     
G02  24435884.340       11614.423         213.435           0.133  
G03  22309530.829     -166439.404       -3167.613           0.156  
G04  23809248.674     -253313.369       -4869.240           0.138  
G05  22547575.417      -36842.384        -714.395           0.152  
G06  20661286.650     -159704.618       -3116.170           0.169  
G07  23572502.139     -206617.292       -4092.672           0.141  
G09  23049086.593     -202206.443       -4170.158           0.146  
> 2023 05 18 00 01 08.0688020  0  7                     
G02  24435876.143       11636.031         216.373           0.133  
G03  22309607.431     -166755.732       -3164.725           0.155  
G04  23809369.472     -253800.323       -4872.153           0.139  
G05  22547593.318      -36913.663        -714.343           0.154  
G06  20661364.001     -160016.020       -3116.613           0.169  
G07  23572605.223     -207026.078       -4087.486           0.142  
G09  23049199.264     -202623.209       -4168.043           0.145  
> 2023 05 18 00 01 08.1688020  0  7                     
G02  24435874.227       11657.169         212.406           0.133  
G03  22309689.468     -167072.538       -3164.674           0.155  
G04  23809495.257     -254287.669       -4872.943           0.139  
G05  22547610.330      -36985.415        -718.489           0.153  
G06  20661445.847     -160327.876       -3117.861           0.170  
G07  23572709.456     -207434.638       -4105.981           0.141  
G09  23049304.540     -203040.428       -4172.458           0.146  
> 2023 05 18 00 01 08.2688020  0  7                     
G02  24435865.887       11678.318         205.604           0.133  
G03  22309769.441     -167389.348       -3169.210           0.156  
G04  23809621.276     -254775.037       -4873.438           0.139  
G05  22547628.864      -37057.131        -719.433           0.154  
G06  20661522.589     -160639.743       -3119.571           0.169  
G07  23572816.706     -207844.606       -4093.306           0.142  
G09  23049406.360     -203457.618       -4172.499           0.146  
> 2023 05 18 00 01 08.3688020  0  7                     
G02  24435861.775       11698.731         197.994           0.134  
G03  22309847.442     -167706.933       -3181.776           0.156  
G04  23809742.492     -255263.155       -4883.872           0.138  
G05  22547647.396      -37129.582        -728.743           0.151  
G06  20661602.787     -160952.350       -3130.489           0.169  
G07  23572922.075     -208254.659       -4107.518           0.142  
G09  23049515.153     -203875.603       -4183.290           0.146  
> 2023 05 18 00 01 08.4688020  0  7                     
G02  24435857.172       11718.789         203.966           0.134  
G03  22309926.528     -168024.850       -3177.306           0.157  
G04  23809870.036     -255751.615       -4881.846           0.139  
G05  22547665.382      -37202.427        -726.541           0.153  
G06  20661681.875     -161265.339       -3127.965           0.169  
G07  23573018.761     -208664.969       -4099.807           0.143  
G09  23049625.650     -204293.917       -4178.161           0.147  
> 2023 05 18 00 01 08.5688020  0  7                     
G02  24435851.337       11739.739         213.515           0.134  
G03  22310008.647     -168341.854       -3165.486           0.155  
G04  23809994.199     -256239.182       -4871.633           0.138  
G05  22547685.954      -37274.346        -715.794           0.152  
G06  20661760.981     -161577.408       -3117.950           0.170  
G07  23573128.140     -209074.420       -4089.962           0.141  
G09  23049727.009     -204711.335       -4172.101           0.147  
> 2023 05 18 00 01 08.6688020  0  7                     
G02  24435842.440       11761.165         214.671           0.135  
G03  22310091.385     -168658.423       -3163.309           0.158  
G04  23810117.848     -256726.308       -4868.336           0.139  
G05  22547701.569      -37345.793        -710.640           0.153  
G06  20661836.929     -161888.990       -3112.957           0.170  
G07  23573231.090     -209483.456       -4088.678           0.143  
G09  23049833.863     -205128.258       -4164.685           0.146  
> 2023 05 18 00 01 08.7688020  0  7                     
G02  24435840.124       11782.901         213.698           0.135  
G03  22310171.502     -168974.681       -3165.815           0.156  
G04  23810241.489     -257213.109       -4869.103           0.139  
G05  22547719.356      -37416.971        -711.891           0.153  
G06  20661919.217     -162200.299       -3114.784           0.169  
G07  23573333.268     -209892.184       -4090.056           0.141  
G09  23049942.071     -205544.914       -4167.494           0.146  
> 2023 05 18 00 01 08.8688020  0  7                     
G02  24435828.384       11804.288         211.028           0.133  
G03  22310252.448     -169291.280       -3168.165           0.157  
G04  23810364.731     -257700.233       -4872.982           0.138  
G05  22547737.085      -37488.462        -717.072           0.153  
G06  20661997.934     -162511.953       -3119.691           0.170  
G07  23573438.997     -210301.224       -4089.013           0.142  
G09  23050045.130     -205961.938       -4171.256           0.146  
> 2023 05 18 00 01 08.9688020  0  7                     
G02  24435825.390       11825.639         214.801           0.135  
G03  22310332.733     -169607.934       -3165.349           0.157  
G04  23810485.414     -258187.407       -4869.145           0.140  
G05  22547755.509      -37560.032        -715.563           0.155  
G06  20662076.963     -162823.649       -3115.607           0.169  
G07  23573542.186     -210710.342       -4087.300           0.141  
G09  23050150.223     -206378.980       -4171.106           0.146  
> 2023 05 18 00 01 09.0688020  0  7                     
G02  24435821.359       11847.294         214.113           0.134  
G03  22310413.624     -169924.270       -3162.381           0.157  
G04  23810611.631     -258674.255       -4868.410           0.139  
G05  22547775.592      -37631.248        -711.004           0.153  
G06  20662155.668     -163135.038       -3112.631           0.170  
G07  23573647.693     -211119.100       -4090.084           0.142  
G09  23050257.120     -206795.674       -4165.400           0.147  
> 2023 05 18 00 01 09.1688020  0  7                     
G02  24435815.141       11869.042         217.632           0.135  
G03  22310491.292     -170240.545       -3162.301           0.157  
G04  23810734.770     -259161.051       -4867.955           0.139  
G05  22547791.247      -37702.434        -710.713           0.152  
G06  20662236.214     -163446.342       -3112.550           0.170  
G07  23573749.866     -211527.850       -4083.025           0.143  
G09  23050370.532     -207212.322       -4166.608           0.147  
> 2023 05 18 00 01 09.2688020  0  7                     
G02  24435810.041       11890.824         218.052           0.134  
G03  22310573.061     -170556.761       -3164.442           0.157  
G04  23810859.948     -259647.789       -4868.289           0.140  
G05  22547811.850      -37773.550        -713.272           0.154  
G06  20662317.172     -163757.622       -3115.207           0.170  
G07  23573855.445     -211936.470       -4083.868           0.141  
G09  23050470.151     -207628.909       -4168.011           0.147  
> 2023 05 18 00 01 09.3688020  0  7                     
G02  24435806.221       11912.438         218.717           0.133  
G03  22310654.871     -170873.174       -3162.330           0.157  
G04  23810981.217     -260134.760       -4869.087           0.140  
G05  22547826.185      -37844.872        -712.788           0.153  
G06  20662392.029     -164069.070       -3114.593           0.170  
G07  23573961.650     -212345.315       -4087.383           0.143  
G09  23050579.353     -208045.653       -4163.667           0.147  
> 2023 05 18 00 01 09.4688020  0  7                     
G02  24435797.927       11934.057         219.839           0.134  
G03  22310733.735     -171189.585       -3164.661           0.156  
G04  23811106.802     -260621.691       -4869.520           0.140  
G05  22547841.528      -37916.174        -715.687           0.153  
G06  20662475.127     -164380.502       -3113.337           0.169  
G07  23574061.682     -212754.149       -4090.990           0.141  
G09  23050683.006     -208462.449       -4168.108           0.146  
> 2023 05 18 00 01 09.5688020  0  7                     
G02  24435794.312       11955.703         217.852           0.135  
G03  22310813.199     -171505.943       -3161.784           0.156  
G04  23811232.398     -261108.566       -4868.395           0.140  
G05  22547862.798      -37987.418        -711.877           0.154  
G06  20662551.625     -164691.905       -3113.210           0.169  
G07  23574167.769     -213162.982       -4088.125           0.142  
G09  23050789.635     -208879.149       -4166.128           0.146  
> 2023 05 18 00 01 09.6688020  0  7                     
G02  24435785.673       11977.461         218.237           0.134  
G03  22310891.803     -171822.211       -3163.067           0.157  
G04  23811355.576     -261595.337       -4867.198           0.139  
G05  22547881.314      -38058.576        -711.409           0.153  
G06  20662633.080     -165003.218       -3111.796           0.170  
G07  23574271.956     -213571.685       -4089.070           0.142  
G09  23050892.449     -209295.815       -4162.746           0.146  
> 2023 05 18 00 01 09.7688020  0  7                     
G02  24435783.171       11999.244         216.218           0.135  
G03  22310973.128     -172138.460       -3162.813           0.157  
G04  23811478.471     -262082.085       -4867.021           0.140  
G05  22547902.378      -38129.668        -711.103           0.153  
G06  20662709.199     -165314.528       -3112.926           0.170  
G07  23574374.531     -213980.341       -4089.774           0.142  
G09  23051001.055     -209712.406       -4164.144           0.147  
> 2023 05 18 00 01 09.8688020  0  7                     
G02  24435780.386       12020.952         220.251           0.134  
G03  22311056.626     -172454.786       -3163.085           0.155  
G04  23811604.431     -262568.910       -4867.437           0.139  
G05  22547917.438      -38200.912        -713.620           0.153  
G06  20662789.935     -165625.885       -3115.748           0.170  
G07  23574478.423     -214389.135       -4088.963           0.143  
G09  23051108.753     -210129.080       -4164.259           0.147  
> 2023 05 18 00 01 09.9688020  0  7                     
G02  24435770.243       12042.623         214.648           0.133  
G03  22311136.674     -172771.131       -3161.734           0.156  
G04  23811727.087     -263055.736       -4865.262           0.139  
G05  22547934.956      -38272.114        -711.358           0.153  
G06  20662867.424     -165937.254       -3114.060           0.169  
G07  23574584.786     -214797.859       -4086.456           0.141  
G09  23051211.945     -210545.795       -4165.136           0.146  
> 2023 05 18 00 01 10.0688020  0  7                     
G02  24435764.601       12064.348         217.112           0.134  
G03  22311214.316     -173087.472       -3164.664           0.156  
G04  23811849.721     -263542.574       -4867.935           0.139  
G05  22547950.738      -38343.369        -715.235           0.152  
G06  20662949.687     -166248.635       -3114.818           0.169  
G07  23574688.269     -215206.616       -4088.351           0.142  
G09  23051318.568     -210962.443       -4165.134           0.146  
> 2023 05 18 00 01 10.1688020  0  7                     
G02  24435760.850       12086.014         216.462           0.135  
G03  22311295.750     -173403.873       -3164.899           0.156  
G04  23811970.909     -264029.426       -4867.204           0.139  
G05  22547969.268      -38414.564        -710.508           0.152  
G06  20663026.587     -166560.038       -3114.196           0.169  
G07  23574791.895     -215615.415       -4090.062           0.142  
G09  23051423.168     -211379.175       -4165.797           0.147  
> 2023 05 18 00 01 10.2688020  0  7                     
G02  24435753.517       12107.548         214.453           0.134  
G03  22311380.440     -173720.393       -3165.183           0.156  
G04  23812096.114     -264516.461       -4872.192           0.139  
G05  22547987.575      -38485.969        -714.262           0.152  
G06  20663105.052     -166871.602       -3118.450           0.169  
G07  23574891.961     -216023.926       -4108.283           0.143  
G09  23051525.895     -211796.053       -4170.079           0.145  
> 2023 05 18 00 01 10.3688020  0  7                     
G02  24435748.894       12128.834         211.971           0.134  
G03  22311458.842     -174037.148       -3168.235           0.157  
G04  23812222.370     -265003.684       -4874.383           0.138  
G05  22548005.087      -38557.612        -716.785           0.153  
G06  20663186.142     -167183.387       -3120.408           0.170  
G07  23574998.442     -216433.522       -4093.069           0.141  
G09  23051637.632     -212213.101       -4172.132           0.146  
> 2023 05 18 00 01 10.4688020  0  7                     
G02  24435741.183       12149.714         213.425           0.133  
G03  22311538.896     -174354.356       -3170.579           0.156  
G04  23812349.251     -265491.368       -4872.938           0.138  
G05  22548024.909      -38629.715        -719.206           0.151  
G06  20663265.008     -167495.627       -3120.567           0.169  
G07  23575099.830     -216843.152       -4094.729           0.142  
G09  23051742.187     -212630.647       -4172.663           0.147  
> 2023 05 18 00 01 10.5688020  0  7                     
G02  24435736.571       12170.770         210.945           0.134  
G03  22311617.844     -174671.336       -3169.150           0.156  
G04  23812473.690     -265978.814       -4875.350           0.139  
G05  22548043.173      -38701.519        -716.225           0.151  
G06  20663345.623     -167807.643       -3120.814           0.169  
G07  23575203.244     -217252.548       -4095.366           0.142  
G09  23051848.890     -213047.937       -4171.998           0.146  
> 2023 05 18 00 01 10.6688020  0  7                     
G02  24435731.263       12191.870         210.954           0.133  
G03  22311699.164     -174988.317       -3168.840           0.156  
G04  23812594.066     -266466.285       -4876.454           0.138  
G05  22548062.426      -38773.355        -715.464           0.153  
G06  20663423.871     -168119.654       -3120.641           0.169  
G07  23575311.068     -217661.962       -4095.544           0.142  
G09  23051952.965     -213465.248       -4171.223           0.146  
> 2023 05 18 00 01 10.7688020  0  7                     
G02  24435728.035       12213.048         210.206           0.135  
G03  22311777.703     -175305.233       -3168.167           0.156  
G04  23812719.998     -266953.637       -4874.914           0.139  
G05  22548077.675      -38845.170        -720.057           0.154  
G06  20663504.968     -168431.579       -3118.629           0.169  
G07  23575417.779     -218071.254       -4093.364           0.142  
G09  23052058.572     -213882.473       -4173.398           0.145  
> 2023 05 18 00 01 10.8688020  0  7                     
G02  24435720.064       12234.307         216.346           0.134  
G03  22311859.388     -175622.059       -3165.917           0.155  
G04  23812838.542     -267440.934       -4872.113           0.139  
G05  22548097.841      -38916.830        -714.194           0.152  
G06  20663582.878     -168743.440       -3117.372           0.169  
G07  23575520.589     -218480.490       -4090.462           0.142  
G09  23052168.540     -214299.566       -4166.184           0.145  
> 2023 05 18 00 01 10.9688020  0  7                     
G02  24435712.838       12255.768         214.573           0.134  
G03  22311942.479     -175938.664       -3164.323           0.156  
G04  23812963.168     -267927.992       -4869.611           0.139  
G05  22548117.468      -38988.321        -713.302           0.153  
G06  20663661.479     -169055.081       -3113.905           0.169  
G07  23575625.482     -218889.506       -4089.360           0.142  
G09  23052273.052     -214716.537       -4169.470           0.146  
> 2023 05 18 00 01 11.0688020  0  7                     
G02  24435707.322       12277.267         212.462           0.134  
G03  22312020.876     -176255.237       -3165.533           0.155  
G04  23813089.914     -268415.025       -4869.703           0.139  
G05  22548131.505      -39059.743        -711.913           0.152  
G06  20663737.975     -169366.691       -3115.600           0.169  
G07  23575730.253     -219298.481       -4087.479           0.141  
G09  23052379.578     -215133.384       -4167.948           0.145  
> 2023 05 18 00 01 11.1688020  0  7                     
G02  24435699.007       12298.859         216.627           0.133  
G03  22312102.655     -176571.749       -3163.815           0.156  
G04  23813215.010     -268901.984       -4869.443           0.138  
G05  22548151.007      -39131.086        -711.816           0.152  
G06  20663819.652     -169678.230       -3115.892           0.169  
G07  23575833.942     -219707.417       -4089.030           0.142  
G09  23052486.873     -215550.223       -4165.369           0.146  
> 2023 05 18 00 01 11.2688020  0  7                     
G02  24435693.577       12320.522         220.684           0.134  
G03  22312178.903     -176888.211       -3161.675           0.156  
G04  23813338.315     -269388.882       -4867.977           0.139  
G05  22548169.083      -39202.424        -711.569           0.152  
G06  20663899.479     -169989.698       -3114.326           0.169  
G07  23575937.561     -220116.283       -4089.153           0.142  
G09  23052589.614     -215967.001       -4169.062           0.146  
> 2023 05 18 00 01 11.3688020  0  7                     
G02  24435687.806       12342.143         221.554           0.134  
G03  22312263.973     -177204.728       -3163.872           0.156  
G04  23813460.276     -269875.830       -4869.925           0.139  
G05  22548187.837      -39273.772        -717.026           0.153  
G06  20663976.660     -170301.214       -3112.578           0.169  
G07  23576039.335     -220524.553       -4087.567           0.142  
G09  23052696.033     -216383.790       -4172.207           0.146  
> 2023 05 18 00 01 11.4688020  0  7                     
G02  24435682.467       12363.784         217.334           0.133  
G03  22312342.313     -177521.214       -3164.204           0.157  
G04  23813585.484     -270362.725       -4869.985           0.138  
G05  22548204.110      -39345.056        -715.597           0.153  
G06  20664057.139     -170612.709       -3114.793           0.169  
G07  23576142.045     -220934.027       -4090.729           0.142  
G09  23052804.480     -216800.535       -4170.514           0.145  
> 2023 05 18 00 01 11.5688020  0  7                     
G02  24435679.363       12385.477         217.896           0.135  
G03  22312428.367     -177837.628       -3163.107           0.156  
G04  23813709.765     -270849.579       -4867.281           0.139  
G05  22548222.070      -39416.290        -710.847           0.153  
G06  20664134.999     -170924.133       -3112.956           0.170  
G07  23576244.085     -221342.843       -4087.935           0.142  
G09  23052901.573     -217217.245       -4169.538           0.144  
> 2023 05 18 00 01 11.6688020  0  7                     
G02  24435673.200       12407.132         216.650           0.134  
G03  22312507.047     -178154.046       -3163.829           0.158  
G04  23813832.677     -271336.443       -4869.094           0.138  
G05  22548242.551      -39487.565        -712.484           0.152  
G06  20664217.418     -171235.575       -3114.588           0.169  
G07  23576351.418     -221751.637       -4085.591           0.142  
G09  23053010.823     -217633.937       -4168.326           0.148  
> 2023 05 18 00 01 11.7688020  0  7                     
G02  24435669.645       12428.837         217.238           0.134  
G03  22312582.997     -178470.492       -3165.243           0.157  
G04  23813956.623     -271823.304       -4867.542           0.139  
G05  22548259.340      -39558.832        -711.113           0.151  
G06  20664294.260     -171547.032       -3115.440           0.169  
G07  23576457.929     -222160.495       -4087.454           0.142  
G09  23053122.535     -218050.623       -4164.722           0.146  
> 2023 05 18 00 01 11.8688020  0  7                     
G02  24435660.516       12450.454         215.325           0.133  
G03  22312663.779     -178787.014       -3165.193           0.155  
G04  23814081.640     -272310.256       -4869.702           0.139  
G05  22548278.123      -39630.209        -713.311           0.154  
G06  20664377.167     -171858.584       -3116.994           0.169  
G07  23576556.945     -222569.407       -4091.077           0.142  
G09  23053228.738     -218467.451       -4168.014           0.145  
> 2023 05 18 00 01 11.9688020  0  7                     
G02  24435659.064       12471.938         217.294           0.133  
G03  22312746.849     -179103.680       -3168.164           0.155  
G04  23814204.191     -272797.332       -4872.736           0.138  
G05  22548293.099      -39701.685        -713.654           0.152  
G06  20664452.218     -172170.241       -3117.561           0.169  
G07  23576663.845     -222978.437       -4090.364           0.141  
G09  23053335.274     -218884.367       -4167.602           0.144  
> 2023 05 18 00 01 12.0688020  0  7                     
G02  24435649.874       12493.413         217.177           0.133  
G03  22312829.203     -179420.342       -3168.090           0.156  
G04  23814329.413     -273284.394       -4872.602           0.139  
G05  22548313.455      -39773.220        -716.672           0.153  
G06  20664532.450     -172481.917       -3116.754           0.169  
G07  23576769.396     -223387.487       -4088.336           0.141  
G09  23053438.921     -219301.287       -4168.409           0.145  
> 2023 05 18 00 01 12.1688020  0  7                     
G02  24435646.885       12514.811         212.971           0.134  
G03  22312909.151     -179737.071       -3168.980           0.157  
G04  23814452.117     -273771.539       -4872.464           0.139  
G05  22548331.631      -39844.744        -714.161           0.152  
G06  20664608.812     -172793.661       -3118.903           0.169  
G07  23576872.205     -223796.595       -4090.665           0.142  
G09  23053541.531     -219718.292       -4168.663           0.146  
> 2023 05 18 00 01 12.2688020  0  7                     
G02  24435641.584       12536.271         209.991           0.133  
G03  22312993.030     -180053.748       -3167.380           0.156  
G04  23814571.120     -274258.642       -4870.096           0.139  
G05  22548349.135      -39916.242        -714.921           0.151  
G06  20664689.852     -173105.335       -3116.788           0.169  
G07  23576974.756     -224205.675       -4090.304           0.141  
G09  23053643.406     -220135.215       -4167.280           0.146  
> 2023 05 18 00 01 12.3688020  0  7                     
G02  24435630.773       12557.755         215.424           0.132  
G03  22313067.868     -180370.452       -3168.279           0.156  
G04  23814698.571     -274745.754       -4874.190           0.137  
G05  22548368.558      -39987.761        -715.445           0.152  
G06  20664768.197     -173417.031       -3116.941           0.169  
G07  23577078.430     -224614.747       -4091.247           0.142  
G09  23053758.393     -220552.187       -4171.242           0.146  
> 2023 05 18 00 01 12.4688020  0  7                     
G02  24435628.667       12579.126         214.198           0.133  
G03  22313145.687     -180687.175       -3168.221           0.155  
G04  23814825.244     -275232.864       -4872.036           0.138  
G05  22548384.572      -40059.359        -716.273           0.151  
G06  20664849.404     -173728.787       -3118.235           0.168  
G07  23577184.437     -225023.853       -4089.538           0.140  
G09  23053867.380     -220969.175       -4170.362           0.146  
> 2023 05 18 00 01 12.5688020  0  7                     
G02  24435622.071       12600.508         211.099           0.132  
G03  22313227.578     -181003.707       -3096.524           0.155  
G04  23814950.162     -275720.095       -4870.931           0.137  
G05  22548403.800      -40130.970        -717.064           0.152  
G06  20664928.290     -174040.586       -3117.557           0.167  
G07  23577287.266     -225433.042       -4090.884           0.140  
G09  23053965.523     -221386.138       -4124.698           0.144  
> 2023 05 18 00 01 12.6688020  0  7                     
G02  24435617.053       12621.737         210.731           0.132  
G03  22313312.149     -181320.907       -3171.293           0.155  
G04  23815071.234     -276207.410       -4873.850           0.137  
G05  22548419.560      -40202.716        -717.208           0.151  
G06  20665005.586     -174352.528       -3120.608           0.167  
G07  23577391.583     -225842.309       -4089.644           0.139  
G09  23054075.952     -221803.367       -4172.146           0.144  
> 2023 05 18 00 01 12.7688020  0  7                     
G02  24435613.540       12642.897         209.698           0.133  
G03  22313388.862     -181637.932       -3170.161           0.155  
G04  23815196.170     -276694.809       -4873.427           0.136  
G05  22548436.615      -40274.548        -715.164           0.151  
G06  20665087.542     -174664.544       -3120.097           0.168  
G07  23577496.652     -226251.772       -4096.207           0.139  
G09  23054180.101     -222220.628       -4171.860           0.144  
> 2023 05 18 00 01 12.8688020  0  7                     
G02  24435605.192       12664.076         210.540           0.132  
G03  22313469.561     -181954.944       -3169.500           0.155  
G04  23815319.014     -277182.213       -4872.520           0.138  
G05  22548457.085      -40346.390        -717.856           0.152  
G06  20665165.713     -174976.547       -3119.175           0.167  
G07  23577599.075     -226661.178       -4095.052           0.140  
G09  23054284.599     -222637.877       -4171.428           0.145  
> 2023 05 18 00 01 12.9688020  0  7                     
G02  24435600.218       12685.307         213.523           0.132  
G03  22313553.786     -182271.906       -3169.986           0.155  
G04  23815442.424     -277669.537       -4869.753           0.137  
G05  22548473.757      -40418.131        -716.182           0.152  
G06  20665247.500     -175288.518       -3118.931           0.167  
G07  23577701.999     -227070.468       -4094.968           0.140  
G09  23054391.829     -223055.069       -4171.656           0.145  
> 2023 05 18 00 01 13.0688020  0  7                     
G02  24435596.057       12706.597         213.435           0.132  
G03  22313635.207     -182588.756       -3166.261           0.155  
G04  23815568.923     -278156.798       -4870.058           0.138  
G05  22548495.328      -40489.807        -714.114           0.152  
G06  20665324.741     -175600.354       -3117.498           0.168  
G07  23577807.438     -227479.698       -4152.633           0.139  
G09  23054500.260     -223472.147       -4168.652           0.144  
> 2023 05 18 00 01 13.1688020  0  7                     
G02  24435589.326       12727.893         211.317           0.131  
G03  22313716.888     -182905.672       -3170.725           0.155  
G04  23815691.281     -278644.075       -4872.796           0.138  
G05  22548511.603      -40561.501        -717.899           0.152  
G06  20665405.047     -175912.276       -3120.334           0.168  
G07  23577912.099     -227888.973       -4094.097           0.141  
G09  23054608.348     -223889.293       -4173.278           0.144  
> 2023 05 18 00 01 13.2688020  0  7                     
G02  24435587.305       12749.159         213.035           0.133  
G03  22313792.975     -183222.607       -3170.515           0.155  
G04  23815816.060     -279131.378       -4870.894           0.138  
G05  22548532.558      -40633.256        -717.750           0.151  
G06  20665480.415     -176224.209       -3118.847           0.168  
G07  23578016.717     -228298.230       -4092.036           0.140  
G09  23054714.600     -224306.431       -4171.342           0.145  
> 2023 05 18 00 01 13.3688020  0  7                     
G02  24435582.165       12770.503         212.626           0.133  
G03  22313873.848     -183539.505       -3152.549           0.155  
G04  23815941.291     -279618.602       -4870.284           0.137  
G05  22548547.340      -40704.787        -709.914           0.152  
G06  20665561.496     -176536.049       -3117.779           0.168  
G07  23578117.650     -228708.262       -4100.784           0.141  
G09  23054821.644     -224723.977       -4282.599           0.145  
> 2023 05 18 00 01 13.4688020  0  7                     
G02  24435573.326       12791.936         216.922           0.133  
G03  22313952.639     -183856.229       -3167.650           0.154  
G04  23816064.941     -280105.755       -4869.796           0.138  
G05  22548564.550      -40776.487        -715.748           0.151  
G06  20665640.673     -176847.827       -3117.397           0.168  
G07  23578226.015     -229116.589       -4087.622           0.141  
G09  23054924.501     -225140.683       -4124.157           0.145  
> 2023 05 18 00 01 13.5688020  0  7                     
G02  24435571.097       12813.356         215.745           0.133  
G03  22314035.143     -184173.004       -3170.049           0.155  
G04  23816187.131     -280592.888       -4869.391           0.137  
G05  22548580.819      -40848.057        -715.162           0.151  
G06  20665721.995     -177159.589       -3115.960           0.168  
G07  23578327.176     -229525.738       -4090.947           0.141  
G09  23055028.066     -225557.479       -4169.707           0.145  
> 2023 05 18 00 01 13.6688020  0  7                     
G02  24435563.162       12834.845         214.473           0.132  
G03  22314112.074     -184489.682       -3168.948           0.155  
G04  23816312.343     -281079.946       -4870.854           0.138  
G05  22548601.060      -40919.519        -714.202           0.150  
G06  20665800.581     -177471.277       -3115.174           0.168  
G07  23578433.515     -229934.799       -4090.422           0.141  
G09  23055133.113     -225974.352       -4169.994           0.145  
> 2023 05 18 00 01 13.7688020  0  7                     
G02  24435555.339       12856.312         208.237           0.132  
G03  22314194.237     -184806.457       -3172.724           0.154  
G04  23816436.853     -281567.041       -4872.752           0.138  
G05  22548620.940      -40991.075        -718.544           0.152  
G06  20665878.367     -177783.013       -3120.230           0.168  
G07  23578536.687     -230343.891       -4095.085           0.140  
G09  23055241.617     -226391.315       -4171.429           0.144  
> 2023 05 18 00 01 13.8688020  0  7                     
G02  24435549.181       12877.014         205.596           0.132  
G03  22314273.682     -185123.974       -3176.974           0.156  
G04  23816560.092     -282054.937       -4881.240           0.137  
G05  22548639.224      -41063.394        -724.958           0.150  
G06  20665957.939     -178095.537       -3127.175           0.168  
G07  23578640.680     -230753.789       -4102.456           0.140  
G09  23055347.606     -226809.046       -4179.665           0.144  
> 2023 05 18 00 01 13.9688020  0  7                     
G02  24435538.704       12897.430         204.293           0.132  
G03  22314354.329     -185441.812       -3180.164           0.155  
G04  23816684.011     -282543.092       -4882.688           0.136  
G05  22548659.267      -41136.008        -727.106           0.152  
G06  20666036.292     -178408.339       -3126.669           0.168  
G07  23578745.769     -231163.940       -4099.877           0.140  
G09  23055457.031     -227227.054       -4181.695           0.145  
> 2023 05 18 00 01 14.0688020  0  7                     
G02  24435537.032       12917.996         210.325           0.133  
G03  22314437.309     -185759.465       -3174.973           0.155  
G04  23816810.058     -283031.098       -4878.715           0.138  
G05  22548674.399      -41208.458        -720.946           0.150  
G06  20666119.124     -178720.997       -3123.631           0.168  
G07  23578846.390     -231573.956       -4093.826           0.141  
G09  23055563.676     -227644.894       -4175.132           0.145  
> 2023 05 18 00 01 14.1688020  0  7                     
G02  24435531.080       12938.923         213.469           0.132  
G03  22314516.994     -186076.754       -3170.632           0.155  
G04  23816931.998     -283518.736       -4874.227           0.137  
G05  22548693.900      -41280.549        -718.923           0.151  
G06  20666197.715     -179033.287       -3121.213           0.168  
G07  23578955.457     -231984.017       -4163.909           0.140  
G09  23055665.746     -228062.413       -4172.089           0.144  
> 2023 05 18 00 01 14.2688020  0  7                     
G02  24435524.931       12960.130         209.095           0.132  
G03  22314602.086     -186393.770       -3170.034           0.154  
G04  23817054.902     -284006.072       -4871.819           0.137  
G05  22548709.430      -41352.320        -715.930           0.152  
G06  20666278.223     -179345.266       -3117.656           0.168  
G07  23579053.172     -232392.993       -4094.146           0.140  
G09  23055771.648     -228479.595       -4170.872           0.144  
> 2023 05 18 00 01 14.3688020  0  7                     
G02  24435522.475       12981.678         216.357           0.131  
G03  22314678.990     -186710.487       -3165.681           0.154  
G04  23817178.251     -284493.132       -4871.788           0.137  
G05  22548725.800      -41423.827        -715.599           0.149  
G06  20666355.679     -179656.988       -3118.494           0.167  
G07  23579159.646     -232802.043       -4091.230           0.140  
G09  23055878.933     -228896.494       -4169.520           0.143  
> 2023 05 18 00 01 14.4688020  0  7                     
G02  24435514.839       13003.322         216.257           0.132  
G03  22314762.491     -187027.073       -3164.591           0.154  
G04  23817305.006     -284980.051       -4868.036           0.136  
G05  22548746.039      -41495.185        -713.078           0.151  
G06  20666434.530     -179968.559       -3116.237           0.168  
G07  23579265.192     -233210.959       -4088.027           0.140  
G09  23055984.174     -229313.261       -4166.741           0.143  
> 2023 05 18 00 01 14.5688020  0  7                     
G02  24435511.996       13024.948         215.336           0.131  
G03  22314838.508     -187343.956       -3148.705           0.154  
G04  23817428.014     -285466.991       -4868.504           0.137  
G05  22548761.649      -41566.281        -674.701           0.152  
G06  20666513.084     -180280.175       -3117.604           0.168  
G07  23579370.647     -233619.931       -4088.605           0.140  
G09  23056091.477     -229730.044       -4167.610           0.146  
> 2023 05 18 00 01 14.6688020  0  7                     
G02  24435505.610       13046.502         215.819           0.132  
G03  22314920.858     -187660.444       -3166.199           0.155  
G04  23817551.271     -285954.077       -4872.030           0.136  
G05  22548783.550      -41638.094        -713.716           0.151  
G06  20666594.742     -180591.899       -3117.021           0.168  
G07  23579471.317     -234029.041       -4091.548           0.140  
G09  23056194.541     -230146.966       -4166.086           0.144  
> 2023 05 18 00 01 14.7688020  0  7                     
G02  24435498.745       13067.841         213.116           0.133  
G03  22314999.641     -187977.329       -3171.404           0.154  
G04  23817675.867     -286441.258       -4870.481           0.138  
G05  22548800.387      -41709.759        -716.223           0.153  
G06  20666671.138     -180903.740       -3116.442           0.168  
G07  23579576.323     -234438.240       -4094.430           0.141  
G09  23056300.674     -230564.039       -4167.990           0.143  
> 2023 05 18 00 01 14.8688020  0  7                     
G02  24435495.419       13089.209         214.491           0.133  
G03  22315081.756     -188294.220       -3168.889           0.156  
G04  23817797.777     -286928.477       -4872.799           0.138  
G05  22548817.093      -41781.434        -716.133           0.151  
G06  20666751.233     -181215.634       -3117.303           0.168  
G07  23579680.896     -234847.475       -4092.232           0.140  
G09  23056408.495     -230981.072       -4169.441           0.145  
> 2023 05 18 00 01 14.9688020  0  7                     
G02  24435487.276       13110.617         214.811           0.132  
G03  22315162.180     -188611.082       -3169.337           0.156  
G04  23817923.576     -287415.657       -4870.564           0.138  
G05  22548835.801      -41853.062        -717.626           0.152  
G06  20666828.574     -181527.487       -3118.469           0.168  
G07  23579782.455     -235256.711       -4092.525           0.141  
G09  23056519.546     -231398.162       -4182.181           0.145  
> 2023 05 18 00 01 15.0688020  0  7                     
G02  24435480.630       13132.011         214.338           0.133  
G03  22315243.143     -188927.935       -3169.268           0.155  
G04  23818050.233     -287902.829       -4871.528           0.138  
G05  22548852.820      -41924.712        -717.422           0.150  
G06  20666908.310     -181839.335       -3118.551           0.168  
G07  23579889.327     -235666.649       -4085.554           0.141  
G09  23056624.226     -231815.140       -4170.628           0.145  
> 2023 05 18 00 01 15.1688020  0  7                     
G02  24435480.360       13153.385         215.262           0.132  
G03  22315325.634     -189244.861       -3168.098           0.154  
G04  23818172.185     -288390.057       -4873.409           0.138  
G05  22548873.394      -41996.385        -715.026           0.151  
G06  20666988.703     -182151.218       -3117.580           0.168  
G07  23579991.360     -236075.138       -4089.068           0.140  
G09  23056726.758     -232232.206       -4171.122           0.144  
> 2023 05 18 00 01 15.2688020  0  7                     
G02  24435468.316       13174.686         212.782           0.132  
G03  22315403.371     -189561.844       -3170.894           0.155  
G04  23818295.051     -288877.318       -4874.527           0.138  
G05  22548889.435      -42068.096        -715.846           0.151  
G06  20667069.240     -182463.145       -3120.931           0.168  
G07  23580093.993     -236484.466       -4092.175           0.141  
G09  23056837.487     -232649.299       -4172.244           0.146  
> 2023 05 18 00 01 15.3688020  0  7                     
G02  24435463.210       13196.113         215.154           0.133  
G03  22315484.318     -189878.740       -3172.242           0.155  
G04  23818419.080     -289364.503       -4874.700           0.136  
G05  22548908.562      -42139.767        -718.035           0.151  
G06  20667149.645     -182775.027       -3120.066           0.167  
G07  23580200.863     -236893.666       -4092.891           0.141  
G09  23056941.232     -233066.322       -4172.198           0.146  
> 2023 05 18 00 01 15.4688020  0  7                     
G02  24435461.383       13216.660         203.671           0.131  
G03  22315565.386     -190196.447       -3180.586           0.154  
G04  23818541.773     -289852.562       -4883.938           0.137  
G05  22548927.002      -42212.266        -728.245           0.152  
G06  20667227.051     -183087.744       -3129.196           0.168  
G07  23580303.308     -237303.745       -4103.667           0.140  
G09  23057044.295     -233484.219       -4182.938           0.144  
> 2023 05 18 00 01 15.5688020  0  7                     
G02  24435451.225       13236.636         198.903           0.133  
G03  22315647.370     -190514.773       -3184.407           0.155  
G04  23818664.845     -290341.121       -4886.678           0.137  
G05  22548944.584      -42285.276        -732.260           0.151  
G06  20667308.768     -183401.027       -3133.388           0.168  
G07  23580408.877     -237714.348       -4107.127           0.141  
G09  23057150.186     -233902.651       -4184.936           0.146  
> 2023 05 18 00 01 15.6688020  0  7                     
G02  24435448.974       13257.246         212.564           0.132  
G03  22315723.903     -190832.494       -3175.421           0.155  
G04  23818789.922     -290829.122       -4875.681           0.138  
G05  22548963.927      -42357.766        -722.969           0.154  
G06  20667386.281     -183713.698       -3121.834           0.168  
G07  23580510.370     -238124.409       -4097.614           0.141  
G09  23057259.987     -234320.474       -4172.482           0.144  
> 2023 05 18 00 01 15.7688020  0  7                     
G02  24435443.266       13278.265         208.762           0.133  
G03  22315801.588     -191149.769       -3175.281           0.155  
G04  23818916.361     -291316.686       -4876.000           0.139  
G05  22548982.164      -42429.764        -721.116           0.152  
G06  20667467.867     -184025.935       -3121.233           0.169  
G07  23580616.735     -238533.980       -4099.254           0.142  
G09  23057370.368     -234737.853       -4172.249           0.145  
> 2023 05 18 00 01 15.8688020  0  7                     
G02  24435438.657       13299.486         207.668           0.133  
G03  22315882.179     -191467.308       -3287.644           0.155  
G04  23819040.075     -291804.050       -4871.513           0.139  
G05  22548999.941      -42501.217        -809.089           0.152  
G06  20667544.927     -184337.989       -3119.346           0.169  
G07  23580728.235     -238943.378       -4095.923           0.141  
G09  23057475.581     -235155.075       -4170.987           0.146  
> 2023 05 18 00 01 15.9688020  0  7                     
G02  24435431.253       13320.788         210.110           0.133  
G03  22315962.829     -191783.864       -3171.739           0.156  
G04  23819162.281     -292291.348       -4875.750           0.139  
G05  22549016.549      -42573.343        -719.688           0.152  
G06  20667626.369     -184649.976       -3119.513           0.168  
G07  23580830.271     -239352.709       -4093.373           0.142  
G09  23057581.477     -235572.212       -4171.878           0.145  
> 2023 05 18 00 01 16.0688020  0  7                     
G02  24435425.343       13342.170         211.691           0.134  
G03  22316047.150     -192100.802       -3168.260           0.155  
G04  23819286.995     -292778.544       -4871.399           0.139  
G05  22549036.742      -42645.034        -714.977           0.153  
G06  20667704.620     -184961.917       -3118.841           0.169  
G07  23580931.521     -239761.988       -4091.710           0.142  
G09  23057684.714     -235989.300       -4170.856           0.146  
> 2023 05 18 00 01 16.1688020  0  7                     
G02  24435418.361       13363.554         208.211           0.134  
G03  22316128.385     -192417.726       -3169.333           0.157  
G04  23819410.558     -293265.737       -4869.603           0.139  
G05  22549050.674      -42716.707        -715.329           0.152  
G06  20667782.178     -185273.783       -3117.448           0.169  
G07  23581035.623     -240171.229       -4093.035           0.142  
G09  23057788.842     -236406.334       -4170.386           0.146  
> 2023 05 18 00 01 16.2688020  0  7                     
G02  24435413.231       13385.111         215.773           0.133  
G03  22316210.875     -192734.529       -3167.641           0.156  
G04  23819534.711     -293752.810       -4869.042           0.138  
G05  22549072.944      -42788.240        -715.932           0.153  
G06  20667862.031     -185585.563       -3117.324           0.169  
G07  23581142.542     -240580.342       -4091.902           0.141  
G09  23057895.028     -236823.205       -4166.875           0.146  
> 2023 05 18 00 01 16.3688020  0  7                     
G02  24435404.876       13406.656         214.761           0.134  
G03  22316290.645     -193051.306       -3168.417           0.156  
G04  23819656.674     -294239.865       -4870.659           0.138  
G05  22549090.202      -42859.763        -714.178           0.154  
G06  20667940.774     -185897.305       -3118.099           0.169  
G07  23581247.190     -240989.410       -4087.841           0.142  
G09  23057999.223     -237240.103       -4166.713           0.146  
> 2023 05 18 00 01 16.4688020  0  7                     
G02  24435401.931       13428.195         216.417           0.134  
G03  22316373.017     -193368.101       -3169.964           0.157  
G04  23819784.596     -294726.941       -4871.477           0.138  
G05  22549108.062      -42931.283        -716.133           0.151  
G06  20668022.632     -186209.062       -3117.450           0.169  
G07  23581344.368     -241398.525       -4091.735           0.142  
G09  23058102.451     -237657.008       -4165.807           0.145  
> 2023 05 18 00 01 16.5688020  0  7                     
G02  24435396.429       13449.659         212.199           0.133  
G03  22316449.294     -193684.977       -3168.901           0.156  
G04  23819904.743     -295214.018       -4869.043           0.138  
G05  22549127.382      -43002.855        -714.822           0.151  
G06  20668100.959     -186520.892       -3120.199           0.169  
G07  23581452.658     -241807.690       -4089.859           0.142  
G09  23058213.149     -238073.981       -4173.683           0.146  
> 2023 05 18 00 01 16.6688020  0  7                     
G02  24435390.432       13470.982         210.608           0.134  
G03  22316532.648     -194001.956       -3169.608           0.156  
G04  23820032.822     -295701.269       -4873.223           0.138  
G05  22549143.412      -43074.578        -716.401           0.153  
G06  20668181.309     -186832.831       -3118.529           0.169  
G07  23581556.658     -242217.429       -4218.789           0.142  
G09  23058318.969     -238490.620       -4130.677           0.146  
> 2023 05 18 00 01 16.7688020  0  7                     
G02  24435385.650       13492.432         214.334           0.134  
G03  22316611.261     -194318.922       -3168.315           0.156  
G04  23820154.824     -296188.493       -4871.638           0.138  
G05  22549161.844      -43146.235        -714.149           0.151  
G06  20668257.626     -187144.725       -3117.695           0.169  
G07  23581660.506     -242626.277       -4095.702           0.141  
G09  23058428.287     -238908.097       -4168.707           0.146  
> 2023 05 18 00 01 16.8688020  0  7                     
G02  24435378.827       13514.009         216.265           0.133  
G03  22316691.662     -194635.685       -3167.444           0.156  
G04  23820278.572     -296675.524       -4870.009           0.138  
G05  22549178.731      -43217.767        -716.395           0.151  
G06  20668338.105     -187456.445       -3116.123           0.169  
G07  23581766.099     -243035.346       -4091.645           0.142  
G09  23058532.649     -239324.955       -4168.294           0.146  
> 2023 05 18 00 01 16.9688020  0  7                     
G02  24435372.963       13535.681         215.899           0.132  
G03  22316774.021     -194952.354       -3166.139           0.155  
G04  23820403.289     -297162.431       -4869.209           0.139  
G05  22549195.409      -43289.138        -713.299           0.153  
G06  20668414.898     -187768.119       -3116.400           0.168  
G07  23581868.276     -243444.293       -4090.429           0.142  
G09  23058633.117     -239741.735       -4168.260           0.145  
> 2023 05 18 00 01 17.0688020  0  7                     
G02  24435368.164       13557.122         205.169           0.132  
G03  22316855.219     -195269.296       -3176.298           0.155  
G04  23820530.327     -297649.605       -4878.261           0.138  
G05  22549216.573      -43360.826        -723.318           0.151  
G06  20668496.543     -188080.010       -3127.798           0.168  
G07  23581967.230     -243853.554       -4099.736           0.140  
G09  23058735.486     -240158.757       -4177.670           0.144  
> 2023 05 18 00 01 17.1688020  0  7                     
G02  24435361.068       13577.830         211.301           0.133  
G03  22316935.631     -195586.982       -3175.288           0.156  
G04  23820653.778     -298137.514       -4878.882           0.138  
G05  22549235.382      -43433.201        -721.684           0.151  
G06  20668574.383     -188392.644       -3126.815           0.169  
G07  23582072.439     -244263.466       -4091.446           0.141  
G09  23058846.091     -240576.510       -4176.940           0.144  
> 2023 05 18 00 01 17.2688020  0  7                     
G02  24435360.617       13598.953         213.918           0.133  
G03  22317015.697     -195904.212       -3168.293           0.155  
G04  23820773.520     -298625.027       -4874.580           0.138  
G05  22549252.719      -43505.207        -715.779           0.153  
G06  20668656.980     -188704.867       -3121.083           0.169  
G07  23582183.105     -244673.066       -4094.392           0.141  
G09  23058952.029     -240993.866       -4172.152           0.145  
> 2023 05 18 00 01 17.3688020  0  7                     
G02  24435353.247       13620.480         219.569           0.132  
G03  22317099.952     -196221.084       -3166.135           0.156  
G04  23820897.105     -299112.090       -4868.682           0.138  
G05  22549271.629      -43576.753        -711.501           0.152  
G06  20668732.667     -189016.679       -3116.859           0.169  
G07  23582285.250     -245082.180       -4088.644           0.143  
G09  23059061.105     -241410.727       -4164.561           0.145  
> 2023 05 18 00 01 17.4688020  0  7                     
G02  24435347.900       13642.093         213.307           0.133  
G03  22317177.407     -196537.692       -3176.147           0.156  
G04  23821020.052     -299599.058       -4871.363           0.138  
G05  22549288.963      -43648.169        -711.485           0.153  
G06  20668813.376     -189328.336       -3115.911           0.169  
G07  23582384.814     -245491.265       -4092.559           0.141  
G09  23059165.926     -241827.518       -4196.146           0.146  
> 2023 05 18 00 01 17.5688020  0  7                     
G02  24435343.176       13663.746         215.884           0.133  
G03  22317255.839     -196854.578       -3169.254           0.156  
G04  23821146.747     -300086.030       -4871.614           0.139  
G05  22549303.602      -43719.630        -714.161           0.152  
G06  20668895.912     -189640.046       -3117.558           0.168  
G07  23582491.610     -245900.254       -4088.473           0.141  
G09  23059273.007     -242244.351       -4168.865           0.146  
> 2023 05 18 00 01 17.6688020  0  7                     
G02  24435336.142       13685.251         213.187           0.134  
G03  22317335.870     -197171.476       -3170.061           0.156  
G04  23821271.548     -300573.096       -4873.051           0.139  
G05  22549322.345      -43791.248        -718.221           0.154  
G06  20668973.599     -189951.869       -3118.907           0.168  
G07  23582594.871     -246309.390       -4089.749           0.140  
G09  23059380.993     -242661.282       -4169.868           0.145  
> 2023 05 18 00 01 17.7688020  0  7                     
G02  24435329.692       13706.843         213.945           0.132  
G03  22317417.954     -197488.278       -3166.959           0.155  
G04  23821396.323     -301060.132       -4872.089           0.138  
G05  22549341.879      -43862.744        -714.281           0.154  
G06  20669053.991     -190263.637       -3118.889           0.168  
G07  23582699.160     -246718.516       -4084.756           0.141  
G09  23059483.947     -243078.149       -4168.066           0.145  
> 2023 05 18 00 01 17.8688020  0  7                     
G02  24435327.874       13728.454         212.977           0.133  
G03  22317498.035     -197805.033       -3168.028           0.156  
G04  23821518.407     -301547.117       -4871.369           0.139  
G05  22549360.522      -43934.252        -714.604           0.152  
G06  20669131.555     -190575.365       -3120.259           0.169  
G07  23582800.202     -247127.686       -3869.504           0.142  
G09  23059592.227     -243495.104       -4218.082           0.145  
> 2023 05 18 00 01 17.9688020  0  7                     
G02  24435316.528       13749.877         212.477           0.133  
G03  22317577.548     -198122.016       -3169.857           0.155  
G04  23821645.302     -302034.313       -4873.812           0.139  
G05  22549381.671      -44005.933        -718.927           0.153  
G06  20669210.684     -190887.285       -3121.596           0.169  
G07  23582907.541     -247536.871       -4091.490           0.141  
G09  23059698.402     -243912.024       -4173.529           0.145  
> 2023 05 18 00 01 18.0688020  0  7                     
G02  24435311.795       13771.162         213.672           0.134  
G03  22317658.867     -198439.200       -3170.026           0.156  
G04  23821765.654     -302521.626       -4873.317           0.139  
G05  22549396.221      -44077.740        -717.684           0.153  
G06  20669287.501     -191199.353       -3120.297           0.169  
G07  23583011.453     -247946.299       -4091.690           0.141  
G09  23059802.990     -244329.183       -4171.264           0.146  
> 2023 05 18 00 01 18.1688020  0  7                     
G02  24435307.049       13792.499         212.218           0.133  
G03  22317738.096     -198756.285       -3171.657           0.155  
G04  23821889.712     -303008.930       -4872.556           0.139  
G05  22549416.301      -44149.540        -718.657           0.153  
G06  20669369.467     -191511.397       -3120.060           0.169  
G07  23583115.872     -248355.722       -4096.950           0.140  
G09  23059911.825     -244746.308       -4171.973           0.146  
> 2023 05 18 00 01 18.2688020  0  7                     
G02  24435297.973       13813.950         214.336           0.134  
G03  22317821.610     -199073.244       -3169.208           0.155  
G04  23822013.895     -303496.108       -4872.163           0.138  
G05  22549433.169      -44221.226        -716.918           0.152  
G06  20669446.978     -191823.313       -3117.831           0.169  
G07  23583217.802     -248765.005       -4097.389           0.140  
G09  23060017.772     -245163.320       -4170.546           0.145  
> 2023 05 18 00 01 18.3688020  0  7                     
G02  24435296.853       13835.473         212.582           0.134  
G03  22317901.655     -199390.122       -3169.210           0.155  
G04  23822139.294     -303983.166       -4870.768           0.138  
G05  22549449.218      -44292.766        -715.132           0.154  
G06  20669526.948     -192135.121       -3116.681           0.169  
G07  23583322.567     -249174.119       -4095.114           0.143  
G09  23060116.477     -245580.237       -4169.918           0.145  
> 2023 05 18 00 01 18.4688020  0  7                     
G02  24435291.961       13857.012         214.255           0.133  
G03  22317984.241     -199707.024       -3170.568           0.155  
G04  23822262.589     -304470.271       -4873.531           0.138  
G05  22549469.078      -44364.381        -717.864           0.152  
G06  20669606.958     -192446.983       -3119.721           0.169  
G07  23583425.001     -249583.241       -4090.684           0.141  
G09  23060223.700     -245997.161       -4171.161           0.145  
> 2023 05 18 00 01 18.5688020  0  7                     
G02  24435282.035       13878.356         210.508           0.133  
G03  22318063.250     -200024.102       -3172.279           0.156  
G04  23822384.535     -304957.538       -4875.009           0.138  
G05  22549487.318      -44436.129        -721.350           0.154  
G06  20669684.735     -192758.992       -3122.927           0.169  
G07  23583531.398     -249992.610       -4091.807           0.141  
G09  23060334.914     -246414.283       -4173.556           0.145  
> 2023 05 18 00 01 18.6688020  0  7                     
G02  24435279.633       13899.507         211.601           0.133  
G03  22318142.888     -200341.358       -3170.768           0.155  
G04  23822507.900     -305444.958       -4870.531           0.138  
G05  22549507.619      -44508.074        -720.653           0.152  
G06  20669764.165     -193071.201       -3121.326           0.169  
G07  23583636.290     -250402.116       -4089.459           0.142  
G09  23060441.635     -246831.574       -4173.222           0.144  
> 2023 05 18 00 01 18.7688020  0  7                     
G02  24435271.484       13920.752         211.218           0.134  
G03  22318225.774     -200658.613       -3175.313           0.155  
G04  23822632.327     -305932.397       -4874.758           0.138  
G05  22549522.729      -44579.993        -722.063           0.153  
G06  20669844.921     -193383.369       -3121.546           0.169  
G07  23583742.266     -250811.648       -4096.012           0.140  
G09  23060545.844     -247248.780       -4170.853           0.145  
> 2023 05 18 00 01 18.8688020  0  7                     
G02  24435265.246       13941.908         211.672           0.135  
G03  22318305.163     -200975.920       -3175.677           0.155  
G04  23822756.797     -306419.877       -4874.531           0.139  
G05  22549541.958      -44651.954        -718.927           0.153  
G06  20669925.538     -193695.612       -3123.053           0.169  
G07  23583847.198     -251221.264       -4096.753           0.143  
G09  23060652.930     -247666.104       -4171.592           0.145  
> 2023 05 18 00 01 18.9688020  0  7                     
G02  24435261.919       13963.053         211.468           0.134  
G03  22318383.946     -201293.205       -3173.167           0.155  
G04  23822880.904     -306907.331       -4875.138           0.139  
G05  22549560.789      -44723.935        -719.396           0.154  
G06  20670003.145     -194007.819       -3120.508           0.169  
G07  23583949.879     -251630.814       -4097.186           0.142  
G09  23060758.429     -248083.407       -4172.612           0.145  
> 2023 05 18 00 01 19.0688020  0  7                     
G02  24435252.682       13984.347         210.486           0.133  
G03  22318463.641     -201610.334       -3169.576           0.156  
G04  23823005.047     -307394.626       -4873.598           0.139  
G05  22549579.480      -44795.743        -716.414           0.154  
G06  20670083.898     -194319.895       -3119.622           0.169  
G07  23584051.361     -252040.172       -4094.030           0.140  
G09  23060863.336     -248500.546       -4172.539           0.145  
> 2023 05 18 00 01 19.1688020  0  7                     
G02  24435249.694       14005.860         211.021           0.133  
G03  22318543.921     -201927.316       -3172.530           0.156  
G04  23823127.596     -307881.743       -4873.668           0.138  
G05  22549595.760      -44867.422        -718.958           0.151  
G06  20670160.094     -194631.798       -3120.580           0.169  
G07  23584156.762     -252449.456       -4096.481           0.140  
G09  23060971.832     -248917.498       -4170.981           0.144  
> 2023 05 18 00 01 19.2688020  0  7                     
G02  24435242.741       14027.066         215.991           0.132  
G03  22318625.775     -202244.563       -3170.368           0.156  
G04  23823256.675     -308369.186       -4874.188           0.137  
G05  22549613.410      -44939.332        -720.340           0.152  
G06  20670240.810     -194944.010       -3120.191           0.168  
G07  23584261.958     -252858.945       -4091.669           0.141  
G09  23061078.064     -249334.770       -4170.504           0.144  
> 2023 05 18 00 01 19.3688020  0  7                     
G02  24435237.470       14048.557         218.108           0.132  
G03  22318707.720     -202561.549       -3167.627           0.154  
G04  23823378.904     -308856.308       -4871.733           0.137  
G05  22549630.834      -45010.969        -715.600           0.151  
G06  20670317.487     -195255.926       -3118.278           0.167  
G07  23584367.642     -253268.187       -4089.454           0.140  
G09  23061181.710     -249751.757       -4168.788           0.143  
> 2023 05 18 00 01 19.4688020  0  7                     
G02  24435232.262       14070.265         219.784           0.131  
G03  22318786.200     -202878.330       -3165.741           0.154  
G04  23823502.076     -309343.252       -4870.373           0.137  
G05  22549650.424      -45082.403        -713.461           0.151  
G06  20670399.056     -195567.615       -3115.415           0.167  
G07  23584472.646     -253677.219       -4090.328           0.140  
G09  23061290.654     -250168.515       -4165.388           0.143  
> 2023 05 18 00 01 19.5688020  0  7                     
G02  24435228.873       14092.024         218.530           0.132  
G03  22318867.407     -203195.039       -3166.742           0.153  
G04  23823623.596     -309830.102       -4868.817           0.137  
G05  22549667.190      -45153.764        -713.318           0.150  
G06  20670478.492     -195879.269       -3116.280           0.167  
G07  23584573.399     -254086.174       -4092.547           0.138  
G09  23061397.677     -250585.210       -4164.298           0.143  
> 2023 05 18 00 01 19.6688020  0  7                     
G02  24435220.937       14113.968         219.711           0.131  
G03  22318946.303     -203511.591       -3164.812           0.153  
G04  23823751.719     -310316.760       -4864.399           0.137  
G05  22549685.842      -45224.991        -713.769           0.149  
G06  20670558.333     -196190.732       -3114.883           0.167  
G07  23584683.153     -254494.988       -4085.791           0.139  
G09  23061501.713     -251001.757       -4167.495           0.143  
> 2023 05 18 00 01 19.7688020  0  7                     
G02  24435216.689       14136.056         220.686           0.131  
G03  22319025.377     -203828.009       -3165.086           0.153  
G04  23823877.286     -310803.347       -4866.542           0.136  
G05  22549703.185      -45296.068        -712.680           0.149  
G06  20670638.463     -196502.074       -3113.583           0.167  
G07  23584783.122     -254903.671       -4086.980           0.139  
G09  23061610.160     -251418.154       -4166.543           0.143  
> 2023 05 18 00 01 19.8688020  0  7                     
G02  24435210.894       14157.826         216.034           0.131  
G03  22319105.906     -204144.703       -3168.596           0.153  
G04  23823997.279     -311290.152       -4870.953           0.136  
G05  22549723.224      -45367.440        -714.972           0.150  
G06  20670717.838     -196813.690       -3118.998           0.166  
G07  23584882.601     -255312.587       -4093.496           0.139  
G09  23061716.545     -251834.796       -4168.122           0.143  
> 2023 05 18 00 01 19.9688020  0  7                     
G02  24435206.619       14179.358         213.936           0.131  
G03  22319184.192     -204461.660       -3171.863           0.153  
G04  23824122.188     -311777.277       -4873.833           0.136  
G05  22549739.338      -45439.000        -717.105           0.152  
G06  20670796.280     -197125.595       -3120.987           0.167  
G07  23584988.148     -255721.818       -4094.722           0.138  
G09  23061822.274     -252251.711       -4168.854           0.142  
> 2023 05 18 00 01 20.0688020  0  7                     
G02  24435199.216       14200.734         210.538           0.131  
G03  22319265.961     -204778.784       -3173.170           0.154  
G04  23824244.832     -312264.513       -4874.255           0.136  
G05  22549755.391      -45510.809        -718.954           0.150  
G06  20670876.751     -197437.631       -3121.868           0.167  
G07  23585091.909     -256131.197       -4096.309           0.139  
G09  23061929.920     -252668.813       -4171.902           0.144  
> 2023 05 18 00 01 20.1688020  0  7                     
G02  24435192.856       14222.064         209.196           0.130  
G03  22319344.089     -205095.962       -3172.222           0.153  
G04  23824366.642     -312751.826       -4874.363           0.136  
G05  22549773.299      -45582.642        -719.411           0.152  
G06  20670956.207     -197749.736       -3122.240           0.167  
G07  23585196.907     -256540.620       -4096.700           0.140  
G09  23062036.985     -253085.971       -4171.117           0.144  
> 2023 05 18 00 01 20.2688020  0  7                     
G02  24435190.871       14243.265         210.397           0.131  
G03  22319427.508     -205413.252       -3172.125           0.154  
G04  23824491.058     -313239.239       -4872.652           0.137  
G05  22549793.024      -45654.574        -720.830           0.152  
G06  20671033.793     -198061.976       -3123.398           0.167  
G07  23585303.630     -256950.136       -4094.535           0.139  
G09  23062141.233     -253503.228       -4172.304           0.143  
> 2023 05 18 00 01 20.3688020  0  7                     
G02  24435178.788       14264.355         212.325           0.130  
G03  22319510.013     -205730.696       -3172.983           0.154  
G04  23824616.927     -313726.782       -4873.479           0.136  
G05  22549812.786      -45726.635        -717.666           0.150  
G06  20671112.855     -198374.322       -3122.148           0.167  
G07  23585404.219     -257359.835       -4096.642           0.138  
G09  23062243.652     -253920.613       -4172.975           0.144  
> 2023 05 18 00 01 20.4688020  0  7                     
G02  24435177.943       14285.652         212.143           0.131  
G03  22319592.953     -206047.929       -3171.615           0.154  
G04  23824739.491     -314214.112       -4870.927           0.136  
G05  22549832.309      -45798.515        -719.025           0.149  
G06  20671190.729     -198686.469       -3120.315           0.167  
G07  23585510.054     -257769.325       -4096.396           0.138  
G09  23062351.505     -254337.785       -4169.944           0.143  
> 2023 05 18 00 01 20.5688020  0  7                     
G02  24435169.594       14307.070         214.967           0.131  
G03  22319673.394     -206365.019       -3169.878           0.155  
G04  23824861.678     -314701.330       -4870.594           0.137  
G05  22549849.571      -45870.242        -715.110           0.149  
G06  20671272.434     -198998.486       -3118.157           0.167  
G07  23585611.353     -258178.640       -4094.460           0.139  
G09  23062455.595     -254754.830       -4169.893           0.144  
> 2023 05 18 00 01 20.6688020  0  7                     
G02  24435165.721       14328.599         215.856           0.132  
G03  22319756.804     -206682.022       -3168.153           0.155  
G04  23824988.233     -315188.461       -4871.623           0.137  
G05  22549865.572      -45941.903        -715.087           0.150  
G06  20671348.316     -199310.404       -3118.892           0.167  
G07  23585715.841     -258587.864       -4094.219           0.139  
G09  23062558.215     -255171.793       -4171.117           0.144  
> 2023 05 18 00 01 20.7688020  0  7                     
G02  24435156.847       14350.147         214.229           0.131  
G03  22319837.018     -206999.019       -3170.020           0.154  
G04  23825111.295     -315675.553       -4871.972           0.137  
G05  22549885.158      -46013.540        -715.730           0.151  
G06  20671431.008     -199622.306       -3118.523           0.167  
G07  23585822.621     -258997.111       -4093.122           0.139  
G09  23062666.672     -255588.719       -4168.944           0.144  
> 2023 05 18 00 01 20.8688020  0  7                     
G02  24435151.912       14371.715         213.438           0.131  
G03  22319915.468     -207315.986       -3172.567           0.153  
G04  23825234.763     -316162.607       -4871.744           0.137  
G05  22549901.384      -46085.142        -716.917           0.152  
G06  20671509.293     -199934.195       -3119.648           0.167  
G07  23585925.065     -259406.294       -4091.578           0.140  
G09  23062773.161     -256005.619       -4169.641           0.142  
> 2023 05 18 00 01 20.9688020  0  7                     
G02  24435148.469       14393.278         216.106           0.131  
G03  22319998.758     -207634.019       -3281.854           0.153  
G04  23825358.911     -316649.730       -4872.178           0.137  
G05  22549919.899      -46156.787        -716.625           0.152  
G06  20671588.346     -200246.119       -3120.648           0.167  
G07  23586030.355     -259816.671       -4156.406           0.141  
G09  23062879.050     -256422.557       -4169.975           0.142  
> 2023 05 18 00 01 21.0688020  0  7                     
G02  24435145.897       14414.843         215.904           0.130  
G03  22320072.238     -207949.981       -3168.995           0.152  
G04  23825487.871     -317136.819       -4871.955           0.137  
G05  22549941.312      -46228.405        -715.202           0.152  
G06  20671668.444     -200558.008       -3118.977           0.167  
G07  23586135.961     -260224.795       -4091.606           0.140  
G09  23062987.454     -256839.502       -4169.127           0.143  
> 2023 05 18 00 01 21.1688020  0  7                     
G02  24435135.750       14436.301         216.335           0.131  
G03  22320152.168     -208267.068       -3170.491           0.153  
G04  23825612.897     -317623.987       -4870.994           0.137  
G05  22549954.788      -46300.082        -715.499           0.152  
G06  20671747.350     -200870.004       -3120.690           0.167  
G07  23586237.493     -260634.088       -4093.509           0.140  
G09  23063097.483     -257256.497       -4169.856           0.141  
> 2023 05 18 00 01 21.2688020  0  7                     
G02  24435132.039       14457.631         212.496           0.132  
G03  22320228.949     -208584.253       -3172.989           0.153  
G04  23825732.546     -318111.241       -4870.596           0.137  
G05  22549977.279      -46371.925        -718.784           0.151  
G06  20671827.777     -201182.100       -3121.478           0.167  
G07  23586341.673     -261043.478       -4095.940           0.140  
G09  23063203.131     -257673.601       -4172.249           0.143  
> 2023 05 18 00 01 21.3688020  0  7                     
G02  24435122.669       14479.006         214.261           0.131  
G03  22320316.503     -208901.473       -3172.006           0.154  
G04  23825855.822     -318598.550       -4871.691           0.136  
G05  22549992.999      -46443.744        -717.704           0.151  
G06  20671905.321     -201494.232       -3121.778           0.167  
G07  23586453.202     -261452.961       -4095.528           0.139  
G09  23063305.806     -258090.736       -4170.887           0.143  
> 2023 05 18 00 01 21.4688020  0  7                     
G02  24435116.137       14500.288         212.213           0.132  
G03  22320402.359     -209218.751       -3173.895           0.154  
G04  23825982.024     -319085.892       -4875.606           0.136  
G05  22550010.015      -46515.664        -719.346           0.150  
G06  20671985.078     -201806.405       -3122.642           0.167  
G07  23586551.837     -261862.440       -4097.839           0.140  
G09  23063406.978     -258507.921       -4171.870           0.143  
> 2023 05 18 00 01 21.5688020  0  7                     
G02  24435112.058       14521.563         211.452           0.131  
G03  22320487.414     -209536.050       -3173.228           0.154  
G04  23826105.803     -319573.270       -4874.807           0.136  
G05  22550028.151      -46587.549        -718.475           0.149  
G06  20672059.903     -202118.608       -3121.238           0.167  
G07  23586651.576     -262271.975       -4096.259           0.140  
G09  23063506.938     -258925.117       -4169.583           0.144  
> 2023 05 18 00 01 21.6688020  0  7                     
G02  24435103.973       14542.922         215.147           0.132  
G03  22320569.243     -209853.248       -3171.291           0.154  
G04  23826229.951     -320060.549       -4871.547           0.136  
G05  22550045.965      -46659.404        -716.449           0.150  
G06  20672144.731     -202430.721       -3119.290           0.167  
G07  23586759.195     -262681.402       -4091.526           0.140  
G09  23063608.101     -259342.259       -4170.558           0.144  
> 2023 05 18 00 01 21.7688020  0  7                     
G02  24435099.890       14564.355         214.099           0.132  
G03  22320646.378     -210170.386       -3172.890           0.155  
G04  23826352.392     -320547.740       -4871.616           0.138  
G05  22550065.955      -46731.119        -716.951           0.153  
G06  20672221.057     -202742.757       -3120.542           0.168  
G07  23586865.273     -263090.753       -4094.783           0.141  
G09  23063716.246     -259759.270       -4171.291           0.143  
> 2023 05 18 00 01 21.8688020  0  7                     
G02  24435094.800       14585.650         212.943           0.131  
G03  22320727.610     -210488.069       -3258.899           0.154  
G04  23826474.991     -321035.092       -4873.039           0.137  
G05  22550084.414      -46803.221        -739.104           0.151  
G06  20672300.877     -203054.932       -3120.882           0.168  
G07  23586968.009     -263499.936       -4131.848           0.141  
G09  23063826.181     -260177.173       -4281.305           0.144  
> 2023 05 18 00 01 21.9688020  0  7                     
G02  24435089.884       14606.863         212.985           0.134  
G03  22320801.833     -210805.017       -3172.053           0.154  
G04  23826600.670     -321522.503       -4873.152           0.137  
G05  22550102.791      -46875.008        -721.125           0.153  
G06  20672381.923     -203367.212       -3122.501           0.168  
G07  23587071.116     -263909.838       -4098.357           0.140  
G09  23063940.737     -260593.707       -4170.916           0.144  
> 2023 05 18 00 01 22.0688020  0  7                     
G02  24435085.791       14628.040         210.425           0.132  
G03  22320878.800     -211122.444       -3173.505           0.155  
G04  23826722.819     -322009.976       -4874.674           0.136  
G05  22550118.422      -46947.027        -719.153           0.150  
G06  20672461.228     -203679.527       -3123.122           0.168  
G07  23587176.457     -264319.455       -4097.891           0.140  
G09  23064053.962     -261011.073       -4175.362           0.146  
> 2023 05 18 00 01 22.1688020  0  7                     
G02  24435079.258       14649.363         215.751           0.133  
G03  22320957.583     -211439.711       -3172.273           0.156  
G04  23826850.199     -322497.303       -4871.954           0.137  
G05  22550136.758      -47018.887        -719.015           0.152  
G06  20672540.475     -203991.697       -3121.856           0.168  
G07  23587282.072     -264728.940       -4093.264           0.141  
G09  23064163.414     -261428.224       -4172.547           0.146  
> 2023 05 18 00 01 22.2688020  0  7                     
G02  24435077.233       14670.873         214.761           0.132  
G03  22321036.669     -211756.771       -3169.555           0.155  
G04  23826972.203     -322984.436       -4871.933           0.137  
G05  22550156.010      -47090.562        -716.817           0.150  
G06  20672619.942     -204303.675       -3120.504           0.167  
G07  23587382.992     -265138.205       -4093.029           0.140  
G09  23064257.726     -261845.172       -4172.239           0.147  
> 2023 05 18 00 01 22.3688020  0  7                     
G02  24435068.680       14692.476         215.846           0.131  
G03  22321121.626     -212073.775       -3169.882           0.155  
G04  23827096.744     -323471.499       -4869.855           0.136  
G05  22550175.444      -47162.174        -716.270           0.152  
G06  20672699.506     -204615.578       -3119.830           0.167  
G07  23587489.785     -265547.409       -4092.275           0.139  
G09  23064361.411     -262262.092       -4172.495           0.145  
> 2023 05 18 00 01 22.4688020  0  7                     
G02  24435058.614       14714.060         215.155           0.132  
G03  22321207.774     -212390.806       -3171.557           0.154  
G04  23827221.692     -323958.578       -4871.924           0.137  
G05  22550190.486      -47233.813        -715.857           0.150  
G06  20672779.874     -204927.503       -3120.496           0.167  
G07  23587594.969     -265956.686       -4092.715           0.139  
G09  23064469.296     -262678.984       -4171.838           0.144  
> 2023 05 18 00 01 22.5688020  0  7                     
G02  24435056.433       14735.494         213.138           0.132  
G03  22321284.992     -212707.959       -3173.795           0.154  
G04  23827344.623     -324445.745       -4871.746           0.137  
G05  22550207.977      -47305.543        -715.520           0.150  
G06  20672860.524     -205239.522       -3120.348           0.167  
G07  23587694.331     -266366.020       -4093.836           0.140  
G09  23064576.670     -263095.968       -4169.355           0.142  
> 2023 05 18 00 01 22.6688020  0  7                     
G02  24435053.661       14756.831         214.026           0.131  
G03  22321366.739     -213025.229       -3172.845           0.153  
G04  23827466.618     -324933.046       -4870.523           0.137  
G05  22550227.861      -47377.422        -719.695           0.150  
G06  20672937.299     -205551.703       -3120.855           0.168  
G07  23587797.495     -266775.463       -4092.368           0.139  
G09  23064675.438     -263513.112       -4169.512           0.141  
> 2023 05 18 00 01 22.7688020  0  7                     
G02  24435049.858       14778.278         214.683           0.132  
G03  22321447.253     -213342.417       -3171.830           0.154  
G04  23827591.582     -325420.289       -4871.343           0.137  
G05  22550245.665      -47449.221        -717.606           0.151  
G06  20673017.436     -205863.801       -3121.064           0.168  
G07  23587905.010     -267184.903       -4095.828           0.139  
G09  23064781.286     -263930.182       -4171.603           0.142  
> 2023 05 18 00 01 22.8688020  0  7                     
G02  24435042.413       14799.719         214.011           0.130  
G03  22321527.433     -213659.585       -3169.781           0.155  
G04  23827717.355     -325907.476       -4869.083           0.136  
G05  22550265.952      -47521.002        -717.491           0.151  
G06  20673094.554     -206175.858       -3119.341           0.167  
G07  23588009.358     -267594.239       -4093.171           0.139  
G09  23064888.770     -264347.209       -4170.335           0.143  
> 2023 05 18 00 01 22.9688020  0  7                     
G02  24435040.357       14821.278         214.078           0.131  
G03  22321610.747     -213976.661       -3169.855           0.155  
G04  23827840.127     -326394.586       -4872.750           0.136  
G05  22550281.371      -47592.629        -717.790           0.149  
G06  20673176.894     -206487.820       -3119.035           0.166  
G07  23588110.400     -268003.526       -4093.189           0.140  
G09  23064990.870     -264764.151       -4170.732           0.145  
> 2023 05 18 00 01 23.0688020  0  7                     
G02  24435029.478       14842.898         215.207           0.130  
G03  22321688.730     -214293.648       -3169.722           0.153  
G04  23827967.676     -326881.586       -4869.994           0.136  
G05  22550300.310      -47664.236        -717.007           0.150  
G06  20673254.116     -206799.726       -3121.112           0.165  
G07  23588217.811     -268412.739       -4090.871           0.139  
G09  23065099.426     -265180.999       -4167.872           0.146  
> 2023 05 18 00 01 23.1688020  0  7                     
G02  24435021.494       14864.490         213.644           0.132  
G03  22321767.371     -214610.680       -3169.859           0.153  
G04  23828086.926     -327368.643       -4870.426           0.136  
G05  22550319.553      -47735.812        -715.605           0.150  
G06  20673335.923     -207111.630       -3120.947           0.167  
G07  23588323.385     -268821.938       -4092.393           0.140  
G09  23065211.109     -265597.895       -4169.450           0.144  
> 2023 05 18 00 01 23.2688020  0  7                     
G02  24435014.923       14886.171         219.984           0.131  
G03  22321842.242     -214927.698       -3168.088           0.152  
G04  23828210.050     -327855.648       -4868.707           0.137  
G05  22550335.690      -47807.393        -713.283           0.150  
G06  20673414.220     -207423.518       -3119.145           0.167  
G07  23588424.237     -269231.136       -4093.051           0.139  
G09  23065324.124     -266014.742       -4167.999           0.143  
> 2023 05 18 00 01 23.3688020  0  7                     
G02  24435011.233       14907.773         215.844           0.131  
G03  22321924.796     -215244.744       -3173.243           0.153  
G04  23828336.470     -328342.680       -4871.541           0.136  
G05  22550356.280      -47879.001        -715.664           0.150  
G06  20673492.587     -207735.413       -3119.026           0.167  
G07  23588528.859     -269640.370       -4093.849           0.140  
G09  23065429.908     -266431.594       -4167.392           0.141  
> 2023 05 18 00 01 23.4688020  0  7                     
G02  24435005.134       14929.404         216.470           0.131  
G03  22322011.322     -215561.746       -3172.575           0.154  
G04  23828458.601     -328829.705       -4870.209           0.136  
G05  22550372.031      -47950.335        -696.053           0.151  
G06  20673571.110     -208047.316       -3119.253           0.167  
G07  23588633.233     -270049.549       -4091.335           0.139  
G09  23065531.393     -266848.675       -4229.365           0.143  
> 2023 05 18 00 01 23.5688020  0  7                     
G02  24435000.085       14950.939         214.880           0.132  
G03  22322098.482     -215878.843       -3172.365           0.154  
G04  23828582.004     -329316.817       -4869.773           0.136  
G05  22550390.086      -48022.295        -717.306           0.152  
G06  20673651.700     -208359.307       -3119.230           0.168  
G07  23588733.358     -270458.874       -4093.379           0.140  
G09  23065626.102     -267265.399       -4171.021           0.144  
> 2023 05 18 00 01 23.6688020  0  7                     
G02  24434995.945       14972.471         216.414           0.131  
G03  22322181.467     -216195.974       -3170.665           0.155  
G04  23828704.775     -329804.003       -4870.601           0.137  
G05  22550408.422      -48093.979        -713.696           0.150  
G06  20673730.438     -208671.344       -3119.376           0.168  
G07  23588837.524     -270868.214       -4089.547           0.140  
G09  23065731.625     -267682.387       -4168.188           0.145  
> 2023 05 18 00 01 23.7688020  0  7                     
G02  24434989.627       14993.988         217.935           0.131  
G03  22322255.473     -216513.109       -3169.259           0.154  
G04  23828830.014     -330291.159       -4871.252           0.137  
G05  22550425.472      -48165.693        -716.341           0.153  
G06  20673808.817     -208983.347       -3118.341           0.167  
G07  23588945.359     -271277.531       -4092.778           0.139  
G09  23065846.654     -268099.375       -4169.780           0.144  
> 2023 05 18 00 01 23.8688020  0  7                     
G02  24434981.134       15015.597         219.353           0.132  
G03  22322330.321     -216830.190       -3169.521           0.154  
G04  23828952.837     -330778.230       -4869.643           0.137  
G05  22550444.606      -48237.372        -715.912           0.149  
G06  20673888.925     -209295.340       -3120.025           0.167  
G07  23589050.055     -271686.785       -4089.575           0.139  
G09  23065960.544     -268516.280       -4167.668           0.144  
> 2023 05 18 00 01 23.9688020  0  7                     
G02  24434972.593       15037.190         217.362           0.131  
G03  22322407.235     -217147.270       -3170.441           0.154  
G04  23829078.335     -331265.257       -4870.891           0.136  
G05  22550459.706      -48308.986        -718.093           0.150  
G06  20673966.850     -209607.260       -3119.921           0.167  
G07  23589154.614     -272096.061       -4095.395           0.139  
G09  23066071.510     -268933.156       -4168.046           0.144  
> 2023 05 18 00 01 24.0688020  0  7                     
G02  24434967.440       15058.719         213.180           0.132  
G03  22322495.784     -217464.402       -3172.553           0.153  
G04  23829200.317     -331752.399       -4873.514           0.136  
G05  22550480.724      -48380.664        -717.434           0.149  
G06  20674046.794     -209919.271       -3120.646           0.167  
G07  23589258.631     -272505.368       -4096.696           0.139  
G09  23066169.731     -269350.110       -4169.538           0.144  
> 2023 05 18 00 01 24.1688020  0  7                     
G02  24434966.301       15080.247         212.977           0.131  
G03  22322575.822     -217781.557       -3173.053           0.154  
G04  23829325.912     -332239.500       -4871.389           0.137  
G05  22550495.802      -48452.410        -717.121           0.152  
G06  20674125.012     -210231.309       -3121.623           0.167  
G07  23589363.116     -272914.694       -4093.573           0.138  
G09  23066262.476     -269767.082       -4170.331           0.144  
> 2023 05 18 00 01 24.2688020  0  7                     
G02  24434958.517       15101.651         214.655           0.131  
G03  22322657.923     -218098.833       -3172.262           0.153  
G04  23829450.697     -332726.760       -4872.447           0.136  
G05  22550515.961      -48524.252        -717.267           0.150  
G06  20674205.766     -210543.445       -3119.698           0.167  
G07  23589465.895     -273324.200       -4096.057           0.139  
G09  23066369.803     -270184.159       -4171.688           0.143  
> 2023 05 18 00 01 24.3688020  0  7                     
G02  24434950.365       15123.114         213.659           0.131  
G03  22322735.434     -218416.076       -3171.946           0.153  
G04  23829574.884     -333213.986       -4871.501           0.136  
G05  22550535.090      -48596.038        -719.250           0.150  
G06  20674284.944     -210855.570       -3119.476           0.167  
G07  23589570.557     -273733.613       -4097.876           0.140  
G09  23066487.112     -270601.212       -4171.759           0.143  
> 2023 05 18 00 01 24.4688020  0  7                     
G02  24434946.402       15144.583         216.923           0.131  
G03  22322811.867     -218733.297       -3171.416           0.155  
G04  23829700.502     -333701.183       -4871.747           0.136  
G05  22550552.712      -48667.818        -716.960           0.151  
G06  20674364.176     -211167.703       -3118.740           0.167  
G07  23589674.234     -274142.975       -4092.544           0.138  
G09  23066596.723     -271018.251       -4170.779           0.146  
> 2023 05 18 00 01 24.5688020  0  7                     
G02  24434941.265       15166.142         216.313           0.131  
G03  22322893.667     -219050.401       -3171.129           0.155  
G04  23829823.971     -334188.271       -4869.880           0.136  
G05  22550573.662      -48739.488        -717.375           0.150  
G06  20674443.417     -211479.695       -3119.612           0.167  
G07  23589776.656     -274552.273       -4091.181           0.139  
G09  23066703.829     -271435.172       -4169.738           0.146  
> 2023 05 18 00 01 24.6688020  0  7                     
G02  24434935.733       15187.789         214.915           0.132  
G03  22322977.686     -219367.174       -3235.074           0.153  
G04  23829946.210     -334675.309       -4873.336           0.136  
G05  22550588.598      -48810.456        -595.473           0.151  
G06  20674522.121     -211791.637       -3120.738           0.166  
G07  23589880.717     -274961.515       -4094.804           0.140  
G09  23066807.404     -271852.036       -4172.631           0.143  
> 2023 05 18 00 01 24.7688020  0  7                     
G02  24434931.455       15209.402         217.255           0.131  
G03  22323060.916     -219684.568       -3171.461           0.151  
G04  23830072.978     -335162.353       -4870.461           0.136  
G05  22550607.184      -48882.744        -714.395           0.151  
G06  20674602.723     -212103.608       -3120.524           0.167  
G07  23589987.644     -275370.787       -4090.766           0.140  
G09  23066908.624     -272268.925       -4169.335           0.141  
> 2023 05 18 00 01 24.8688020  0  7                     
G02  24434924.360       15230.942         216.522           0.132  
G03  22323141.451     -220001.755       -3173.400           0.153  
G04  23830196.414     -335649.471       -4869.508           0.136  
G05  22550624.003      -48954.477        -718.541           0.151  
G06  20674681.092     -212415.655       -3119.608           0.167  
G07  23590091.342     -275780.115       -4091.831           0.140  
G09  23067010.357     -272685.836       -4168.450           0.143  
> 2023 05 18 00 01 24.9688020  0  7                     
G02  24434919.302       15252.515         214.583           0.131  
G03  22323220.947     -220318.895       -3171.891           0.155  
G04  23830321.326     -336136.598       -4869.828           0.137  
G05  22550642.381      -49026.157        -714.934           0.151  
G06  20674763.477     -212727.675       -3119.799           0.167  
G07  23590195.433     -276189.422       -4090.843           0.139  
G09  23067124.336     -273102.804       -4168.517           0.145  
> 2023 05 18 00 01 25.0688020  0  7                     
G02  24434914.561       15274.178         218.762           0.132  
G03  22323299.086     -220635.525       -3092.836           0.155  
G04  23830443.213     -336623.593       -4867.218           0.136  
G05  22550661.741      -49097.103        -715.367           0.151  
G06  20674838.807     -213039.582       -3118.429           0.167  
G07  23590297.886     -276598.227       -4058.586           0.140  
G09  23067235.946     -273519.293       -4084.898           0.146  
> 2023 05 18 00 01 25.1688020  0  7                     
G02  24434909.608       15295.967         219.975           0.131  
G03  22323381.362     -220952.881       -3169.766           0.155  
G04  23830565.919     -337110.473       -4868.871           0.136  
G05  22550678.861      -49169.220        -714.646           0.150  
G06  20674918.570     -213351.394       -3117.040           0.167  
G07  23590402.946     -277007.720       -4091.080           0.139  
G09  23067332.512     -273936.361       -4163.110           0.143  
> 2023 05 18 00 01 25.2688020  0  7                     
G02  24434901.260       15317.712         214.458           0.130  
G03  22323462.833     -221269.850       -3169.658           0.153  
G04  23830688.986     -337597.406       -4870.127           0.137  
G05  22550698.441      -49240.710        -712.620           0.149  
G06  20674994.990     -213663.236       -3118.840           0.167  
G07  23590507.112     -277416.848       -4090.531           0.140  
G09  23067434.615     -274353.086       -4167.359           0.140  
> 2023 05 18 00 01 25.3688020  0  7                     
G02  24434894.901       15339.454         216.903           0.130  
G03  22323543.910     -221586.841       -3167.817           0.153  
G04  23830813.349     -338084.351       -4870.266           0.137  
G05  22550714.653      -49312.261        -713.721           0.149  
G06  20675078.355     -213975.110       -3119.440           0.167  
G07  23590612.697     -277826.040       -4092.483           0.139  
G09  23067544.075     -274769.873       -4168.511           0.142  
> 2023 05 18 00 01 25.4688020  0  7                     
G02  24434893.047       15361.113         215.620           0.131  
G03  22323617.713     -221903.931       -3170.529           0.155  
G04  23830936.716     -338571.345       -4869.830           0.137  
G05  22550732.830      -49383.877        -716.325           0.150  
G06  20675156.474     -214287.057       -3122.192           0.166  
G07  23590719.907     -278235.272       -4093.083           0.140  
G09  23067654.213     -275186.736       -4168.001           0.146  
> 2023 05 18 00 01 25.5688020  0  7                     
G02  24434888.668       15382.652         215.596           0.131  
G03  22323700.854     -222221.151       -3172.911           0.154  
G04  23831058.898     -339058.498       -4873.421           0.136  
G05  22550750.282      -49455.604        -717.831           0.151  
G06  20675238.135     -214599.134       -3122.445           0.166  
G07  23590819.202     -278644.613       -4092.158           0.139  
G09  23067752.499     -275603.713       -4168.084           0.145  
> 2023 05 18 00 01 25.6688020  0  7                     
G02  24434879.999       15404.213         216.236           0.132  
G03  22323783.973     -222538.361       -3172.439           0.152  
G04  23831186.746     -339545.637       -4872.475           0.137  
G05  22550770.593      -49527.341        -715.573           0.151  
G06  20675316.242     -214911.200       -3119.609           0.167  
G07  23590920.850     -279053.965       -4091.145           0.140  
G09  23067861.272     -276020.663       -4166.493           0.142  
> 2023 05 18 00 01 25.7688020  0  7                     
G02  24434873.497       15425.662         212.750           0.130  
G03  22323865.657     -222855.663       -3175.509           0.153  
G04  23831310.399     -340032.819       -4873.521           0.136  
G05  22550787.795      -49599.148        -719.414           0.151  
G06  20675395.898     -215223.346       -3123.101           0.168  
G07  23591024.551     -279463.400       -4094.671           0.140  
G09  23067964.341     -276437.705       -4172.558           0.143  
> 2023 05 18 00 01 25.8688020  0  7                     
G02  24434868.022       15447.013         212.942           0.132  
G03  22323947.399     -223173.035       -3175.052           0.156  
G04  23831433.260     -340520.134       -4872.605           0.137  
G05  22550803.611      -49671.089        -719.685           0.150  
G06  20675476.100     -215535.614       -3123.828           0.167  
G07  23591128.085     -279872.941       -4095.911           0.140  
G09  23068066.104     -276854.877       -4172.979           0.145  
> 2023 05 18 00 01 25.9688020  0  7                     
G02  24434865.957       15468.379         212.516           0.132  
G03  22324028.194     -223490.405       -3173.238           0.156  
G04  23831554.818     -341007.440       -4871.488           0.137  
G05  22550824.079      -49742.995        -720.510           0.152  
G06  20675554.106     -215847.857       -3122.667           0.167  
G07  23591235.583     -280282.466       -4091.915           0.140  
G09  23068175.364     -277272.019       -4170.199           0.147  
> 2023 05 18 00 01 26.0688020  0  7                     
G02  24434854.621       15489.746         211.193           0.131  
G03  22324104.880     -223807.850       -3174.858           0.152  
G04  23831679.136     -341494.771       -4873.410           0.137  
G05  22550841.698      -49814.926        -719.969           0.149  
G06  20675634.855     -216160.120       -3123.286           0.167  
G07  23591337.533     -280692.063       -4096.601           0.140  
G09  23068293.333     -277689.158       -4171.350           0.142  
> 2023 05 18 00 01 26.1688020  0  7                     
G02  24434850.163       15511.117         216.707           0.132  
G03  22324183.218     -224125.448       -3273.725           0.153  
G04  23831804.121     -341982.080       -4870.304           0.137  
G05  22550859.563      -49886.524        -735.934           0.152  
G06  20675711.864     -216472.380       -3122.451           0.167  
G07  23591445.568     -281101.941       -4154.879           0.140  
G09  23068395.824     -278106.037       -4169.028           0.142  
> 2023 05 18 00 01 26.2688020  0  7                     
G02  24434843.474       15532.595         215.301           0.132  
G03  22324270.786     -224442.548       -3172.737           0.155  
G04  23831928.725     -342469.277       -4872.110           0.137  
G05  22550876.481      -49958.649        -718.011           0.150  
G06  20675793.119     -216784.503       -3121.698           0.167  
G07  23591545.056     -281511.034       -4094.523           0.140  
G09  23068495.222     -278523.338       -4171.671           0.146  
> 2023 05 18 00 01 26.3688020  0  7                     
G02  24434838.323       15554.266         220.626           0.130  
G03  22324350.535     -224759.662       -3171.162           0.154  
G04  23832057.129     -342956.331       -4867.186           0.137  
G05  22550895.109      -50030.263        -715.367           0.150  
G06  20675870.862     -217096.483       -3119.378           0.167  
G07  23591651.920     -281920.282       -4089.525           0.139  
G09  23068605.727     -278940.189       -4169.064           0.144  
> 2023 05 18 00 01 26.4688020  0  7                     
G02  24434831.205       15576.145         216.862           0.131  
G03  22324423.902     -225076.589       -3169.291           0.153  
G04  23832176.727     -343443.147       -4868.173           0.137  
G05  22550914.463      -50101.697        -713.695           0.153  
G06  20675949.892     -217408.244       -3117.834           0.167  
G07  23591755.233     -282329.349       -4087.790           0.139  
G09  23068718.080     -279356.796       -4164.524           0.142  
> 2023 05 18 00 01 26.5688020  0  7                     
G02  24434828.287       15598.049         217.818           0.132  
G03  22324507.268     -225393.458       -3167.083           0.155  
G04  23832299.725     -343929.932       -4867.929           0.137  
G05  22550930.416      -50173.094        -714.872           0.149  
G06  20676027.473     -217719.973       -3116.409           0.168  
G07  23591862.183     -282738.386       -4090.563           0.140  
G09  23068819.107     -279773.421       -4166.576           0.145  
> 2023 05 18 00 01 26.6688020  0  7                     
G02  24434820.637       15619.937         219.053           0.132  
G03  22324591.762     -225710.355       -3168.068           0.156  
G04  23832422.168     -344416.726       -4869.453           0.137  
G05  22550950.247      -50244.493        -713.760           0.152  
G06  20676109.898     -218031.747       -3117.427           0.168  
G07  23591964.708     -283147.420       -4090.940           0.140  
G09  23068918.341     -280190.083       -4166.990           0.146  
> 2023 05 18 00 01 26.7688020  0  7                     
G02  24434814.921       15641.725         216.731           0.132  
G03  22324669.487     -226027.393       -3170.045           0.153  
G04  23832549.746     -344903.601       -4867.696           0.138  
G05  22550966.289      -50316.045        -715.132           0.151  
G06  20676187.108     -218343.611       -3118.475           0.168  
G07  23592067.151     -283556.570       -4092.318           0.140  
G09  23069030.663     -280606.781       -4166.249           0.143  
> 2023 05 18 00 01 26.8688020  0  7                     
G02  24434808.352       15663.432         216.898           0.132  
G03  22324748.472     -226344.486       -3170.786           0.154  
G04  23832672.190     -345390.603       -4869.665           0.137  
G05  22550985.962      -50387.615        -715.241           0.151  
G06  20676267.351     -218655.568       -3119.085           0.168  
G07  23592172.346     -283965.811       -4095.203           0.140  
G09  23069138.586     -281023.597       -4169.002           0.144  
> 2023 05 18 00 01 26.9688020  0  7                     
G02  24434800.891       15685.119         216.959           0.133  
G03  22324834.847     -226661.625       -3172.542           0.156  
G04  23832796.605     -345877.614       -4868.111           0.136  
G05  22551003.770      -50459.247        -715.138           0.153  
G06  20676346.155     -218967.554       -3119.636           0.167  
G07  23592275.855     -284375.059       -4094.759           0.140  
G09  23069242.601     -281440.439       -4168.705           0.146  
> 2023 05 18 00 01 27.0688020  0  7                     
G02  24434797.884       15706.762         213.603           0.132  
G03  22324911.965     -226978.763       -3172.276           0.154  
G04  23832917.960     -346364.605       -4867.995           0.136  
G05  22551023.048      -50530.887        -715.938           0.150  
G06  20676426.128     -219279.532       -3121.239           0.167  
G07  23592378.682     -284784.327       -4094.395           0.140  
G09  23069351.064     -281857.273       -4168.000           0.144  
> 2023 05 18 00 01 27.1688020  0  7                     
G02  24434795.215       15728.395         217.241           0.131  
G03  22324995.123     -227295.942       -3172.493           0.153  
G04  23833043.906     -346851.672       -4869.250           0.138  
G05  22551041.994      -50602.549        -717.581           0.151  
G06  20676506.763     -219591.568       -3121.888           0.168  
G07  23592485.300     -285193.636       -4093.367           0.139  
G09  23069454.554     -282274.164       -4169.302           0.143  
> 2023 05 18 00 01 27.2688020  0  7                     
G02  24434790.975       15750.018         217.501           0.133  
G03  22325074.777     -227613.150       -3171.852           0.155  
G04  23833166.607     -347338.771       -4870.251           0.137  
G05  22551056.393      -50674.265        -715.923           0.152  
G06  20676584.666     -219903.636       -3119.958           0.168  
G07  23592590.492     -285602.988       -4094.946           0.141  
G09  23069556.865     -282691.070       -4167.396           0.145  
> 2023 05 18 00 01 27.3688020  0  7                     
G02  24434783.784       15771.637         217.059           0.132  
G03  22325155.093     -227930.361       -3172.052           0.155  
G04  23833289.535     -347825.859       -4871.332           0.137  
G05  22551076.980      -50745.992        -717.297           0.149  
G06  20676665.886     -220215.682       -3120.294           0.168  
G07  23592692.712     -286012.292       -4091.917           0.140  
G09  23069669.395     -283108.002       -4170.523           0.145  
> 2023 05 18 00 01 27.4688020  0  7                     
G02  24434774.939       15793.269         218.223           0.132  
G03  22325231.490     -228247.569       -3170.362           0.153  
G04  23833414.803     -348312.900       -4868.664           0.136  
G05  22551094.201      -50817.676        -718.070           0.153  
G06  20676740.734     -220527.731       -3120.958           0.167  
G07  23592794.756     -286421.631       -4090.530           0.140  
G09  23069774.597     -283524.875       -4168.261           0.142  
> 2023 05 18 00 01 27.5688020  0  7                     
G02  24434769.448       15814.878         216.031           0.132  
G03  22325316.921     -228564.792       -3170.085           0.153  
G04  23833539.858     -348799.975       -4869.779           0.136  
G05  22551113.969      -50889.376        -717.624           0.151  
G06  20676821.085     -220839.781       -3119.814           0.167  
G07  23592902.398     -286830.955       -4093.090           0.139  
G09  23069874.755     -283941.800       -4170.507           0.144  
> 2023 05 18 00 01 27.6688020  0  7                     
G02  24434762.276       15836.588         216.293           0.131  
G03  22325394.515     -228881.907       -3170.548           0.154  
G04  23833665.638     -349286.961       -4869.203           0.136  
G05  22551129.666      -50960.956        -715.684           0.150  
G06  20676899.435     -221151.739       -3117.696           0.167  
G07  23593004.179     -287240.199       -4094.310           0.138  
G09  23069982.810     -284358.585       -4167.372           0.145  
> 2023 05 18 00 01 27.7688020  0  7                     
G02  24434759.469       15858.343         216.119           0.131  
G03  22325476.235     -229199.022       -3172.904           0.153  
G04  23833786.161     -349773.886       -4869.811           0.137  
G05  22551148.666      -51032.542        -716.963           0.152  
G06  20676981.662     -221463.686       -3121.462           0.167  
G07  23593108.188     -287649.393       -4092.805           0.139  
G09  23070090.940     -284775.368       -4168.194           0.143  
> 2023 05 18 00 01 27.8688020  0  7                     
G02  24434753.028       15880.006         215.680           0.131  
G03  22325559.585     -229516.179       -3171.770           0.153  
G04  23833911.490     -350260.885       -4868.855           0.136  
G05  22551166.165      -51104.186        -714.918           0.149  
G06  20677060.251     -221775.679       -3120.021           0.166  
G07  23593213.770     -288058.923       -4169.764           0.140  
G09  23070192.865     -285192.196       -4166.944           0.143  
> 2023 05 18 00 01 27.9688020  0  7                     
G02  24434750.393       15901.795         216.478           0.131  
G03  22325636.228     -229833.238       -3169.199           0.154  
G04  23834035.339     -350747.849       -4869.679           0.136  
G05  22551183.976      -51175.718        -715.206           0.151  
G06  20677140.301     -222087.586       -3117.760           0.167  
G07  23593314.615     -288467.890       -4092.080           0.140  
G09  23070301.091     -285608.947       -4165.730           0.144  
> 2023 05 18 00 01 28.0688020  0  7                     
G02  24434744.234       15923.725         218.002           0.130  
G03  22325716.610     -230150.199       -3167.026           0.154  
G04  23834159.392     -351234.665       -4868.558           0.136  
G05  22551202.218      -51247.175        -713.194           0.153  
G06  20677216.913     -222399.395       -3116.995           0.167  
G07  23593418.490     -288876.965       -4090.588           0.140  
G09  23070409.724     -286025.597       -4166.631           0.144  
> 2023 05 18 00 01 28.1688020  0  7                     
G02  24434736.866       15945.689         217.973           0.132  
G03  22325800.277     -230467.111       -3170.696           0.154  
G04  23834282.772     -351721.387       -4865.558           0.137  
G05  22551219.023      -51318.898        -759.083           0.149  
G06  20677298.121     -222711.131       -3118.035           0.167  
G07  23593524.330     -289285.697       -4152.241           0.141  
G09  23070509.098     -286442.173       -4166.722           0.144  
> 2023 05 18 00 01 28.2688020  0  7                     
G02  24434728.854       15967.658         221.979           0.131  
G03  22325879.159     -230784.032       -3170.540           0.154  
G04  23834409.343     -352208.120       -4866.653           0.137  
G05  22551236.041      -51389.932        -714.377           0.150  
G06  20677378.442     -223022.874       -3116.389           0.166  
G07  23593631.064     -289694.997       -4092.415           0.140  
G09  23070619.017     -286858.731       -4163.485           0.144  
> 2023 05 18 00 01 28.3688020  0  7                     
G02  24434724.601       15988.543         202.754           0.129  
G03  22325957.056     -231101.971       -3188.876           0.153  
G04  23834528.596     -352695.915       -4886.254           0.135  
G05  22551255.615      -51462.371        -734.159           0.150  
G06  20677456.711     -223335.640       -3135.635           0.166  
G07  23593734.607     -290105.059       -4110.927           0.137  
G09  23070725.991     -287276.376       -4185.216           0.142  
> 2023 05 18 00 01 28.4688020  0  7                     
G02  24434719.802       16009.283         212.383           0.130  
G03  22326039.055     -231420.114       -3177.574           0.153  
G04  23834654.996     -353183.886       -4876.682           0.135  
G05  22551276.265      -51534.952        -721.912           0.148  
G06  20677537.082     -223648.608       -3124.885           0.167  
G07  23593837.447     -290515.289       -4097.643           0.138  
G09  23070828.587     -287694.155       -4172.051           0.143  
> 2023 05 18 00 01 28.5688020  0  7                     
G02  24434713.624       16030.762         213.783           0.131  
G03  22326120.638     -231737.507       -3173.211           0.153  
G04  23834779.470     -353671.098       -4872.070           0.136  
G05  22551294.182      -51606.792        -719.171           0.152  
G06  20677615.299     -223960.833       -3121.501           0.166  
G07  23593943.873     -290924.791       -4095.413           0.139  
G09  23070936.957     -288111.209       -4170.643           0.143  
> 2023 05 18 00 01 28.6688020  0  7                     
G02  24434710.461       16052.204         215.850           0.131  
G03  22326201.630     -232054.944       -3172.068           0.154  
G04  23834903.305     -354158.374       -4872.022           0.136  
G05  22551310.892      -51678.724        -718.198           0.151  
G06  20677694.838     -224273.122       -3120.769           0.166  
G07  23594043.442     -291334.333       -4092.350           0.139  
G09  23071043.876     -288528.297       -4168.697           0.143  
> 2023 05 18 00 01 28.7688020  0  7                     
G02  24434701.704       16073.808         216.422           0.130  
G03  22326284.903     -232372.232       -3171.825           0.153  
G04  23835028.652     -354645.496       -4871.673           0.136  
G05  22551330.273      -51750.467        -715.849           0.148  
G06  20677772.396     -224585.222       -3120.260           0.166  
G07  23594148.557     -291743.727       -4092.782           0.139  
G09  23071148.482     -288945.235       -4168.145           0.143  
> 2023 05 18 00 01 28.8688020  0  7                     
G02  24434695.099       16095.467         218.222           0.132  
G03  22326361.879     -232689.485       -3171.866           0.154  
G04  23835149.487     -355132.566       -4871.137           0.136  
G05  22551346.398      -51822.170        -716.025           0.152  
G06  20677854.000     -224897.305       -3119.823           0.166  
G07  23594256.285     -292153.066       -4093.476           0.139  
G09  23071257.177     -289362.123       -4167.966           0.144  
> 2023 05 18 00 01 28.9688020  0  7                     
G02  24434690.920       16117.262         218.771           0.131  
G03  22326444.138     -233006.564       -3171.797           0.153  
G04  23835275.882     -355619.443       -4867.736           0.136  
G05  22551364.940      -51894.326        -751.258           0.150  
G06  20677931.746     -225209.215       -3118.329           0.166  
G07  23594357.923     -292562.216       -4091.648           0.139  
G09  23071361.174     -289779.256       -4133.362           0.143  
> 2023 05 18 00 01 29.0688020  0  7                     
G02  24434685.432       16138.749         206.214           0.130  
G03  22326525.676     -233323.979       -3180.972           0.152  
G04  23835396.087     -356106.653       -4876.592           0.135  
G05  22551384.050      -51965.572        -725.335           0.147  
G06  20678012.685     -225521.447       -3129.125           0.166  
G07  23594461.802     -292971.724       -4099.529           0.137  
G09  23071467.011     -290195.881       -4176.930           0.142  
> 2023 05 18 00 01 29.1688020  0  7                     
G02  24434678.003       16159.065         202.925           0.130  
G03  22326606.977     -233642.553       -3186.637           0.153  
G04  23835522.265     -356595.025       -4882.528           0.135  
G05  22551400.546      -52038.588        -731.089           0.152  
G06  20678089.291     -225834.850       -3134.804           0.165  
G07  23594566.708     -293382.434       -4110.006           0.138  
G09  23071573.308     -290614.108       -4182.917           0.143  
> 2023 05 18 00 01 29.2688020  0  7                     
G02  24434673.824       16179.453         201.717           0.130  
G03  22326686.396     -233961.083       -3184.642           0.153  
G04  23835644.151     -357083.340       -4880.727           0.135  
G05  22551419.689      -52111.591        -730.542           0.150  
G06  20678170.812     -226148.201       -3133.412           0.165  
G07  23594669.664     -293793.017       -4108.339           0.139  
G09  23071684.681     -291032.269       -4182.780           0.143  
> 2023 05 18 00 01 29.3688020  0  7                     
G02  24434662.883       16200.385         213.730           0.130  
G03  22326770.292     -234279.076       -3174.928           0.152  
G04  23835769.339     -357571.150       -4873.710           0.135  
G05  22551438.190      -52184.016        -719.244           0.147  
G06  20678249.249     -226461.032       -3125.168           0.165  
G07  23594772.406     -294203.083       -4094.063           0.137  
G09  23071784.507     -291449.865       -4171.414           0.142  
> 2023 05 18 00 01 29.4688020  0  7                     
G02  24434660.729       16222.108         222.887           0.130  
G03  22326847.025     -234596.277       -3168.599           0.152  
G04  23835894.219     -358058.141       -4868.340           0.135  
G05  22551457.898      -52255.670        -712.487           0.151  
G06  20678330.870     -226773.050       -3118.222           0.166  
G07  23594875.933     -294612.387       -4085.711           0.138  
G09  23071891.657     -291866.683       -4164.228           0.144  
> 2023 05 18 00 01 29.5688020  0  7                     
G02  24434653.152       16243.778         212.849           0.131  
G03  22326928.808     -234913.527       -3177.323           0.153  
G04  23836017.298     -358545.177       -4874.849           0.135  
G05  22551474.636      -52327.367        -721.711           0.151  
G06  20678410.329     -227085.098       -3125.479           0.167  
G07  23594985.057     -295021.712       -4098.219           0.139  
G09  23071998.251     -292283.532       -4170.782           0.143  
> 2023 05 18 00 01 29.6688020  0  7                     
G02  24434645.927       16265.274         217.644           0.133  
G03  22327008.450     -235230.982       -3173.581           0.155  
G04  23836142.516     -359032.391       -4871.209           0.136  
G05  22551493.255      -52399.276        -720.247           0.150  
G06  20678489.855     -227397.371       -3120.533           0.169  
G07  23595090.469     -295431.247       -4095.106           0.140  
G09  23072104.649     -292700.611       -4169.847           0.144  
> 2023 05 18 00 01 29.7688020  0  7                     
G02  24434647.579       16287.242         224.229           0.133  
G03  22327089.498     -235547.924       -3165.962           0.156  
G04  23836268.436     -359519.152       -4866.479           0.140  
G05  22551506.728      -52470.629        -711.010           0.154  
G06  20678569.168     -227709.138       -3114.549           0.169  
G07  23595195.719     -295840.273       -4085.872           0.141  
G09  23072209.565     -293117.170       -4161.554           0.146  
> 2023 05 18 00 01 29.8688020  0  7                     
G02  24434642.458       16309.576         223.375           0.135  
G03  22327172.536     -235864.555       -3164.921           0.156  
G04  23836390.461     -360005.557       -4865.739           0.140  
G05  22551526.527      -52541.697        -709.488           0.155  
G06  20678646.330     -228020.590       -3115.072           0.169  
G07  23595297.943     -296248.996       -4085.911           0.142  
G09  23072316.453     -293533.413       -4163.257           0.146  
> 2023 05 18 00 01 29.9688020  0  7                     
G02  24434634.633       16331.970         221.460           0.135  
G03  22327251.556     -236181.075       -3164.554           0.157  
G04  23836514.118     -360491.833       -4865.030           0.140  
G05  22551547.515      -52612.640        -709.949           0.152  
G06  20678727.717     -228331.914       -3114.291           0.170  
G07  23595399.612     -296657.616       -4087.722           0.143  
G09  23072421.954     -293949.514       -4160.128           0.147  
> 2023 05 18 00 01 30.0688020  0  7                     
G02  24434628.187       16354.385         225.088           0.135  
G03  22327334.139     -236497.645       -3166.835           0.158  
G04  23836637.624     -360978.187       -4864.958           0.140  
G05  22551563.223      -52683.664        -711.999           0.152  
G06  20678804.523     -228643.289       -3114.473           0.170  
G07  23595503.882     -297066.227       -4085.153           0.143  
G09  23072530.617     -294365.701       -4162.171           0.147  
> 2023 05 18 00 01 30.1688020  0  7                     
G02  24434623.081       16376.696         225.414           0.134  
G03  22327413.466     -236814.281       -3165.463           0.158  
G04  23836759.475     -361464.613       -4863.987           0.140  
G05  22551582.759      -52754.728        -712.769           0.153  
G06  20678885.373     -228954.751       -3113.688           0.171  
G07  23595606.007     -297474.703       -4154.837           0.143  
G09  23072636.489     -294781.764       -4086.596           0.146  
> 2023 05 18 00 01 30.2688020  0  7                     
G02  24434617.536       16398.942         222.017           0.134  
G03  22327493.105     -237130.970       -3164.832           0.158  
G04  23836885.442     -361951.076       -4864.393           0.141  
G05  22551599.429      -52825.827        -710.414           0.154  
G06  20678963.777     -229266.264       -3113.435           0.171  
G07  23595710.578     -297884.349       -4177.049           0.142  
G09  23072741.087     -295198.232       -4161.796           0.148  
> 2023 05 18 00 01 30.3688020  0  7                     
G02  24434609.608       16421.158         220.480           0.135  
G03  22327572.058     -237447.755       -3170.228           0.157  
G04  23837009.440     -362437.557       -4864.254           0.141  
G05  22551617.970      -52897.026        -711.662           0.154  
G06  20679043.416     -229577.832       -3115.838           0.170  
G07  23595813.546     -298292.553       -4088.733           0.143  
G09  23072845.219     -295614.572       -4161.924           0.147  
> 2023 05 18 00 01 30.4688020  0  7                     
G02  24434606.412       16443.245         220.421           0.135  
G03  22327650.791     -237764.630       -3170.427           0.157  
G04  23837134.531     -362924.234       -4868.685           0.140  
G05  22551635.233      -52968.321        -712.982           0.152  
G06  20679120.457     -229889.527       -3118.340           0.171  
G07  23595918.473     -298701.505       -4090.417           0.144  
G09  23072954.144     -296031.023       -4164.705           0.148  
> 2023 05 18 00 01 30.5688020  0  7                     
G02  24434601.127       16465.189         220.551           0.135  
G03  22327731.012     -238081.644       -3170.228           0.158  
G04  23837255.997     -363410.980       -4866.472           0.140  
G05  22551652.118      -53039.741        -713.550           0.155  
G06  20679200.512     -230201.333       -3117.744           0.171  
G07  23596024.171     -299110.569       -4089.788           0.142  
G09  23073061.063     -296447.629       -4166.541           0.148  
> 2023 05 18 00 01 30.6688020  0  7                     
G02  24434596.264       16487.092         217.892           0.134  
G03  22327813.709     -238398.960       -3152.090           0.158  
G04  23837380.804     -363897.781       -4868.237           0.140  
G05  22551670.880      -53111.201        -715.157           0.154  
G06  20679282.251     -230513.173       -3117.684           0.171  
G07  23596128.702     -299519.843       -4164.749           0.143  
G09  23073163.319     -296864.237       -4168.082           0.147  
> 2023 05 18 00 01 30.7688020  0  7                     
G02  24434588.923       16509.028         215.710           0.134  
G03  22327896.930     -238715.727       -3169.618           0.158  
G04  23837503.561     -364384.585       -4868.477           0.140  
G05  22551687.826      -53182.686        -712.589           0.154  
G06  20679359.141     -230825.062       -3119.701           0.170  
G07  23596232.430     -299928.812       -4092.525           0.143  
G09  23073267.415     -297280.900       -4169.651           0.148  
> 2023 05 18 00 01 30.8688020  0  7                     
G02  24434582.598       16530.823         216.403           0.135  
G03  22327975.686     -239032.939       -3170.243           0.156  
G04  23837626.029     -364871.527       -4870.518           0.140  
G05  22551708.809      -53254.289        -715.924           0.153  
G06  20679438.908     -231137.049       -3121.796           0.169  
G07  23596335.552     -300338.067       -4094.880           0.142  
G09  23073376.741     -297697.639       -4169.169           0.146  
> 2023 05 18 00 01 30.9688020  0  7                     
G02  24434577.324       16552.574         216.821           0.135  
G03  22328056.600     -239349.841       -3086.906           0.156  
G04  23837751.236     -365358.486       -4868.192           0.139  
G05  22551724.541      -53325.469        -694.509           0.154  
G06  20679517.278     -231449.092       -3120.606           0.169  
G07  23596441.146     -300747.426       -4216.152           0.142  
G09  23073482.356     -298114.439       -4167.792           0.146  
> 2023 05 18 00 01 31.0688020  0  7                     
G02  24434570.309       16574.540         219.010           0.134  
G03  22328138.496     -239666.455       -3093.597           0.156  
G04  23837874.701     -365845.271       -4868.278           0.139  
G05  22551742.090      -53397.551        -757.590           0.152  
G06  20679598.809     -231760.923       -3117.711           0.169  
G07  23596544.220     -301156.897       -4156.897           0.141  
G09  23073585.743     -298531.028       -4165.714           0.145  
> 2023 05 18 00 01 31.1688020  0  7                     
G02  24434567.004       16596.600         221.645           0.132  
G03  22328219.912     -239984.170       -3170.054           0.156  
G04  23837997.310     -366331.928       -4866.336           0.139  
G05  22551760.690      -53468.752        -713.454           0.152  
G06  20679675.522     -232072.664       -3114.587           0.170  
G07  23596646.443     -301565.475       -4088.090           0.142  
G09  23073691.659     -298947.538       -4164.957           0.146  
> 2023 05 18 00 01 31.2688020  0  7                     
G02  24434554.223       16618.596         220.210           0.134  
G03  22328297.652     -240301.173       -3169.905           0.157  
G04  23838121.597     -366818.672       -4868.691           0.138  
G05  22551778.625      -53540.207        -716.820           0.152  
G06  20679756.659     -232384.481       -3117.141           0.168  
G07  23596754.318     -301974.539       -4091.061           0.141  
G09  23073803.374     -299364.078       -4165.162           0.147  
> 2023 05 18 00 01 31.3688020  0  7                     
G02  24434555.510       16640.566         221.797           0.133  
G03  22328378.717     -240618.767       -3231.280           0.155  
G04  23838244.781     -367305.450       -4868.688           0.138  
G05  22551798.974      -53611.629        -717.028           0.152  
G06  20679834.862     -232696.332       -3118.813           0.168  
G07  23596856.802     -302383.632       -4092.236           0.141  
G09  23073902.837     -299780.688       -4166.662           0.144  
> 2023 05 18 00 01 31.4688020  0  7                     
G02  24434547.120       16662.495         219.672           0.132  
G03  22328455.752     -240935.273       -3168.332           0.154  
G04  23838368.366     -367792.225       -4867.884           0.138  
G05  22551815.592      -53683.041        -713.019           0.152  
G06  20679915.953     -233008.179       -3117.477           0.168  
G07  23596961.576     -302792.744       -4093.458           0.141  
G09  23074005.989     -300197.290       -4166.759           0.145  
