     3.03           OBSERVATION DATA    M: Mixed            RINEX VERSION / TYPE
GNSS-SDRLIB v1.1                        20230712 051319 UTC PGM / RUN BY / DATE 
                                                            MARKER NAME         
                                                            MARKER NUMBER       
                                                            MARKER TYPE         
                                                            OBSERVER / AGENCY   
GNSS-SDRLIB         GNSS-SDRLIB         1.1                 REC # / TYPE / VERS 
                                                            ANT # / TYPE        
        0.0000        0.0000        0.0000                  APPROX POSITION XYZ 
        0.0000        0.0000        0.0000                  ANTENNA: DELTA H/E/N
G    4 C1C L1C D1C S1C                                      SYS / # / OBS TYPES 
R    4 C1C L1C D1C S1C                                      SYS / # / OBS TYPES 
E    4 C1C L1C D1C S1C                                      SYS / # / OBS TYPES 
J    4 C1C L1C D1C S1C                                      SYS / # / OBS TYPES 
S    4 C1C L1C D1C S1C                                      SYS / # / OBS TYPES 
C    4 C1C L1C D1C S1C                                      SYS / # / OBS TYPES 
I    4 C1C L1C D1C S1C                                      SYS / # / OBS TYPES 
  1970    01    01    00    00   00.0000000     GPS         TIME OF FIRST OBS   
  1970    01    01    00    00   00.0000000     GPS         TIME OF LAST OBS    
G L1C                                                       SYS / PHASE SHIFT   
R L1C                                                       SYS / PHASE SHIFT   
E L1C  0.00000                                              SYS / PHASE SHIFT   
J L1C                                                       SYS / PHASE SHIFT   
S L1C                                                       SYS / PHASE SHIFT   
C L1C  0.00000                                              SYS / PHASE SHIFT   
I L1C  0.00000                                              SYS / PHASE SHIFT   
  0                                                         GLONASS SLOT / FRQ #
 C1C    0.000 C1P    0.000 C2C    0.000 C2P    0.000        GLONASS COD/PHS/BIS 
                                                            END OF HEADER       
> 2023 05 18 00 00 36.0688020  0  1                     
G05  20629656.919      -32250.165       -2055.293           0.255  
> 2023 05 18 00 00 36.0688020  0  3                     
G04  24825694.899      -26888.214       -1385.231           0.229  
G05  20629656.919      -32250.165       -2055.293           0.255  
G06  20765011.749       20572.721        1245.675           0.255  
> 2023 05 18 00 00 36.0688020  0  4                     
G04  24825694.899      -26888.214       -1385.231           0.229  
G05  20629656.919      -32250.165       -2055.293           0.255  
G06  20765011.749       20572.391        1174.334           0.255  
G07  20798266.400      -10914.587       -1814.262           0.255  
> 2023 05 18 00 00 36.0688020  0  5                     
G02  23067729.266       48780.838        1653.909           0.239  
G04  24825694.899      -26888.214       -1385.231           0.229  
G05  20629656.919      -32250.165       -2055.293           0.255  
G06  20765011.749       20572.391        1174.334           0.255  
G07  20798266.400      -10921.947       -1817.876           0.255  
> 2023 05 18 00 00 36.0688020  0  6                     
G02  23067729.266       48780.870        1635.926           0.239  
G03  24876234.084      -11468.134        -518.315           0.228  
G04  24825694.899      -26888.214       -1385.231           0.229  
G05  20629656.919      -32250.165       -2055.293           0.255  
G06  20765011.749       20572.391        1174.334           0.255  
G07  20798266.400      -10921.947       -1817.876           0.255  
> 2023 05 18 00 00 36.1688020  0  6                     
G02  23067688.501       48944.375        1635.745           0.239  
G03  24876246.966      -11519.979        -518.584           0.228  
G04  24825729.368      -27026.698       -1385.690           0.228  
G05  20629709.400      -32455.673       -2055.190           0.255  
G06  20764980.118       20689.732        1173.104           0.255  
G07  20798313.459      -11103.264       -1818.471           0.255  
> 2023 05 18 00 00 36.2688020  0  6                     
G02  23067647.117       49107.884        1636.463           0.239  
G03  24876260.659      -11571.827        -518.529           0.228  
G04  24825764.755      -27165.190       -1386.366           0.228  
G05  20629761.855      -32661.187       -2055.402           0.255  
G06  20764951.070       20807.074        1174.384           0.255  
G07  20798359.568      -11285.071       -1818.021           0.255  
> 2023 05 18 00 00 36.3688020  0  6                     
G02  23067604.920       49271.407        1677.277           0.239  
G03  24876274.827      -11623.556        -497.068           0.228  
G04  24825800.306      -27304.386       -1486.542           0.228  
G05  20629813.900      -32866.704       -2055.313           0.255  
G06  20764920.272       20924.581        1166.188           0.255  
G07  20798407.705      -11466.890       -1817.802           0.255  
> 2023 05 18 00 00 36.4688020  0  6                     
G02  23067563.435       49434.948        1689.756           0.239  
G03  24876287.149      -11675.531        -518.300           0.228  
G04  24825835.555      -27442.177       -1387.142           0.228  
G05  20629865.972      -33072.223       -2055.318           0.255  
G06  20764891.293       21041.787        1173.190           0.255  
G07  20798452.729      -11648.720       -1817.783           0.255  
> 2023 05 18 00 00 36.5688020  0  6                     
G02  23067521.881       49598.410        1636.979           0.239  
G03  24876300.609      -11727.391        -519.055           0.228  
G04  24825871.267      -27580.663       -1387.004           0.228  
G05  20629918.569      -33277.745       -2055.458           0.255  
G06  20764861.483       21159.138        1174.455           0.255  
G07  20798498.962      -11830.549       -1817.778           0.255  
> 2023 05 18 00 00 36.6688020  0  6                     
G02  23067480.353       49761.915        1636.687           0.239  
G03  24876313.655      -11779.253        -518.669           0.228  
G04  24825906.022      -27719.121       -1385.876           0.228  
G05  20629970.955      -33483.266       -2055.151           0.255  
G06  20764830.406       21276.474        1173.451           0.255  
G07  20798546.472      -12012.383       -1818.172           0.255  
> 2023 05 18 00 00 36.7688020  0  6                     
G02  23067438.041       49925.416        1636.071           0.239  
G03  24876326.482      -11831.122        -519.456           0.228  
G04  24825941.196      -27857.596       -1385.890           0.228  
G05  20630023.324      -33688.798       -2055.148           0.255  
G06  20764801.890       21393.831        1173.560           0.255  
G07  20798591.827      -12194.260       -1819.194           0.255  
> 2023 05 18 00 00 36.8688020  0  6                     
G02  23067396.822       50088.941        1637.198           0.239  
G03  24876340.068      -11882.989        -519.097           0.228  
G04  24825976.419      -27996.078       -1387.085           0.228  
G05  20630075.792      -33894.328       -2055.174           0.255  
G06  20764770.113       21511.172        1173.951           0.255  
G07  20798639.053      -12375.938       -1811.220           0.255  
> 2023 05 18 00 00 36.9688020  0  6                     
G02  23067354.631       50252.449        1635.781           0.239  
G03  24876352.181      -11934.847        -518.321           0.228  
G04  24826012.065      -28134.545       -1387.322           0.228  
G05  20630128.068      -34099.863       -2055.285           0.255  
G06  20764742.189       21628.502        1172.944           0.255  
G07  20798684.701      -12557.889       -1818.721           0.255  
> 2023 05 18 00 00 37.0688020  0  6                     
G02  23067313.310       50415.964        1636.816           0.239  
G03  24876365.922      -11986.727        -518.840           0.228  
G04  24826047.315      -28273.009       -1386.525           0.228  
G05  20630180.570      -34305.400       -2055.396           0.255  
G06  20764713.153       21745.860        1172.140           0.255  
G07  20798729.416      -12739.739       -1817.964           0.255  
> 2023 05 18 00 00 37.1688020  0  6                     
G02  23067271.788       50579.481        1635.970           0.239  
G03  24876380.012      -12038.602        -519.198           0.228  
G04  24826082.367      -28411.461       -1386.144           0.228  
G05  20630232.628      -34510.940       -2055.266           0.255  
G06  20764680.303       21863.213        1173.920           0.255  
G07  20798777.822      -12921.594       -1818.554           0.255  
> 2023 05 18 00 00 37.2688020  0  6                     
G02  23067229.942       50742.970        1633.735           0.239  
G03  24876392.949      -12090.481        -519.346           0.228  
G04  24826118.142      -28549.889       -1383.297           0.228  
G05  20630285.266      -34716.482       -2055.252           0.255  
G06  20764650.393       21980.549        1173.621           0.255  
G07  20798824.644      -13103.442       -1818.261           0.255  
> 2023 05 18 00 00 37.3688020  0  6                     
G02  23067188.934       50906.484        1634.157           0.239  
G03  24876407.066      -12142.359        -519.097           0.228  
G04  24826151.673      -28688.353       -1382.625           0.228  
G05  20630337.608      -34922.032       -2055.421           0.255  
G06  20764623.026       22097.916        1157.022           0.255  
G07  20798867.195      -13285.307       -1817.772           0.255  
> 2023 05 18 00 00 37.4688020  0  6                     
G02  23067146.280       51069.973        1616.191           0.239  
G03  24876420.200      -12194.501        -525.899           0.228  
G04  24826187.185      -28826.817       -1384.301           0.228  
G05  20630389.830      -35127.579       -2055.181           0.255  
G06  20764590.558       22215.242        1171.970           0.255  
G07  20798915.656      -13467.160       -1757.109           0.255  
> 2023 05 18 00 00 37.5688020  0  6                     
G02  23067104.585       51233.525        1635.342           0.239  
G03  24876433.266      -12246.134        -518.936           0.228  
G04  24826223.807      -28965.290       -1385.050           0.228  
G05  20630442.121      -35333.133       -2055.331           0.255  
G06  20764561.826       22332.606        1173.477           0.255  
G07  20798962.370      -13649.042       -1818.257           0.255  
> 2023 05 18 00 00 37.6688020  0  6                     
G02  23067063.048       51397.031        1635.571           0.239  
G03  24876445.617      -12298.027        -519.849           0.228  
G04  24826258.867      -29103.736       -1385.353           0.228  
G05  20630494.679      -35538.687       -2055.306           0.255  
G06  20764530.556       22450.102        1166.043           0.255  
G07  20799011.358      -13830.892       -1815.562           0.255  
> 2023 05 18 00 00 37.7688020  0  6                     
G02  23067022.241       51560.540        1634.724           0.238  
G03  24876458.988      -12349.924        -520.475           0.228  
G04  24826293.217      -29242.164       -1383.915           0.227  
G05  20630546.760      -35744.248       -2055.552           0.255  
G06  20764501.575       22567.277        1171.691           0.255  
G07  20799057.040      -14012.769       -1815.624           0.255  
> 2023 05 18 00 00 37.8688020  0  6                     
G02  23066982.206       51724.053        1634.156           0.239  
G03  24876471.484      -12401.807        -519.118           0.228  
G04  24826325.420      -29380.615       -1383.327           0.228  
G05  20630599.237      -35949.808       -2055.529           0.255  
G06  20764472.659       22684.612        1170.654           0.255  
G07  20799101.790      -14194.660       -1818.278           0.255  
> 2023 05 18 00 00 37.9688020  0  6                     
G02  23066938.854       51887.573        1634.996           0.239  
G03  24876485.303      -12453.713        -519.363           0.228  
G04  24826362.949      -29519.064       -1384.423           0.228  
G05  20630651.793      -36155.376       -2055.528           0.255  
G06  20764439.274       22801.984        1172.145           0.255  
G07  20799150.734      -14376.553       -1818.182           0.255  
> 2023 05 18 00 00 38.0688020  0  6                     
G02  23066897.249       52051.103        1634.897           0.239  
G03  24876499.460      -12505.623        -519.396           0.228  
G04  24826398.203      -29657.508       -1384.182           0.228  
G05  20630703.948      -36360.940       -2055.375           0.255  
G06  20764406.847       22919.323        1176.138           0.255  
G07  20799200.154      -14558.440       -1820.248           0.255  
> 2023 05 18 00 00 38.1688020  0  6                     
G02  23066854.307       52214.616        1635.413           0.239  
G03  24876513.050      -12557.519        -519.150           0.228  
G04  24826436.561      -29795.936       -1385.037           0.228  
G05  20630756.590      -36566.514       -2055.400           0.255  
G06  20764379.712       23036.672        1173.756           0.255  
G07  20799243.640      -14740.308       -1819.675           0.255  
> 2023 05 18 00 00 38.2688020  0  6                     
G02  23066814.985       52378.261        1646.976           0.239  
G03  24876524.543      -12609.546        -518.974           0.228  
G04  24826468.701      -29934.366       -1383.204           0.228  
G05  20630808.565      -36772.087       -2055.750           0.255  
G06  20764350.120       23153.684        1132.624           0.255  
G07  20799287.173      -14922.207       -1816.928           0.255  
> 2023 05 18 00 00 38.3688020  0  6                     
G02  23066771.972       52541.654        1635.291           0.239  
G03  24876537.351      -12661.352        -519.314           0.228  
G04  24826506.423      -30072.786       -1383.652           0.227  
G05  20630861.537      -36977.663       -2055.668           0.255  
G06  20764320.922       23271.554        1191.347           0.255  
G07  20799335.611      -15104.082       -1818.275           0.255  
> 2023 05 18 00 00 38.4688020  0  6                     
G02  23066729.483       52705.171        1635.221           0.239  
G03  24876551.174      -12713.261        -519.736           0.228  
G04  24826542.201      -30211.227       -1384.198           0.228  
G05  20630913.752      -37183.243       -2055.750           0.255  
G06  20764289.829       23388.290        1116.038           0.255  
G07  20799383.368      -15285.992       -1818.603           0.255  
> 2023 05 18 00 00 38.5688020  0  6                     
G02  23066688.738       52868.694        1635.237           0.239  
G03  24876564.303      -12765.169        -519.060           0.228  
G04  24826577.176      -30349.662       -1384.217           0.228  
G05  20630966.303      -37388.828       -2055.883           0.255  
G06  20764262.096       23506.063        1174.028           0.255  
G07  20799427.422      -15467.898       -1818.492           0.255  
> 2023 05 18 00 00 38.6688020  0  6                     
G02  23066644.070       53032.220        1635.792           0.239  
G03  24876579.565      -12817.091        -519.230           0.228  
G04  24826616.145      -30488.078       -1385.286           0.227  
G05  20631018.933      -37594.414       -2056.007           0.255  
G06  20764232.989       23623.402        1173.824           0.255  
G07  20799472.315      -15649.808       -1819.529           0.255  
> 2023 05 18 00 00 38.7688020  0  6                     
G02  23066604.799       53195.734        1634.572           0.239  
G03  24876591.778      -12869.018        -519.333           0.228  
G04  24826647.601      -30626.492       -1384.266           0.228  
G05  20631070.904      -37800.004       -2055.893           0.255  
G06  20764203.205       23740.724        1171.385           0.255  
G07  20799519.766      -15831.699       -1819.375           0.255  
> 2023 05 18 00 00 38.8688020  0  6                     
G02  23066561.762       53359.251        1635.161           0.239  
G03  24876605.171      -12920.935        -519.465           0.228  
G04  24826684.823      -30764.897       -1383.745           0.228  
G05  20631123.884      -38005.595       -2056.004           0.255  
G06  20764171.937       23858.091        1172.599           0.255  
G07  20799567.814      -16013.619       -1819.338           0.255  
> 2023 05 18 00 00 38.9688020  0  6                     
G02  23066521.866       53522.770        1635.111           0.239  
G03  24876616.852      -12972.739        -500.375           0.228  
G04  24826717.757      -30903.471       -1418.273           0.228  
G05  20631175.511      -38211.195       -2056.142           0.255  
G06  20764141.998       23975.427        1172.369           0.255  
G07  20799613.401      -16196.064       -1828.265           0.255  
> 2023 05 18 00 00 39.0688020  0  6                     
G02  23066479.542       53686.613        1702.773           0.239  
G03  24876630.910      -13024.823        -524.348           0.228  
G04  24826752.054      -31041.734       -1385.013           0.228  
G05  20631227.833      -38416.789       -2055.975           0.255  
G06  20764111.655       24092.457        1171.287           0.255  
G07  20799660.847      -16377.141       -1819.530           0.255  
> 2023 05 18 00 00 39.1688020  0  6                     
G02  23066438.233       53849.807        1634.955           0.239  
G03  24876644.191      -13076.727        -518.714           0.228  
G04  24826788.531      -31180.135       -1384.361           0.228  
G05  20631280.323      -38622.394       -2056.289           0.255  
G06  20764083.486       24210.060        1137.231           0.255  
G07  20799704.789      -16559.391       -1820.470           0.255  
> 2023 05 18 00 00 39.2688020  0  6                     
G02  23066396.802       54013.339        1635.544           0.239  
G03  24876657.314      -13128.664        -519.151           0.228  
G04  24826823.409      -31318.541       -1384.030           0.228  
G05  20631332.570      -38827.997       -2056.112           0.255  
G06  20764053.554       24327.480        1174.459           0.255  
G07  20799751.425      -16741.306       -1819.481           0.255  
> 2023 05 18 00 00 39.3688020  0  6                     
G02  23066354.911       54176.872        1636.298           0.239  
G03  24876671.016      -13180.610        -519.203           0.228  
G04  24826858.481      -31456.949       -1383.542           0.228  
G05  20631384.678      -39033.604       -2056.149           0.255  
G06  20764021.661       24444.825        1172.726           0.255  
G07  20799798.881      -16923.234       -1820.029           0.255  
> 2023 05 18 00 00 39.4688020  0  6                     
G02  23066314.634       54340.392        1635.905           0.239  
G03  24876684.067      -13232.550        -519.598           0.228  
G04  24826892.427      -31595.354       -1384.006           0.228  
G05  20631437.445      -39239.213       -2055.549           0.255  
G06  20763989.962       24562.180        1172.212           0.255  
G07  20799846.670      -17105.174       -1818.468           0.255  
> 2023 05 18 00 00 39.5688020  0  6                     
G02  23066272.514       54503.918        1635.223           0.239  
G03  24876697.495      -13284.495        -519.031           0.228  
G04  24826928.872      -31733.754       -1383.543           0.228  
G05  20631490.023      -39444.827       -2055.819           0.255  
G06  20763963.682       24679.504        1173.349           0.255  
G07  20799890.026      -17287.107       -1820.280           0.255  
> 2023 05 18 00 00 39.6688020  0  6                     
G02  23066229.290       54667.437        1634.982           0.239  
G03  24876710.780      -13336.446        -538.112           0.228  
G04  24826966.608      -31872.152       -1383.268           0.228  
G05  20631542.354      -39650.443       -2055.764           0.255  
G06  20763933.921       24796.170        1118.650           0.255  
G07  20799937.405      -17469.431       -1890.880           0.255  
> 2023 05 18 00 00 39.7688020  0  6                     
G02  23066188.344       54830.961        1634.662           0.239  
G03  24876723.653      -13388.393        -519.339           0.228  
G04  24827001.171      -32010.821       -1358.074           0.228  
G05  20631595.492      -39856.068       -2056.257           0.255  
G06  20763905.083       24914.203        1173.036           0.255  
G07  20799981.413      -17650.998       -1817.426           0.255  
> 2023 05 18 00 00 39.8688020  0  6                     
G02  23066147.127       54994.485        1635.075           0.239  
G03  24876737.247      -13440.348        -519.540           0.228  
G04  24827035.377      -32148.925       -1382.717           0.228  
G05  20631647.791      -40061.687       -2056.196           0.255  
G06  20763874.530       25031.543        1171.951           0.255  
G07  20800027.417      -17832.960       -1818.235           0.255  
> 2023 05 18 00 00 39.9688020  0  6                     
G02  23066105.226       55157.963        1610.907           0.239  
G03  24876750.197      -13492.307        -519.577           0.228  
G04  24827069.858      -32287.312       -1383.652           0.228  
G05  20631699.451      -40267.316       -2055.974           0.255  
G06  20763847.626       25148.863        1170.795           0.255  
G07  20800074.092      -18014.878       -1817.534           0.255  
> 2023 05 18 00 00 40.0688020  0  6                     
G02  23066062.599       55321.637        1658.260           0.239  
G03  24876763.898      -13544.267        -519.639           0.228  
G04  24827105.831      -32425.701       -1383.247           0.228  
G05  20631751.614      -40472.943       -2055.914           0.255  
G06  20763814.739       25266.230        1172.965           0.255  
G07  20800121.277      -18196.861       -1818.582           0.255  
> 2023 05 18 00 00 40.1688020  0  6                     
G02  23066022.018       55485.063        1635.499           0.239  
G03  24876778.188      -13596.232        -519.370           0.228  
G04  24827140.288      -32564.068       -1383.626           0.229  
G05  20631804.141      -40678.576       -2056.137           0.255  
G06  20763783.952       25383.556        1172.404           0.255  
G07  20800168.965      -18378.795       -1817.718           0.255  
> 2023 05 18 00 00 40.2688020  0  6                     
G02  23065980.868       55648.590        1634.748           0.239  
G03  24876790.946      -13648.198        -519.882           0.228  
G04  24827175.172      -32702.457       -1383.203           0.227  
G05  20631856.685      -40884.206       -2056.376           0.255  
G06  20763754.724       25500.876        1170.586           0.255  
G07  20800215.360      -18560.769       -1819.380           0.255  
> 2023 05 18 00 00 40.3688020  0  6                     
G02  23065938.282       55812.254        1665.140           0.239  
G03  24876803.861      -13700.171        -519.780           0.228  
G04  24827211.136      -32840.253       -1347.803           0.228  
G05  20631909.177      -41089.846       -2056.139           0.255  
G06  20763724.313       25618.246        1174.024           0.255  
G07  20800262.202      -18742.747       -1819.493           0.255  
> 2023 05 18 00 00 40.4688020  0  6                     
G02  23065896.375       55975.657        1635.369           0.239  
G03  24876816.535      -13752.225        -539.875           0.228  
G04  24827246.640      -32979.199       -1383.425           0.228  
G05  20631961.241      -41295.485       -2055.815           0.255  
G06  20763694.520       25735.580        1173.325           0.255  
G07  20800306.781      -18924.712       -1818.853           0.255  
> 2023 05 18 00 00 40.5688020  0  6                     
G02  23065853.192       56139.174        1635.017           0.239  
G03  24876830.173      -13804.114        -519.942           0.228  
G04  24827282.284      -33117.566       -1383.841           0.228  
G05  20632014.101      -41501.133       -2056.362           0.255  
G06  20763665.024       25852.898        1171.693           0.255  
G07  20800354.574      -19106.677       -1818.883           0.255  
> 2023 05 18 00 00 40.6688020  0  6                     
G02  23065813.631       56302.709        1634.370           0.239  
G03  24876842.742      -13856.094        -519.676           0.228  
G04  24827317.917      -33255.933       -1382.856           0.228  
G05  20632066.657      -41706.786       -2056.620           0.255  
G06  20763634.502       25970.267        1174.616           0.255  
G07  20800400.396      -19288.773       -1827.687           0.255  
> 2023 05 18 00 00 40.7688020  0  6                     
G02  23065771.251       56466.427        1621.230           0.239  
G03  24876855.799      -13908.070        -519.876           0.228  
G04  24827352.491      -33394.299       -1381.918           0.228  
G05  20632119.201      -41912.435       -2056.900           0.255  
G06  20763605.753       26087.513        1215.256           0.255  
G07  20800445.624      -19470.559       -1814.848           0.255  
> 2023 05 18 00 00 40.8688020  0  6                     
G02  23065731.033       56629.797        1643.731           0.239  
G03  24876869.486      -13960.054        -520.114           0.228  
G04  24827385.683      -33532.663       -1382.908           0.228  
G05  20632171.213      -42118.094       -2056.304           0.255  
G06  20763576.028       26204.938        1173.366           0.255  
G07  20800491.684      -19652.640       -1820.663           0.255  
> 2023 05 18 00 00 40.9688020  0  6                     
G02  23065688.241       56793.303        1634.777           0.239  
G03  24876882.733      -14012.034        -519.975           0.228  
G04  24827421.200      -33671.016       -1383.160           0.228  
G05  20632223.624      -42323.753       -2056.661           0.255  
G06  20763547.232       26322.285        1175.814           0.255  
G07  20800536.970      -19834.625       -1820.149           0.255  
> 2023 05 18 00 00 41.0688020  0  6                     
G02  23065646.643       56956.837        1634.244           0.239  
G03  24876896.119      -14064.027        -519.912           0.228  
G04  24827457.768      -33809.364       -1382.299           0.228  
G05  20632276.072      -42529.409       -2056.850           0.255  
G06  20763518.115       26439.605        1173.080           0.255  
G07  20800581.746      -20016.622       -1819.781           0.255  
> 2023 05 18 00 00 41.1688020  0  6                     
G02  23065604.486       57120.370        1634.964           0.239  
G03  24876909.391      -14116.015        -519.293           0.228  
G04  24827493.925      -33947.729       -1383.590           0.228  
G05  20632328.665      -42735.084       -2056.928           0.255  
G06  20763486.652       26556.959        1173.811           0.255  
G07  20800629.427      -20198.616       -1820.207           0.255  
> 2023 05 18 00 00 41.2688020  0  6                     
G02  23065562.812       57284.291        1678.678           0.239  
G03  24876921.571      -14167.905        -521.541           0.228  
G04  24827528.710      -34086.077       -1383.157           0.228  
G05  20632381.002      -42940.747       -2056.596           0.255  
G06  20763454.771       26674.301        1174.077           0.255  
G07  20800676.154      -20380.618       -1819.971           0.255  
> 2023 05 18 00 00 41.3688020  0  6                     
G02  23065521.302       57447.425        1635.386           0.239  
G03  24876936.053      -14220.053        -519.809           0.228  
G04  24827564.462      -34224.438       -1384.227           0.228  
G05  20632433.036      -43146.419       -2057.136           0.255  
G06  20763423.640       26791.082        1127.708           0.255  
G07  20800726.263      -20562.706       -1834.988           0.255  
> 2023 05 18 00 00 41.4688020  0  6                     
G02  23065480.011       57610.960        1635.442           0.239  
G03  24876949.090      -14272.013        -520.127           0.228  
G04  24827599.380      -34362.773       -1383.684           0.228  
G05  20632486.239      -43352.087       -2056.619           0.255  
G06  20763395.851       26908.976        1174.659           0.255  
G07  20800772.012      -20744.620       -1819.851           0.255  
> 2023 05 18 00 00 41.5688020  0  6                     
G02  23065438.392       57774.495        1635.598           0.239  
G03  24876962.817      -14324.011        -519.961           0.228  
G04  24827633.933      -34501.110       -1383.069           0.228  
G05  20632538.361      -43557.765       -2056.835           0.255  
G06  20763367.714       27026.320        1173.741           0.255  
G07  20800816.076      -20926.634       -1819.695           0.255  
> 2023 05 18 00 00 41.6688020  0  6                     
G02  23065396.573       57938.032        1636.055           0.239  
G03  24876976.352      -14376.022        -519.970           0.228  
G04  24827669.809      -34639.452       -1382.684           0.228  
G05  20632590.799      -43763.442       -2056.863           0.255  
G06  20763335.786       27143.647        1173.133           0.255  
G07  20800863.877      -21108.646       -1819.641           0.255  
> 2023 05 18 00 00 41.7688020  0  6                     
G02  23065354.799       58101.566        1635.773           0.239  
G03  24876988.899      -14428.029        -520.024           0.228  
G04  24827705.414      -34777.785       -1382.886           0.228  
G05  20632643.125      -43969.127       -2056.797           0.255  
G06  20763306.864       27260.982        1172.605           0.255  
G07  20800908.321      -21290.662       -1820.148           0.255  
> 2023 05 18 00 00 41.8688020  0  6                     
G02  23065313.387       58265.108        1636.212           0.239  
G03  24877002.278      -14480.047        -520.223           0.228  
G04  24827740.429      -34916.121       -1383.119           0.228  
G05  20632695.428      -44174.809       -2057.084           0.255  
G06  20763274.060       27378.330        1172.588           0.255  
G07  20800958.502      -21472.685       -1819.878           0.255  
> 2023 05 18 00 00 41.9688020  0  6                     
G02  23065271.249       58428.639        1634.198           0.239  
G03  24877015.787      -14532.060        -519.966           0.228  
G04  24827777.536      -35054.454       -1382.101           0.228  
G05  20632747.845      -44380.495       -2056.965           0.255  
G06  20763245.256       27495.669        1172.511           0.255  
G07  20801004.077      -21654.716       -1821.000           0.255  
> 2023 05 18 00 00 42.0688020  0  6                     
G02  23065229.673       58592.385        1633.121           0.239  
G03  24877028.600      -14584.082        -520.309           0.228  
G04  24827811.318      -35192.783       -1382.237           0.228  
G05  20632800.121      -44586.182       -2056.896           0.255  
G06  20763216.576       27613.028        1174.198           0.255  
G07  20801048.947      -21836.757       -1841.824           0.255  
> 2023 05 18 00 00 42.1688020  0  6                     
G02  23065188.269       58755.592        1553.814           0.239  
G03  24877041.891      -14636.101        -520.455           0.228  
G04  24827845.685      -35331.111       -1382.440           0.228  
G05  20632852.487      -44791.881       -2057.021           0.255  
G06  20763185.414       27730.346        1173.078           0.255  
G07  20801094.946      -22018.771       -1821.028           0.255  
> 2023 05 18 00 00 42.2688020  0  6                     
G02  23065146.591       58919.257        1634.470           0.239  
G03  24877055.192      -14688.127        -520.455           0.228  
G04  24827881.639      -35469.445       -1382.545           0.228  
G05  20632905.062      -44997.574       -2056.847           0.255  
G06  20763152.420       27847.687        1172.189           0.255  
G07  20801143.333      -22200.807       -1819.818           0.255  
> 2023 05 18 00 00 42.3688020  0  6                     
G02  23065105.365       59082.810        1636.292           0.239  
G03  24877068.321      -14740.153        -520.326           0.228  
G04  24827916.182      -35607.787       -1385.166           0.228  
G05  20632957.570      -45203.276       -2057.119           0.255  
G06  20763126.096       27965.043        1173.241           0.255  
G07  20801187.876      -22382.853       -1821.002           0.255  
> 2023 05 18 00 00 42.4688020  0  6                     
G02  23065063.579       59246.000        1662.921           0.239  
G03  24877081.430      -14792.186        -520.274           0.228  
G04  24827950.933      -35746.099       -1387.992           0.227  
G05  20633009.966      -45408.974       -2056.978           0.255  
G06  20763097.397       28082.373        1173.495           0.255  
G07  20801234.371      -22564.886       -1820.633           0.255  
> 2023 05 18 00 00 42.5688020  0  6                     
G02  23065021.774       59409.863        1636.776           0.239  
G03  24877094.403      -14844.220        -520.190           0.228  
G04  24827986.517      -35884.377       -1385.961           0.228  
G05  20633062.394      -45614.681       -2057.265           0.255  
G06  20763068.369       28199.701        1172.294           0.255  
G07  20801279.977      -22746.931       -1820.776           0.255  
> 2023 05 18 00 00 42.6688020  0  6                     
G02  23064980.477       59573.383        1634.668           0.239  
G03  24877107.448      -14896.254        -520.467           0.228  
G04  24828021.754      -36022.669       -1383.689           0.227  
G05  20633114.671      -45820.386       -2057.049           0.255  
G06  20763034.088       28317.041        1173.284           0.255  
G07  20801330.649      -22928.981       -1820.019           0.255  
> 2023 05 18 00 00 42.7688020  0  6                     
G02  23064938.508       59736.934        1633.922           0.239  
G03  24877121.129      -14948.295        -520.642           0.228  
G04  24828057.260      -36160.998       -1381.252           0.228  
G05  20633166.996      -46026.097       -2056.670           0.255  
G06  20763006.943       28434.375        1173.711           0.255  
G07  20801373.383      -23111.030       -1820.587           0.255  
> 2023 05 18 00 00 42.8688020  0  6                     
G02  23064896.828       59900.492        1634.810           0.239  
G03  24877135.230      -15000.329        -520.332           0.228  
G04  24828092.510      -36299.323       -1381.793           0.228  
G05  20633219.337      -46231.815       -2057.204           0.255  
G06  20762974.809       28551.712        1173.326           0.255  
G07  20801422.493      -23293.098       -1820.852           0.255  
> 2023 05 18 00 00 42.9688020  0  6                     
G02  23064855.422       60064.041        1676.085           0.239  
G03  24877148.416      -15052.373        -520.328           0.228  
G04  24828127.424      -36437.642       -1384.962           0.228  
G05  20633271.920      -46437.536       -2057.301           0.255  
G06  20762948.887       28669.037        1173.797           0.255  
G07  20801465.407      -23475.144       -1820.155           0.255  
> 2023 05 18 00 00 43.0688020  0  6                     
G02  23064813.035       60227.579        1636.643           0.239  
G03  24877161.535      -15104.418        -519.678           0.228  
G04  24828163.534      -36575.924       -1384.724           0.228  
G05  20633324.317      -46643.254       -2057.345           0.255  
G06  20762916.322       28786.385        1174.182           0.255  
G07  20801514.357      -23657.221       -1820.341           0.255  
> 2023 05 18 00 00 43.1688020  0  6                     
G02  23064771.361       60391.119        1636.260           0.239  
G03  24877174.615      -15156.475        -520.655           0.228  
G04  24828199.084      -36714.206       -1382.721           0.228  
G05  20633376.899      -46848.980       -2057.944           0.255  
G06  20762888.409       28903.708        1173.281           0.255  
G07  20801558.000      -23839.280       -1820.793           0.255  
> 2023 05 18 00 00 43.2688020  0  6                     
G02  23064729.887       60554.667        1634.679           0.239  
G03  24877187.117      -15208.522        -520.538           0.228  
G04  24828233.812      -36852.513       -1382.265           0.228  
G05  20633429.324      -47054.699       -2057.540           0.255  
G06  20762855.749       29021.051        1173.708           0.255  
G07  20801607.204      -24021.364       -1820.690           0.255  
> 2023 05 18 00 00 43.3688020  0  6                     
G02  23064688.314       60718.216        1634.642           0.239  
G03  24877200.902      -15260.581        -520.477           0.228  
G04  24828269.030      -36990.816       -1381.616           0.228  
G05  20633481.680      -47260.431       -2057.335           0.255  
G06  20762829.222       29138.382        1174.066           0.255  
G07  20801651.216      -24203.435       -1821.151           0.255  
> 2023 05 18 00 00 43.4688020  0  6                     
G02  23064646.147       60881.755        1635.859           0.239  
G03  24877214.216      -15312.639        -520.880           0.228  
G04  24828304.035      -37129.105       -1383.523           0.228  
G05  20633534.065      -47466.166       -2057.799           0.255  
G06  20762796.467       29255.707        1172.425           0.255  
G07  20801700.669      -24385.509       -1820.315           0.255  
> 2023 05 18 00 00 43.5688020  0  6                     
G02  23064606.226       61045.295        1635.211           0.239  
G03  24877227.433      -15364.701        -520.506           0.228  
G04  24828338.634      -37267.383       -1382.780           0.228  
G05  20633586.669      -47671.900       -2057.548           0.255  
G06  20762770.348       29373.049        1173.753           0.255  
G07  20801745.932      -24567.593       -1821.138           0.255  
> 2023 05 18 00 00 43.6688020  0  6                     
G02  23064564.069       61208.830        1634.761           0.239  
G03  24877240.800      -15416.764        -521.102           0.228  
G04  24828373.818      -37405.657       -1381.967           0.228  
G05  20633638.777      -47877.639       -2057.293           0.255  
G06  20762738.361       29490.389        1174.199           0.255  
G07  20801792.055      -24749.676       -1820.784           0.255  
> 2023 05 18 00 00 43.7688020  0  6                     
G02  23064521.883       61372.381        1635.416           0.239  
G03  24877254.107      -15468.839        -520.955           0.228  
G04  24828409.399      -37543.950       -1383.765           0.228  
G05  20633691.313      -48083.383       -2057.523           0.255  
G06  20762708.826       29607.709        1172.152           0.255  
G07  20801836.377      -24931.768       -1821.211           0.255  
> 2023 05 18 00 00 43.8688020  0  6                     
G02  23064480.305       61535.925        1635.752           0.239  
G03  24877267.195      -15520.906        -520.927           0.228  
G04  24828444.317      -37682.224       -1383.057           0.228  
G05  20633743.909      -48289.125       -2057.536           0.255  
G06  20762676.755       29725.053        1173.466           0.255  
G07  20801885.755      -25113.848       -1819.234           0.255  
> 2023 05 18 00 00 43.9688020  0  6                     
G02  23064437.778       61699.462        1635.518           0.239  
G03  24877280.975      -15572.983        -521.008           0.228  
G04  24828480.052      -37820.486       -1383.210           0.228  
G05  20633796.230      -48494.874       -2057.547           0.255  
G06  20762648.097       29842.386        1173.466           0.255  
G07  20801931.344      -25295.961       -1820.047           0.255  
> 2023 05 18 00 00 44.0688020  0  6                     
G02  23064395.826       61863.009        1635.845           0.239  
G03  24877293.818      -15625.058        -521.054           0.228  
G04  24828515.641      -37958.768       -1382.641           0.228  
G05  20633848.843      -48700.624       -2057.651           0.255  
G06  20762619.874       29959.713        1171.730           0.255  
G07  20801976.503      -25478.061       -1821.027           0.255  
> 2023 05 18 00 00 44.1688020  0  6                     
G02  23064354.631       62026.563        1635.387           0.239  
G03  24877307.187      -15677.141        -520.995           0.228  
G04  24828550.117      -38097.057       -1383.373           0.228  
G05  20633901.283      -48906.379       -2057.792           0.255  
G06  20762587.394       30077.045        1172.836           0.255  
G07  20802023.951      -25660.164       -1820.917           0.255  
> 2023 05 18 00 00 44.2688020  0  6                     
G02  23064312.433       62190.111        1635.373           0.239  
G03  24877320.808      -15729.221        -521.165           0.228  
G04  24828585.255      -38235.319       -1381.905           0.228  
G05  20633953.780      -49112.134       -2057.319           0.255  
G06  20762558.391       30194.388        1173.957           0.255  
G07  20802070.415      -25842.283       -1821.458           0.255  
> 2023 05 18 00 00 44.3688020  0  6                     
G02  23064271.008       62353.661        1634.491           0.239  
G03  24877333.853      -15781.312        -521.285           0.228  
G04  24828620.952      -38373.726       -1387.736           0.228  
G05  20634005.891      -49317.898       -2057.560           0.255  
G06  20762528.829       30311.718        1173.669           0.255  
G07  20802116.846      -26024.395       -1821.523           0.255  
> 2023 05 18 00 00 44.4688020  0  6                     
G02  23064229.396       62517.221        1635.636           0.239  
G03  24877346.755      -15833.392        -520.683           0.228  
G04  24828655.881      -38511.857       -1383.012           0.228  
G05  20634057.977      -49523.670       -2057.641           0.255  
G06  20762498.806       30429.058        1173.099           0.255  
G07  20802163.416      -26206.499       -1821.077           0.255  
> 2023 05 18 00 00 44.5688020  0  6                     
G02  23064189.107       62680.766        1635.586           0.239  
G03  24877359.993      -15885.490        -520.826           0.228  
G04  24828690.094      -38650.109       -1382.279           0.228  
G05  20634110.325      -49729.438       -2057.518           0.255  
G06  20762466.447       30546.391        1173.890           0.255  
G07  20802212.202      -26388.623       -1821.175           0.255  
> 2023 05 18 00 00 44.6688020  0  6                     
G02  23064146.455       62844.313        1635.476           0.239  
G03  24877373.643      -15937.583        -520.815           0.228  
G04  24828726.216      -38788.359       -1381.230           0.228  
G05  20634163.152      -49935.213       -2057.670           0.255  
G06  20762440.581       30663.721        1172.680           0.255  
G07  20802252.662      -26570.742       -1821.042           0.255  
> 2023 05 18 00 00 44.7688020  0  6                     
G02  23064105.671       63007.859        1635.519           0.239  
G03  24877387.542      -15989.686        -520.731           0.228  
G04  24828760.730      -38926.619       -1381.906           0.228  
G05  20634215.812      -50140.995       -2057.578           0.255  
G06  20762413.307       30780.778        1110.255           0.255  
G07  20802297.637      -26752.881       -1821.440           0.255  
> 2023 05 18 00 00 44.8688020  0  6                     
G02  23064063.024       63171.414        1636.204           0.239  
G03  24877400.369      -16041.785        -521.188           0.228  
G04  24828796.922      -39064.878       -1383.231           0.228  
G05  20634268.115      -50346.777       -2057.646           0.255  
G06  20762377.582       30898.387        1174.010           0.255  
G07  20802349.390      -26935.007       -1821.714           0.255  
> 2023 05 18 00 00 44.9688020  0  6                     
G02  23064020.507       63334.956        1635.312           0.239  
G03  24877413.410      -16093.880        -520.840           0.228  
G04  24828833.168      -39203.110       -1381.363           0.228  
G05  20634320.412      -50552.554       -2057.443           0.255  
G06  20762346.800       31015.725        1172.752           0.255  
G07  20802397.267      -27117.149       -1820.575           0.255  
> 2023 05 18 00 00 45.0688020  0  6                     
G02  23063978.146       63498.510        1635.944           0.239  
G03  24877426.582      -16145.991        -520.983           0.228  
G04  24828870.317      -39341.368       -1383.339           0.228  
G05  20634373.223      -50758.340       -2057.477           0.255  
G06  20762316.000       31133.064        1174.980           0.255  
G07  20802444.432      -27299.272       -1821.850           0.255  
> 2023 05 18 00 00 45.1688020  0  6                     
G02  23063939.462       63662.057        1635.822           0.239  
G03  24877439.558      -16198.091        -520.637           0.228  
G04  24828900.253      -39479.611       -1382.585           0.228  
G05  20634425.604      -50964.130       -2058.022           0.255  
G06  20762287.780       31250.392        1177.269           0.255  
G07  20802488.641      -27481.423       -1826.262           0.255  
> 2023 05 18 00 00 45.2688020  0  6                     
G02  23063897.355       63825.608        1634.704           0.239  
G03  24877452.643      -16250.208        -521.321           0.228  
G04  24828936.613      -39618.062       -1413.169           0.228  
G05  20634478.027      -51169.920       -2057.741           0.255  
G06  20762263.215       31367.725        1170.856           0.255  
G07  20802530.871      -27663.562       -1818.851           0.255  
> 2023 05 18 00 00 45.3688020  0  6                     
G02  23063856.794       63989.177        1636.384           0.239  
G03  24877465.637      -16302.316        -521.030           0.228  
G04  24828972.159      -39756.095       -1382.275           0.227  
G05  20634530.838      -51375.710       -2057.464           0.255  
G06  20762229.331       31485.050        1171.706           0.255  
G07  20802580.652      -27845.715       -1820.810           0.255  
> 2023 05 18 00 00 45.4688020  0  6                     
G02  23063814.173       64152.719        1635.935           0.239  
G03  24877477.843      -16354.438        -521.221           0.228  
G04  24829007.682      -39894.313       -1382.020           0.228  
G05  20634583.290      -51581.510       -2057.746           0.255  
G06  20762200.262       31602.368        1172.110           0.255  
G07  20802626.983      -28027.871       -1820.945           0.255  
> 2023 05 18 00 00 45.5688020  0  6                     
G02  23063769.005       64316.275        1635.594           0.239  
G03  24877492.126      -16406.553        -520.630           0.228  
G04  24829048.230      -40032.551       -1382.317           0.228  
G05  20634635.253      -51787.312       -2057.853           0.255  
G06  20762170.334       31719.703        1171.583           0.255  
G07  20802671.552      -28210.018       -1820.577           0.255  
> 2023 05 18 00 00 45.6688020  0  6                     
G02  23063727.936       64479.826        1634.763           0.239  
G03  24877505.925      -16458.681        -521.096           0.228  
G04  24829083.145      -40170.781       -1382.145           0.228  
G05  20634687.577      -51993.115       -2058.018           0.255  
G06  20762140.855       31837.038        1173.149           0.255  
G07  20802717.492      -28392.171       -1820.113           0.255  
> 2023 05 18 00 00 45.7688020  0  6                     
G02  23063687.753       64643.384        1635.197           0.239  
G03  24877519.228      -16510.807        -521.316           0.228  
G04  24829115.774      -40308.998       -1382.064           0.228  
G05  20634740.248      -52198.918       -2057.914           0.255  
G06  20762113.077       31954.364        1173.102           0.255  
G07  20802761.764      -28574.339       -1819.831           0.255  
> 2023 05 18 00 00 45.8688020  0  6                     
G02  23063644.939       64806.944        1636.039           0.239  
G03  24877533.724      -16562.937        -521.214           0.228  
G04  24829151.662      -40447.242       -1382.470           0.228  
G05  20634792.542      -52404.729       -2058.100           0.255  
G06  20762081.404       32071.679        1171.900           0.255  
G07  20802811.079      -28756.512       -1820.745           0.255  
> 2023 05 18 00 00 45.9688020  0  6                     
G02  23063603.879       64970.537        1642.526           0.239  
G03  24877547.851      -16615.259        -543.580           0.228  
G04  24829184.646      -40585.455       -1382.414           0.228  
G05  20634844.952      -52610.539       -2057.885           0.255  
G06  20762052.197       32189.018        1173.302           0.255  
G07  20802857.979      -28938.407       -1838.598           0.255  
> 2023 05 18 00 00 46.0688020  0  6                     
G02  23063563.541       65134.053        1635.923           0.239  
G03  24877560.960      -16667.204        -521.537           0.228  
G04  24829217.765      -40723.811       -1426.569           0.229  
G05  20634897.736      -52816.358       -2058.286           0.255  
G06  20762019.521       32306.320        1171.199           0.255  
G07  20802907.420      -29120.862       -1823.754           0.255  
> 2023 05 18 00 00 46.1688020  0  6                     
G02  23063521.349       65297.609        1635.823           0.239  
G03  24877571.906      -16719.342        -522.446           0.228  
G04  24829254.596      -40861.882       -1381.619           0.228  
G05  20634949.983      -53022.177       -2058.216           0.255  
G06  20761989.975       32423.677        1172.530           0.255  
G07  20802952.958      -29303.060       -1822.972           0.255  
> 2023 05 18 00 00 46.2688020  0  6                     
G02  23063478.989       65461.233        1661.634           0.239  
G03  24877584.960      -16771.488        -522.570           0.228  
G04  24829290.572      -41000.034       -1329.613           0.228  
G05  20635002.468      -53227.997       -2058.140           0.255  
G06  20761959.804       32540.955        1150.249           0.255  
G07  20802999.641      -29484.964       -1785.403           0.255  
> 2023 05 18 00 00 46.3688020  0  6                     
G02  23063437.762       65624.719        1635.308           0.239  
G03  24877599.189      -16823.633        -521.495           0.228  
G04  24829326.491      -41138.313       -1382.157           0.228  
G05  20635054.986      -53433.819       -2058.118           0.255  
G06  20761930.772       32658.335        1176.215           0.255  
G07  20803044.296      -29667.420       -1823.592           0.255  
> 2023 05 18 00 00 46.4688020  0  6                     
G02  23063396.611       65788.282        1635.465           0.239  
G03  24877612.624      -16875.776        -521.245           0.228  
G04  24829360.789      -41276.507       -1381.908           0.228  
G05  20635107.000      -53639.646       -2058.091           0.255  
G06  20761901.237       32775.652        1171.088           0.255  
G07  20803090.261      -29849.617       -1821.416           0.255  
> 2023 05 18 00 00 46.5688020  0  6                     
G02  23063354.525       65951.848        1635.803           0.239  
G03  24877626.780      -16927.921        -521.608           0.228  
G04  24829396.688      -41414.725       -1383.858           0.228  
G05  20635159.439      -53845.476       -2058.201           0.255  
G06  20761871.939       32893.012        1175.214           0.255  
G07  20803136.492      -30031.810       -1824.671           0.255  
> 2023 05 18 00 00 46.6688020  0  6                     
G02  23063312.470       66115.411        1636.528           0.239  
G03  24877640.456      -16980.074        -521.443           0.228  
G04  24829430.782      -41552.914       -1382.932           0.228  
G05  20635212.246      -54051.313       -2058.270           0.255  
G06  20761841.513       33010.308        1169.452           0.255  
G07  20803182.991      -30214.002       -1818.848           0.255  
> 2023 05 18 00 00 46.7688020  0  6                     
G02  23063271.453       66278.959        1635.309           0.239  
G03  24877653.933      -17032.231        -521.256           0.228  
G04  24829464.573      -41691.102       -1381.361           0.228  
G05  20635264.746      -54257.149       -2058.320           0.255  
G06  20761810.640       33127.649        1169.595           0.255  
G07  20803229.730      -30396.182       -1818.463           0.255  
> 2023 05 18 00 00 46.8688020  0  6                     
G02  23063228.805       66442.760        1672.465           0.239  
G03  24877665.857      -17084.699        -528.839           0.228  
G04  24829501.404      -41829.317       -1382.337           0.228  
G05  20635317.094      -54462.993       -2058.751           0.255  
G06  20761785.013       33244.966        1171.339           0.255  
G07  20803273.846      -30578.522       -1827.987           0.255  
> 2023 05 18 00 00 46.9688020  0  6                     
G02  23063188.223       66606.168        1605.798           0.239  
G03  24877678.928      -17136.559        -521.165           0.228  
G04  24829535.457      -41967.805       -1394.029           0.228  
G05  20635369.496      -54668.826       -2058.088           0.255  
G06  20761750.749       33362.306        1172.787           0.255  
G07  20803324.466      -30760.669       -1842.990           0.255  
> 2023 05 18 00 00 47.0688020  0  6                     
G02  23063145.685       66769.665        1587.654           0.239  
G03  24877692.176      -17188.717        -521.499           0.228  
G04  24829571.307      -42105.698       -1380.980           0.228  
G05  20635421.952      -54874.675       -2058.156           0.255  
G06  20761720.409       33479.626        1203.109           0.255  
G07  20803372.844      -30942.862       -1840.619           0.255  
> 2023 05 18 00 00 47.1688020  0  6                     
G02  23063105.278       66933.212        1635.442           0.239  
G03  24877705.149      -17240.882        -521.104           0.228  
G04  24829606.453      -42243.900       -1382.635           0.228  
G05  20635474.390      -55080.526       -2058.327           0.255  
G06  20761689.876       33596.969        1173.070           0.255  
G07  20803420.127      -31125.029       -1821.553           0.255  
> 2023 05 18 00 00 47.2688020  0  6                     
G02  23063063.139       67096.587        1610.522           0.239  
G03  24877718.519      -17293.051        -521.201           0.228  
G04  24829641.666      -42382.063       -1381.317           0.228  
G05  20635527.351      -55286.380       -2058.514           0.255  
G06  20761661.273       33714.292        1174.438           0.255  
G07  20803462.598      -31307.244       -1822.322           0.255  
> 2023 05 18 00 00 47.3688020  0  6                     
G02  23063021.249       67260.330        1635.523           0.239  
G03  24877732.680      -17345.230        -521.671           0.228  
G04  24829676.679      -42520.256       -1382.174           0.228  
G05  20635578.745      -55492.231       -2058.463           0.255  
G06  20761631.866       33831.601        1172.807           0.255  
G07  20803509.800      -31489.475       -1822.659           0.255  
> 2023 05 18 00 00 47.4688020  0  6                     
G02  23062979.043       67423.892        1635.319           0.239  
G03  24877745.224      -17397.405        -522.664           0.228  
G04  24829712.673      -42658.423       -1381.139           0.228  
G05  20635631.670      -55698.092       -2058.676           0.255  
G06  20761601.376       33948.939        1172.894           0.255  
G07  20803554.456      -31671.715       -1823.377           0.255  
> 2023 05 18 00 00 47.5688020  0  6                     
G02  23062937.323       67587.682        1663.736           0.239  
G03  24877758.110      -17449.715        -555.883           0.228  
G04  24829748.996      -42796.624       -1382.163           0.228  
G05  20635684.133      -55903.952       -2058.757           0.255  
G06  20761571.018       34066.271        1174.867           0.255  
G07  20803602.053      -31853.930       -1823.021           0.255  
> 2023 05 18 00 00 47.6688020  0  6                     
G02  23062896.663       67751.020        1635.713           0.239  
G03  24877771.274      -17501.760        -522.124           0.228  
G04  24829783.394      -42934.785       -1381.984           0.228  
G05  20635736.767      -56109.817       -2058.640           0.255  
G06  20761539.128       34183.589        1173.475           0.255  
G07  20803651.940      -32036.152       -1821.451           0.255  
> 2023 05 18 00 00 47.7688020  0  6                     
G02  23062853.963       67914.446        1645.630           0.239  
G03  24877785.609      -17553.940        -521.686           0.228  
G04  24829818.661      -43073.172       -1434.867           0.228  
G05  20635789.516      -56315.683       -2058.966           0.255  
G06  20761510.518       34300.911        1171.483           0.255  
G07  20803696.314      -32218.391       -1823.142           0.255  
> 2023 05 18 00 00 47.8688020  0  6                     
G02  23062813.378       68078.001        1639.295           0.239  
G03  24877798.332      -17606.124        -522.578           0.228  
G04  24829852.619      -43211.125       -1381.594           0.228  
G05  20635841.729      -56521.562       -2058.745           0.255  
G06  20761480.486       34418.247        1173.686           0.255  
G07  20803742.351      -32400.628       -1822.196           0.255  
> 2023 05 18 00 00 47.9688020  0  6                     
G02  23062770.783       68241.716        1635.652           0.239  
G03  24877811.786      -17658.317        -521.551           0.228  
G04  24829887.759      -43349.287       -1380.953           0.228  
G05  20635894.191      -56727.434       -2058.898           0.255  
G06  20761453.144       34535.565        1174.006           0.255  
G07  20803787.246      -32582.879       -1824.429           0.255  
> 2023 05 18 00 00 48.0688020  0  6                     
G02  23062729.577       68405.284        1634.847           0.239  
G03  24877825.456      -17710.513        -522.474           0.228  
G04  24829922.578      -43487.448       -1380.615           0.227  
G05  20635946.972      -56933.310       -2058.532           0.255  
G06  20761422.722       34652.727        1116.299           0.255  
G07  20803833.833      -32765.127       -1822.282           0.255  
> 2023 05 18 00 00 48.1688020  0  6                     
G02  23062687.169       68568.862        1635.883           0.239  
G03  24877839.342      -17762.711        -521.939           0.228  
G04  24829959.053      -43625.610       -1381.702           0.228  
G05  20635999.423      -57139.191       -2058.693           0.255  
G06  20761391.330       34770.233        1173.380           0.255  
G07  20803878.803      -32947.378       -1823.770           0.255  
> 2023 05 18 00 00 48.2688020  0  6                     
G02  23062645.546       68732.427        1635.582           0.239  
G03  24877852.089      -17814.912        -522.598           0.228  
G04  24829995.202      -43763.769       -1380.977           0.228  
G05  20636051.231      -57345.078       -2058.864           0.255  
G06  20761360.765       34887.544        1172.750           0.255  
G07  20803926.899      -33129.628       -1822.186           0.255  
> 2023 05 18 00 00 48.4688020  0  6                     
G02  23062563.219       69059.375        1611.512           0.239  
G03  24877878.650      -17919.554        -568.203           0.228  
G04  24830064.476      -44040.072       -1382.626           0.228  
G05  20636156.439      -57756.847       -2058.743           0.255  
G06  20761302.412       35122.478        1221.266           0.255  
G07  20804020.309      -33494.540       -1901.104           0.255  
> 2023 05 18 00 00 48.5688020  0  6                     
G02  23062521.109       69223.127        1635.540           0.239  
G03  24877891.883      -17971.521        -522.029           0.228  
G04  24830099.430      -44178.205       -1379.863           0.228  
G05  20636208.827      -57962.738       -2059.001           0.255  
G06  20761274.317       35239.519        1173.826           0.255  
G07  20804065.141      -33676.414       -1822.834           0.255  
> 2023 05 18 00 00 48.6688020  0  6                     
G02  23062479.721       69386.649        1618.173           0.239  
G03  24877905.554      -18023.244        -461.652           0.228  
G04  24830134.119      -44316.366       -1380.738           0.228  
G05  20636261.378      -58168.635       -2058.888           0.255  
G06  20761245.426       35356.568        1148.231           0.255  
G07  20804111.537      -33858.995       -1887.889           0.255  
> 2023 05 18 00 00 48.7688020  0  6                     
G02  23062437.719       69550.128        1641.641           0.239  
G03  24877919.262      -18075.945        -522.127           0.228  
G04  24830170.419      -44454.512       -1381.299           0.228  
G05  20636313.672      -58374.532       -2059.000           0.255  
G06  20761212.886       35474.180        1174.837           0.255  
G07  20804162.966      -34040.966       -1822.958           0.255  
> 2023 05 18 00 00 48.8688020  0  6                     
G02  23062395.098       69713.547        1639.851           0.239  
G03  24877931.048      -18128.166        -522.620           0.228  
G04  24830206.369      -44592.658       -1381.738           0.228  
G05  20636366.207      -58580.432       -2059.025           0.255  
G06  20761187.306       35591.754        1249.190           0.255  
G07  20804202.900      -34223.238       -1823.138           0.255  
> 2023 05 18 00 00 48.9688020  0  6                     
G02  23062353.779       69877.412        1636.556           0.239  
G03  24877944.831      -18180.382        -522.326           0.228  
G04  24830240.524      -44730.788       -1381.211           0.228  
G05  20636418.891      -58786.335       -2059.271           0.255  
G06  20761155.200       35708.804        1173.114           0.255  
G07  20804252.361      -34405.513       -1821.519           0.255  
> 2023 05 18 00 00 49.0688020  0  6                     
G02  23062311.964       70040.984        1635.675           0.239  
G03  24877958.949      -18232.602        -521.868           0.228  
G04  24830277.308      -44868.929       -1380.398           0.228  
G05  20636471.449      -58992.245       -2059.583           0.255  
G06  20761123.565       35826.136        1173.928           0.255  
G07  20804297.638      -34587.810       -1823.417           0.255  
> 2023 05 18 00 00 49.1688020  0  6                     
G02  23062269.995       70204.570        1636.504           0.239  
G03  24877972.281      -18284.944        -568.306           0.228  
G04  24830311.341      -45007.231       -1412.307           0.228  
G05  20636524.052      -59198.153       -2059.508           0.255  
G06  20761092.840       35943.451        1173.269           0.255  
G07  20804343.854      -34770.458       -1892.726           0.255  
> 2023 05 18 00 00 49.2688020  0  6                     
G02  23062228.396       70368.137        1636.492           0.239  
G03  24877984.400      -18337.068        -522.619           0.228  
G04  24830347.005      -45145.190       -1381.630           0.228  
G05  20636576.204      -59404.066       -2059.616           0.255  
G06  20761067.765       36060.767        1172.967           0.255  
G07  20804386.980      -34952.378       -1822.787           0.255  
> 2023 05 18 00 00 49.3688020  0  6                     
G02  23062187.492       70531.705        1635.416           0.239  
G03  24877998.416      -18389.287        -521.844           0.228  
G04  24830381.808      -45283.314       -1380.438           0.228  
G05  20636628.814      -59609.975       -2059.139           0.255  
G06  20761035.373       36178.098        1173.803           0.255  
G07  20804435.705      -35134.669       -1823.068           0.255  
> 2023 05 18 00 00 49.4688020  0  6                     
G02  23062146.058       70695.292        1635.374           0.239  
G03  24878011.274      -18441.523        -521.627           0.228  
G04  24830416.269      -45421.448       -1380.677           0.228  
G05  20636681.285      -59815.895       -2058.947           0.255  
G06  20761004.796       36295.407        1173.589           0.255  
G07  20804484.014      -35316.959       -1822.869           0.255  
> 2023 05 18 00 00 49.5688020  0  6                     
G02  23062104.153       70858.724        1629.551           0.239  
G03  24878025.014      -18493.758        -522.917           0.228  
G04  24830451.987      -45559.571       -1381.763           0.228  
G05  20636733.741      -60021.819       -2059.344           0.255  
G06  20760974.381       36412.729        1172.607           0.255  
G07  20804530.007      -35499.124       -1816.843           0.255  
> 2023 05 18 00 00 49.6688020  0  6                     
G02  23062062.689       71022.346        1637.176           0.239  
G03  24878038.461      -18545.997        -521.796           0.228  
G04  24830487.218      -45697.684       -1381.676           0.228  
G05  20636786.143      -60227.744       -2059.317           0.255  
G06  20760945.362       36530.060        1173.514           0.255  
G07  20804576.357      -35681.574       -1822.980           0.255  
> 2023 05 18 00 00 49.7688020  0  6                     
G02  23062020.619       71186.004        1636.049           0.239  
G03  24878051.497      -18598.242        -522.401           0.228  
G04  24830522.426      -45835.792       -1381.794           0.228  
G05  20636838.474      -60433.672       -2059.328           0.255  
G06  20760914.889       36647.380        1174.043           0.255  
G07  20804623.798      -35863.884       -1823.914           0.255  
> 2023 05 18 00 00 49.8688020  0  6                     
G02  23061978.303       71349.561        1634.579           0.239  
G03  24878064.493      -18650.491        -523.196           0.228  
G04  24830558.260      -45973.891       -1379.733           0.228  
G05  20636890.869      -60639.605       -2059.358           0.255  
G06  20760881.691       36764.691        1172.321           0.255  
G07  20804673.024      -36046.187       -1822.439           0.255  
> 2023 05 18 00 00 49.9688020  0  6                     
G02  23061937.063       71513.168        1636.089           0.239  
G03  24878078.144      -18702.529        -488.816           0.228  
G04  24830592.772      -46112.601       -1464.514           0.228  
G05  20636943.565      -60845.537       -2059.126           0.255  
G06  20760853.659       36882.025        1172.022           0.255  
G07  20804716.438      -36228.520       -1824.107           0.255  
> 2023 05 18 00 00 50.0688020  0  6                     
G02  23061894.765       71677.000        1679.296           0.239  
G03  24878091.544      -18754.974        -534.347           0.228  
G04  24830629.388      -46250.143       -1383.459           0.228  
G05  20636996.157      -61051.476       -2059.324           0.255  
G06  20760827.090       36999.339        1172.078           0.255  
G07  20804759.006      -36410.759       -1806.885           0.255  
> 2023 05 18 00 00 50.1688020  0  6                     
G02  23061854.445       71840.329        1646.697           0.239  
G03  24878105.242      -18807.237        -522.389           0.228  
G04  24830663.203      -46388.236       -1381.136           0.228  
G05  20637048.641      -61257.415       -2059.312           0.255  
G06  20760795.124       37116.662        1173.003           0.255  
G07  20804808.609      -36593.157       -1823.632           0.255  
> 2023 05 18 00 00 50.2688020  0  6                     
G02  23061813.385       72003.898        1636.411           0.239  
G03  24878118.451      -18859.002        -492.153           0.228  
G04  24830697.503      -46526.338       -1380.838           0.228  
G05  20637101.155      -61463.359       -2059.300           0.255  
G06  20760758.224       37233.997        1174.104           0.255  
G07  20804862.799      -36775.486       -1823.272           0.255  
> 2023 05 18 00 00 50.3688020  0  6                     
G02  23061770.488       72167.473        1635.863           0.239  
G03  24878131.850      -18911.754        -523.069           0.228  
G04  24830733.892      -46664.429       -1379.867           0.228  
G05  20637153.491      -61669.313       -2059.585           0.255  
G06  20760737.690       37351.318        1172.407           0.255  
G07  20804900.793      -36957.815       -1822.623           0.255  
> 2023 05 18 00 00 50.4688020  0  6                     
G02  23061729.477       72331.061        1636.549           0.239  
G03  24878144.949      -18964.021        -522.857           0.228  
G04  24830769.044      -46802.544       -1381.864           0.228  
G05  20637205.849      -61875.264       -2059.289           0.255  
G06  20760707.927       37468.866        1220.855           0.255  
G07  20804946.897      -37140.054       -1814.302           0.255  
> 2023 05 18 00 00 50.5688020  0  6                     
G02  23061687.544       72494.627        1635.676           0.239  
G03  24878157.334      -19016.284        -523.381           0.228  
G04  24830803.691      -46940.619       -1381.504           0.228  
G05  20637258.347      -62081.216       -2059.369           0.255  
G06  20760674.840       37585.965        1172.669           0.255  
G07  20804994.294      -37322.494       -1823.691           0.255  
> 2023 05 18 00 00 50.6688020  0  6                     
G02  23061646.259       72658.200        1634.359           0.239  
G03  24878170.514      -19068.560        -522.124           0.228  
G04  24830837.997      -47078.706       -1378.996           0.228  
G05  20637310.821      -62287.172       -2059.705           0.255  
G06  20760641.485       37703.294        1173.987           0.255  
G07  20805044.276      -37504.835       -1823.235           0.255  
> 2023 05 18 00 00 50.7688020  0  6                     
G02  23061603.251       72822.003        1697.264           0.239  
G03  24878184.368      -19120.831        -522.996           0.228  
G04  24830874.278      -47217.456       -1440.903           0.228  
G05  20637363.548      -62493.130       -2059.317           0.255  
G06  20760614.936       37820.599        1173.062           0.255  
G07  20805088.418      -37687.598       -1887.012           0.255  
> 2023 05 18 00 00 50.8688020  0  6                     
G02  23061562.299       72985.389        1636.833           0.239  
G03  24878197.435      -19173.397        -576.590           0.228  
G04  24830909.962      -47355.089       -1408.187           0.228  
G05  20637416.009      -62699.096       -2059.752           0.255  
G06  20760586.638       37937.924        1172.416           0.255  
G07  20805133.964      -37869.529       -1824.123           0.255  
> 2023 05 18 00 00 50.9688020  0  6                     
G02  23061521.852       73148.960        1636.945           0.239  
G03  24878211.323      -19225.379        -522.207           0.228  
G04  24830943.180      -47492.988       -1382.469           0.228  
G05  20637468.344      -62905.056       -2059.365           0.255  
G06  20760555.043       38055.249        1173.041           0.255  
G07  20805181.222      -38051.874       -1823.008           0.255  
> 2023 05 18 00 00 51.0688020  0  6                     
G02  23061478.745       73312.704        1611.428           0.239  
G03  24878225.283      -19277.660        -521.860           0.228  
G04  24830981.187      -47631.050       -1379.906           0.228  
G05  20637520.839      -63111.028       -2059.801           0.255  
G06  20760524.261       38172.556        1173.071           0.255  
G07  20805228.485      -38234.235       -1823.641           0.255  
> 2023 05 18 00 00 51.1688020  0  6                     
G02  23061437.423       73476.135        1636.251           0.239  
G03  24878238.193      -19329.951        -521.866           0.228  
G04  24831015.269      -47769.166       -1381.745           0.229  
G05  20637573.300      -63316.998       -2060.081           0.255  
G06  20760491.237       38289.887        1173.145           0.255  
G07  20805278.557      -38416.596       -1823.523           0.255  
> 2023 05 18 00 00 51.2688020  0  6                     
G02  23061395.245       73639.692        1637.015           0.239  
G03  24878251.215      -19382.239        -522.704           0.228  
G04  24831051.535      -47907.200       -1382.509           0.228  
G05  20637625.888      -63522.972       -2059.633           0.255  
G06  20760463.602       38407.212        1174.042           0.255  
G07  20805322.673      -38598.956       -1823.845           0.255  
> 2023 05 18 00 00 51.3688020  0  6                     
G02  23061353.942       73803.283        1633.678           0.239  
G03  24878264.468      -19434.528        -523.177           0.228  
G04  24831085.403      -48045.271       -1377.216           0.228  
G05  20637678.436      -63728.948       -2059.850           0.255  
G06  20760436.654       38524.507        1173.028           0.255  
G07  20805365.707      -38781.314       -1824.233           0.255  
> 2023 05 18 00 00 51.4688020  0  6                     
G02  23061311.377       73966.893        1637.119           0.239  
G03  24878277.867      -19486.815        -522.647           0.228  
G04  24831121.331      -48183.385       -1383.321           0.228  
G05  20637731.000      -63934.928       -2059.930           0.255  
G06  20760408.548       38641.823        1172.695           0.255  
G07  20805410.937      -38963.686       -1823.261           0.255  
> 2023 05 18 00 00 51.5688020  0  6                     
G02  23061270.953       74130.449        1635.896           0.239  
G03  24878290.912      -19539.108        -523.005           0.228  
G04  24831154.957      -48321.410       -1381.479           0.228  
G05  20637783.551      -64140.910       -2059.905           0.255  
G06  20760374.403       38759.155        1174.121           0.255  
G07  20805463.150      -39146.071       -1824.015           0.255  
> 2023 05 18 00 00 51.6688020  0  6                     
G02  23061228.055       74294.040        1635.330           0.239  
G03  24878304.380      -19591.407        -523.814           0.228  
G04  24831191.097      -48459.473       -1379.370           0.228  
G05  20637835.834      -64346.898       -2060.007           0.255  
G06  20760345.618       38876.471        1174.298           0.255  
G07  20805506.263      -39328.446       -1823.238           0.255  
> 2023 05 18 00 00 51.7688020  0  6                     
G02  23061186.699       74457.634        1635.469           0.239  
G03  24878317.698      -19643.705        -521.312           0.228  
G04  24831226.578      -48597.550       -1380.419           0.228  
G05  20637888.431      -64552.882       -2059.405           0.255  
G06  20760318.470       38993.767        1173.282           0.255  
G07  20805549.847      -39510.812       -1823.739           0.255  
> 2023 05 18 00 00 51.8688020  0  6                     
G02  23061144.995       74621.228        1637.079           0.239  
G03  24878331.363      -19696.163        -536.591           0.228  
G04  24831261.120      -48735.629       -1383.131           0.228  
G05  20637940.897      -64758.879       -2059.924           0.255  
G06  20760288.841       39110.755        1126.867           0.255  
G07  20805595.976      -39693.208       -1823.643           0.255  
> 2023 05 18 00 00 51.9688020  0  6                     
G02  23061102.850       74784.795        1635.188           0.239  
G03  24878344.418      -19748.317        -523.263           0.228  
G04  24831298.794      -48873.645       -1379.750           0.228  
G05  20637993.323      -64964.871       -2059.854           0.255  
G06  20760259.397       39228.402        1172.837           0.255  
G07  20805642.766      -39875.604       -1823.330           0.255  
> 2023 05 18 00 00 52.0688020  0  6                     
G02  23061062.516       74948.400        1636.084           0.239  
G03  24878358.107      -19800.623        -522.890           0.228  
G04  24831331.220      -49011.726       -1380.790           0.228  
G05  20638045.795      -65170.869       -2059.671           0.255  
G06  20760226.475       39345.641        1159.899           0.255  
G07  20805692.831      -40058.101       -1846.669           0.255  
> 2023 05 18 00 00 52.1688020  0  6                     
G02  23061020.072       75111.966        1635.753           0.239  
G03  24878371.083      -19852.937        -522.940           0.228  
G04  24831367.833      -49149.744       -1380.260           0.228  
G05  20638098.231      -65376.870       -2059.930           0.255  
G06  20760199.727       39463.037        1173.301           0.255  
G07  20805735.277      -40240.393       -1824.248           0.255  
> 2023 05 18 00 00 52.2688020  0  6                     
G02  23060978.253       75275.569        1635.237           0.239  
G03  24878383.994      -19905.244        -522.854           0.228  
G04  24831401.858      -49287.827       -1379.406           0.228  
G05  20638150.850      -65582.872       -2059.500           0.255  
G06  20760168.921       39580.344        1172.646           0.255  
G07  20805781.656      -40422.780       -1823.239           0.255  
> 2023 05 18 00 00 52.3688020  0  6                     
G02  23060935.921       75439.166        1636.738           0.239  
G03  24878397.126      -19957.568        -522.387           0.228  
G04  24831439.241      -49425.868       -1381.448           0.228  
G05  20638203.385      -65788.884       -2059.912           0.255  
G06  20760135.127       39697.651        1171.850           0.255  
G07  20805834.049      -40605.189       -1823.542           0.255  
> 2023 05 18 00 00 52.4688020  0  6                     
G02  23060895.698       75602.732        1635.132           0.239  
G03  24878410.392      -20009.888        -522.851           0.228  
G04  24831471.646      -49563.762       -1365.375           0.228  
G05  20638255.776      -65994.895       -2059.921           0.255  
G06  20760108.687       39814.981        1173.732           0.255  
G07  20805877.301      -40787.598       -1823.360           0.255  
> 2023 05 18 00 00 52.5688020  0  6                     
G02  23060852.749       75766.323        1635.280           0.239  
G03  24878424.924      -20062.210        -522.577           0.228  
G04  24831508.377      -49702.186       -1360.842           0.228  
G05  20638308.139      -66200.906       -2060.008           0.255  
G06  20760079.811       39932.299        1174.132           0.255  
G07  20805922.432      -40970.022       -1824.275           0.255  
> 2023 05 18 00 00 52.6688020  0  6                     
G02  23060811.911       75929.922        1636.331           0.239  
G03  24878437.760      -20114.600        -515.367           0.228  
G04  24831542.984      -49839.983       -1379.988           0.228  
G05  20638360.463      -66406.926       -2060.043           0.255  
G06  20760043.585       40049.600        1172.783           0.255  
G07  20805975.492      -41152.434       -1824.083           0.255  
> 2023 05 18 00 00 52.7688020  0  6                     
G02  23060769.322       76093.508        1635.707           0.239  
G03  24878451.576      -20166.878        -523.566           0.229  
G04  24831579.132      -49978.004       -1381.063           0.228  
G05  20638413.283      -66612.947       -2059.922           0.255  
G06  20760013.294       40166.922        1172.107           0.255  
G07  20806021.219      -41334.848       -1823.981           0.255  
> 2023 05 18 00 00 52.8688020  0  6                     
G02  23060727.879       76257.093        1635.212           0.239  
G03  24878465.564      -20219.214        -524.207           0.228  
G04  24831612.305      -50116.023       -1378.521           0.228  
G05  20638466.007      -66818.983       -2060.750           0.255  
G06  20759983.045       40284.248        1173.787           0.255  
G07  20806070.106      -41517.271       -1823.702           0.255  
> 2023 05 18 00 00 52.9688020  0  6                     
G02  23060687.276       76420.697        1635.652           0.239  
G03  24878477.651      -20271.548        -523.626           0.228  
G04  24831648.032      -50254.085       -1380.111           0.228  
G05  20638518.210      -67025.007       -2060.428           0.255  
G06  20759960.565       40401.548        1172.362           0.255  
G07  20806106.208      -41699.701       -1824.165           0.255  
> 2023 05 18 00 00 53.0688020  0  6                     
G02  23060645.501       76584.276        1636.330           0.239  
G03  24878490.748      -20323.884        -523.500           0.228  
G04  24831684.386      -50392.097       -1381.864           0.227  
G05  20638570.778      -67231.036       -2060.203           0.255  
G06  20759932.135       40518.856        1172.491           0.255  
G07  20806152.087      -41882.127       -1824.745           0.255  
> 2023 05 18 00 00 53.1688020  0  6                     
G02  23060604.778       76747.863        1635.804           0.239  
G03  24878504.374      -20376.228        -524.151           0.228  
G04  24831716.466      -50530.106       -1380.156           0.227  
G05  20638623.331      -67437.068       -2060.789           0.255  
G06  20759896.788       40636.196        1173.924           0.255  
G07  20806204.614      -42064.564       -1823.724           0.255  
> 2023 05 18 00 00 53.2688020  0  6                     
G02  23060562.368       76911.581        1640.027           0.239  
G03  24878517.724      -20428.574        -523.112           0.228  
G04  24831753.765      -50668.139       -1380.030           0.227  
G05  20638675.974      -67643.107       -2060.347           0.255  
G06  20759866.450       40753.506        1173.073           0.255  
G07  20806251.737      -42247.007       -1824.552           0.255  
> 2023 05 18 00 00 53.3688020  0  6                     
G02  23060519.893       77075.063        1636.926           0.239  
G03  24878530.479      -20480.930        -524.462           0.228  
G04  24831789.576      -50805.855       -1360.627           0.227  
G05  20638728.387      -67849.138       -2060.498           0.255  
G06  20759837.074       40870.944        1222.721           0.255  
G07  20806296.264      -42429.440       -1824.023           0.255  
> 2023 05 18 00 00 53.4688020  0  6                     
G02  23060478.743       77238.638        1635.036           0.239  
G03  24878544.562      -20533.265        -523.064           0.228  
G04  24831824.993      -50944.441       -1385.064           0.227  
G05  20638780.818      -68055.180       -2060.330           0.255  
G06  20759806.410       40988.132        1173.938           0.255  
G07  20806344.557      -42611.875       -1824.251           0.255  
> 2023 05 18 00 00 53.5688020  0  6                     
G02  23060435.589       77402.251        1636.574           0.239  
G03  24878559.101      -20585.626        -523.502           0.228  
G04  24831859.052      -51082.195       -1380.833           0.227  
G05  20638833.512      -68261.223       -2060.357           0.255  
G06  20759777.940       41105.450        1173.681           0.255  
G07  20806389.544      -42794.334       -1825.151           0.255  
> 2023 05 18 00 00 53.6688020  0  6                     
G02  23060394.096       77565.915        1642.919           0.239  
G03  24878571.983      -20637.986        -523.981           0.228  
G04  24831895.099      -51220.177       -1380.991           0.227  
G05  20638885.916      -68467.274       -2060.933           0.255  
G06  20759749.696       41222.777        1173.366           0.255  
G07  20806433.923      -42976.802       -1817.708           0.255  
> 2023 05 18 00 00 53.7688020  0  6                     
G02  23060352.661       77729.437        1636.251           0.239  
G03  24878584.770      -20690.337        -523.678           0.228  
G04  24831931.159      -51358.214       -1379.908           0.227  
G05  20638938.386      -68673.319       -2060.387           0.255  
G06  20759717.307       41340.074        1173.173           0.255  
G07  20806485.437      -43159.238       -1824.314           0.255  
> 2023 05 18 00 00 53.8688020  0  6                     
G02  23060311.707       77893.022        1638.132           0.239  
G03  24878597.964      -20742.703        -523.959           0.228  
G04  24831965.352      -51496.205       -1384.224           0.227  
G05  20638990.794      -68879.376       -2060.699           0.255  
G06  20759686.101       41457.383        1174.420           0.255  
G07  20806533.146      -43341.686       -1824.476           0.255  
> 2023 05 18 00 00 53.9688020  0  6                     
G02  23060269.731       78056.606        1634.247           0.239  
G03  24878611.233      -20795.057        -547.707           0.228  
G04  24832000.663      -51634.179       -1378.749           0.227  
G05  20639043.248      -69085.426       -2060.410           0.255  
G06  20759659.624       41574.695        1171.690           0.255  
G07  20806575.209      -43524.158       -1824.570           0.255  
> 2023 05 18 00 00 54.0688020  0  6                     
G02  23060227.758       78220.228        1635.860           0.239  
G03  24878624.479      -20847.430        -524.096           0.228  
G04  24832035.828      -51772.197       -1378.842           0.227  
G05  20639095.807      -69291.488       -2060.605           0.255  
G06  20759634.609       41692.020        1172.821           0.255  
G07  20806615.892      -43706.627       -1824.396           0.255  
> 2023 05 18 00 00 54.1688020  0  6                     
G02  23060186.186       78383.813        1635.976           0.239  
G03  24878638.162      -20899.797        -523.933           0.228  
G04  24832069.988      -51910.183       -1380.444           0.227  
G05  20639148.275      -69497.550       -2060.735           0.255  
G06  20759598.944       41809.325        1173.383           0.255  
G07  20806667.403      -43889.088       -1824.376           0.255  
> 2023 05 18 00 00 54.2688020  0  6                     
G02  23060144.683       78547.225        1610.362           0.239  
G03  24878651.071      -20952.171        -523.191           0.228  
G04  24832103.740      -52048.353       -1374.497           0.227  
G05  20639200.980      -69703.620       -2061.117           0.255  
G06  20759565.129       41927.126        1254.418           0.255  
G07  20806718.736      -44071.561       -1824.858           0.255  
> 2023 05 18 00 00 54.3688020  0  6                     
G02  23060103.033       78710.960        1623.381           0.239  
G03  24878664.689      -21004.546        -523.175           0.228  
G04  24832140.572      -52186.180       -1380.189           0.227  
G05  20639253.422      -69909.686       -2061.245           0.255  
G06  20759538.552       42043.956        1173.713           0.255  
G07  20806762.730      -44254.049       -1824.797           0.255  
> 2023 05 18 00 00 54.4688020  0  6                     
G02  23060061.296       78874.613        1635.765           0.239  
G03  24878677.974      -21056.928        -523.328           0.228  
G04  24832175.909      -52324.158       -1381.143           0.227  
G05  20639306.028      -70115.758       -2060.874           0.255  
G06  20759507.235       42161.261        1173.410           0.255  
G07  20806810.264      -44436.527       -1825.064           0.255  
> 2023 05 18 00 00 54.5688020  0  6                     
G02  23060020.354       79038.216        1635.325           0.239  
G03  24878691.487      -21109.313        -524.093           0.228  
G04  24832210.297      -52462.128       -1377.761           0.227  
G05  20639358.336      -70321.831       -2060.802           0.255  
G06  20759473.294       42278.557        1172.098           0.255  
G07  20806861.213      -44619.004       -1824.499           0.255  
> 2023 05 18 00 00 54.6688020  0  6                     
G02  23059978.283       79201.818        1636.368           0.239  
G03  24878704.776      -21161.705        -523.281           0.228  
G04  24832245.225      -52600.121       -1379.610           0.227  
G05  20639410.743      -70527.912       -2060.875           0.255  
G06  20759447.280       42395.868        1172.219           0.255  
G07  20806907.168      -44801.484       -1824.310           0.255  
> 2023 05 18 00 00 54.7688020  0  6                     
G02  23059937.124       79365.394        1647.203           0.239  
G03  24878717.484      -21214.087        -523.357           0.228  
G04  24832280.222      -52738.101       -1379.106           0.227  
G05  20639463.376      -70733.988       -2060.660           0.255  
G06  20759421.329       42513.193        1173.802           0.255  
G07  20806945.384      -44983.983       -1825.108           0.255  
> 2023 05 18 00 00 54.8688020  0  6                     
G02  23059894.963       79529.016        1637.669           0.239  
G03  24878732.021      -21266.428        -529.737           0.228  
G04  24832315.283      -52876.085       -1382.275           0.227  
G05  20639516.031      -70940.075       -2060.753           0.255  
G06  20759394.240       42630.491        1172.680           0.255  
G07  20806990.123      -45166.477       -1825.005           0.255  
> 2023 05 18 00 00 54.9688020  0  6                     
G02  23059852.373       79692.430        1564.779           0.239  
G03  24878745.991      -21318.873        -524.571           0.228  
G04  24832351.659      -53014.648       -1438.994           0.227  
G05  20639568.646      -71146.160       -2060.430           0.255  
G06  20759361.392       42747.768        1181.572           0.255  
G07  20807039.282      -45348.971       -1825.075           0.255  
> 2023 05 18 00 00 55.0688020  0  6                     
G02  23059811.236       79856.229        1636.479           0.239  
G03  24878757.719      -21371.274        -523.866           0.228  
G04  24832385.658      -53152.024       -1379.286           0.227  
G05  20639621.233      -71352.258       -2060.559           0.255  
G06  20759326.451       42865.111        1173.204           0.255  
G07  20807090.094      -45531.479       -1825.538           0.255  
> 2023 05 18 00 00 55.1688020  0  6                     
G02  23059769.960       80019.811        1635.311           0.239  
G03  24878772.124      -21423.674        -524.249           0.228  
G04  24832421.704      -53289.979       -1379.879           0.226  
G05  20639673.667      -71558.350       -2060.710           0.255  
G06  20759296.950       42982.423        1174.220           0.255  
G07  20807135.680      -45713.983       -1824.765           0.255  
> 2023 05 18 00 00 55.2688020  0  6                     
G02  23059728.204       80183.440        1655.632           0.239  
G03  24878785.395      -21476.077        -524.617           0.228  
G04  24832456.310      -53427.960       -1379.795           0.227  
G05  20639726.272      -71764.446       -2060.351           0.255  
G06  20759268.713       43099.725        1172.245           0.255  
G07  20807181.014      -45896.488       -1825.173           0.255  
> 2023 05 18 00 00 55.3688020  0  6                     
G02  23059687.026       80347.034        1637.317           0.239  
G03  24878798.223      -21528.480        -523.780           0.228  
G04  24832492.092      -53565.915       -1382.073           0.227  
G05  20639778.763      -71970.543       -2060.693           0.255  
G06  20759237.501       43217.038        1173.319           0.255  
G07  20807229.353      -46079.001       -1826.126           0.255  
> 2023 05 18 00 00 55.4688020  0  6                     
G02  23059644.724       80510.639        1635.203           0.239  
G03  24878810.479      -21580.899        -524.424           0.228  
G04  24832527.893      -53703.869       -1378.604           0.227  
G05  20639830.939      -72176.645       -2060.669           0.255  
G06  20759209.510       43334.349        1173.166           0.255  
G07  20807274.582      -46261.512       -1824.974           0.255  
> 2023 05 18 00 00 55.5688020  0  6                     
G02  23059603.812       80674.174        1616.426           0.239  
G03  24878825.510      -21633.273        -522.429           0.228  
G04  24832562.565      -53841.824       -1379.420           0.227  
G05  20639883.572      -72382.755       -2060.931           0.255  
G06  20759179.683       43451.921        1216.149           0.255  
G07  20807320.744      -46444.040       -1826.195           0.255  
> 2023 05 18 00 00 55.6688020  0  6                     
G02  23059561.104       80837.993        1664.649           0.239  
G03  24878839.368      -21685.714        -520.119           0.228  
G04  24832597.484      -53979.783       -1379.042           0.227  
G05  20639936.114      -72588.866       -2061.138           0.255  
G06  20759151.405       43568.976        1172.739           0.255  
G07  20807366.483      -46626.553       -1825.464           0.255  
> 2023 05 18 00 00 55.7688020  0  6                     
G02  23059519.232       81001.447        1636.009           0.239  
G03  24878851.675      -21738.141        -524.462           0.228  
G04  24832632.472      -54117.734       -1379.876           0.227  
G05  20639988.618      -72794.983       -2060.997           0.255  
G06  20759122.646       43686.288        1174.036           0.255  
G07  20807410.791      -46809.087       -1824.674           0.255  
> 2023 05 18 00 00 55.8688020  0  6                     
G02  23059477.151       81165.043        1635.371           0.239  
G03  24878866.195      -21790.557        -524.404           0.228  
G04  24832668.191      -54255.669       -1379.016           0.227  
G05  20640041.253      -73001.097       -2061.287           0.255  
G06  20759089.408       43803.590        1173.518           0.255  
G07  20807460.237      -46991.616       -1825.174           0.255  
> 2023 05 18 00 00 55.9688020  0  6                     
G02  23059435.931       81328.689        1659.642           0.239  
G03  24878878.818      -21842.979        -524.614           0.228  
G04  24832703.705      -54393.626       -1378.845           0.227  
G05  20640093.747      -73207.221       -2061.311           0.255  
G06  20759057.388       43920.894        1172.514           0.255  
G07  20807509.253      -47174.152       -1825.137           0.255  
> 2023 05 18 00 00 56.0688020  0  6                     
G02  23059394.452       81492.177        1641.337           0.239  
G03  24878891.840      -21895.402        -524.399           0.228  
G04  24832738.588      -54531.568       -1381.012           0.227  
G05  20640146.152      -73413.345       -2061.604           0.255  
G06  20759028.926       44038.214        1174.283           0.255  
G07  20807553.878      -47356.692       -1826.026           0.255  
> 2023 05 18 00 00 56.1688020  0  6                     
G02  23059352.835       81655.856        1635.001           0.239  
G03  24878905.030      -21947.830        -524.257           0.228  
G04  24832773.091      -54669.510       -1378.479           0.227  
G05  20640198.709      -73619.472       -2061.365           0.255  
G06  20759002.168       44155.511        1172.304           0.255  
G07  20807598.757      -47539.231       -1824.479           0.255  
> 2023 05 18 00 00 56.2688020  0  6                     
G02  23059310.534       81819.468        1636.817           0.239  
G03  24878918.253      -22000.260        -524.111           0.228  
G04  24832808.909      -54807.449       -1381.154           0.227  
G05  20640251.313      -73825.603       -2061.417           0.255  
G06  20758972.839       44272.826        1172.624           0.255  
G07  20807643.997      -47721.778       -1825.599           0.255  
> 2023 05 18 00 00 56.3688020  0  6                     
G02  23059269.877       81983.078        1635.815           0.239  
G03  24878931.776      -22052.697        -524.410           0.228  
G04  24832843.446      -54945.368       -1378.112           0.227  
G05  20640303.923      -74031.737       -2061.492           0.255  
G06  20758946.036       44390.141        1173.943           0.255  
G07  20807687.025      -47904.328       -1826.056           0.255  
> 2023 05 18 00 00 56.4688020  0  6                     
G02  23059227.172       82146.697        1637.008           0.239  
G03  24878945.178      -22105.132        -524.336           0.228  
G04  24832879.836      -55083.315       -1380.320           0.227  
G05  20640356.353      -74237.868       -2061.156           0.255  
G06  20758917.680       44507.445        1173.432           0.255  
G07  20807731.332      -48086.869       -1824.209           0.255  
> 2023 05 18 00 00 56.5688020  0  6                     
G02  23059186.561       82310.303        1635.711           0.239  
G03  24878958.478      -22157.574        -524.371           0.228  
G04  24832913.544      -55221.894       -1476.614           0.227  
G05  20640408.883      -74444.009       -2061.164           0.255  
G06  20758886.459       44624.748        1171.981           0.255  
G07  20807779.723      -48269.439       -1826.964           0.255  
> 2023 05 18 00 00 56.6688020  0  6                     
G02  23059144.386       82473.915        1637.315           0.239  
G03  24878971.540      -22210.013        -523.957           0.228  
G04  24832949.755      -55359.172       -1381.962           0.227  
G05  20640461.563      -74650.146       -2060.737           0.255  
G06  20758852.124       44742.064        1173.141           0.255  
G07  20807830.962      -48451.991       -1824.777           0.255  
> 2023 05 18 00 00 56.7688020  0  6                     
G02  23059102.638       82637.521        1634.951           0.239  
G03  24878985.011      -22262.466        -524.817           0.228  
G04  24832984.515      -55497.076       -1377.060           0.227  
G05  20640514.039      -74856.293       -2061.289           0.255  
G06  20758819.684       44859.377        1173.266           0.255  
G07  20807880.215      -48634.554       -1825.314           0.255  
> 2023 05 18 00 00 56.8688020  0  6                     
G02  23059060.300       82801.141        1637.084           0.239  
G03  24878998.703      -22314.911        -524.309           0.228  
G04  24833020.434      -55635.011       -1381.098           0.227  
G05  20640566.423      -75062.437       -2061.001           0.255  
G06  20758791.747       44976.674        1172.131           0.255  
G07  20807924.544      -48817.138       -1826.954           0.255  
> 2023 05 18 00 00 56.9688020  0  6                     
G02  23059018.708       82964.738        1634.669           0.239  
G03  24879012.173      -22367.366        -524.588           0.228  
G04  24833054.738      -55772.909       -1376.990           0.227  
G05  20640618.987      -75268.589       -2061.062           0.255  
G06  20758761.538       45093.981        1172.059           0.255  
G07  20807971.636      -48999.698       -1825.185           0.255  
> 2023 05 18 00 00 57.0688020  0  6                     
G02  23058977.203       83128.353        1636.291           0.239  
G03  24879025.397      -22419.817        -524.014           0.228  
G04  24833090.710      -55910.836       -1379.755           0.227  
G05  20640671.484      -75474.743       -2061.138           0.255  
G06  20758729.228       45211.296        1174.480           0.255  
G07  20808019.413      -49182.275       -1826.313           0.255  
> 2023 05 18 00 00 57.1688020  0  6                     
G02  23058935.876       83291.963        1635.461           0.239  
G03  24879038.500      -22472.279        -524.529           0.228  
G04  24833125.385      -56048.538       -1374.863           0.227  
G05  20640724.040      -75680.904       -2061.685           0.255  
G06  20758698.122       45329.003        1258.340           0.255  
G07  20808068.016      -49364.824       -1829.317           0.255  
> 2023 05 18 00 00 57.2688020  0  6                     
G02  23058893.641       83455.574        1635.968           0.239  
G03  24879051.761      -22524.594        -493.259           0.228  
G04  24833160.956      -56186.650       -1378.875           0.227  
G05  20640776.759      -75887.073       -2061.734           0.255  
G06  20758673.254       45445.802        1176.751           0.255  
G07  20808109.404      -49547.434       -1826.070           0.255  
> 2023 05 18 00 00 57.3688020  0  6                     
G02  23058852.209       83619.205        1645.411           0.239  
G03  24879065.591      -22577.206        -524.748           0.228  
G04  24833195.623      -56324.572       -1377.721           0.227  
G05  20640829.306      -76093.236       -2061.579           0.255  
G06  20758644.233       45563.200        1172.762           0.255  
G07  20808155.375      -49730.020       -1826.352           0.255  
> 2023 05 18 00 00 57.4688020  0  6                     
G02  23058811.029       83782.479        1610.967           0.239  
G03  24879078.822      -22629.670        -524.330           0.228  
G04  24833230.227      -56462.481       -1380.378           0.227  
G05  20640881.647      -76299.401       -2061.697           0.255  
G06  20758613.076       45680.500        1173.962           0.255  
G07  20808203.581      -49912.482       -1801.055           0.255  
> 2023 05 18 00 00 57.5688020  0  6                     
G02  23058769.092       83946.178        1625.623           0.239  
G03  24879092.071      -22682.145        -524.930           0.228  
G04  24833265.530      -56600.378       -1378.776           0.227  
G05  20640934.358      -76505.573       -2061.857           0.255  
G06  20758584.068       45797.519        1168.152           0.255  
G07  20808248.776      -50095.194       -1825.787           0.255  
> 2023 05 18 00 00 57.6688020  0  6                     
G02  23058727.362       84110.031        1636.839           0.239  
G03  24879105.636      -22734.620        -525.241           0.228  
G04  24833301.006      -56738.264       -1379.252           0.227  
G05  20640986.667      -76711.742       -2061.967           0.255  
G06  20758555.372       45915.110        1174.951           0.255  
G07  20808293.879      -50277.796       -1825.841           0.255  
> 2023 05 18 00 00 57.7688020  0  6                     
G02  23058686.077       84273.646        1635.312           0.239  
G03  24879118.951      -22787.095        -524.655           0.228  
G04  24833335.355      -56876.165       -1378.390           0.227  
G05  20641039.314      -76917.921       -2061.927           0.255  
G06  20758525.336       46032.397        1172.591           0.255  
G07  20808340.545      -50460.399       -1826.067           0.255  
> 2023 05 18 00 00 57.8688020  0  6                     
G02  23058643.831       84437.275        1636.057           0.239  
G03  24879132.324      -22839.572        -524.622           0.228  
G04  24833371.059      -57014.066       -1378.944           0.227  
G05  20641091.829      -77124.098       -2061.913           0.255  
G06  20758491.897       46149.709        1172.668           0.255  
G07  20808390.751      -50643.004       -1826.266           0.255  
> 2023 05 18 00 00 57.9688020  0  6                     
G02  23058602.357       84600.886        1636.354           0.239  
G03  24879145.783      -22892.058        -524.860           0.228  
G04  24833406.047      -57151.943       -1379.437           0.227  
G05  20641144.251      -77330.285       -2062.181           0.255  
G06  20758459.430       46267.018        1172.169           0.255  
G07  20808440.737      -50825.615       -1826.658           0.255  
> 2023 05 18 00 00 58.0688020  0  6                     
G02  23058560.799       84764.510        1636.066           0.239  
G03  24879159.115      -22944.543        -525.039           0.228  
G04  24833441.812      -57289.844       -1378.261           0.227  
G05  20641197.011      -77536.466       -2062.001           0.255  
G06  20758429.941       46384.326        1174.515           0.255  
G07  20808486.059      -51008.224       -1826.029           0.255  
> 2023 05 18 00 00 58.1688020  0  6                     
G02  23058518.724       84928.121        1636.526           0.239  
G03  24879172.463      -22996.841        -492.921           0.228  
G04  24833477.004      -57427.905       -1417.887           0.227  
G05  20641249.504      -77742.653       -2061.565           0.255  
G06  20758402.722       46501.626        1173.202           0.255  
G07  20808529.754      -51190.853       -1826.171           0.255  
> 2023 05 18 00 00 58.2688020  0  6                     
G02  23058476.502       85091.740        1635.699           0.239  
G03  24879185.695      -23049.516        -524.817           0.228  
G04  24833512.383      -57565.612       -1378.760           0.227  
G05  20641302.204      -77948.841       -2061.427           0.255  
G06  20758373.362       46618.927        1172.302           0.255  
G07  20808575.433      -51373.430       -1814.195           0.255  
> 2023 05 18 00 00 58.3688020  0  6                     
G02  23058436.174       85255.350        1636.539           0.239  
G03  24879199.214      -23102.008        -524.826           0.228  
G04  24833546.270      -57703.475       -1379.838           0.227  
G05  20641354.673      -78155.036       -2061.717           0.255  
G06  20758343.070       46736.237        1173.552           0.255  
G07  20808623.221      -51556.088       -1826.021           0.255  
> 2023 05 18 00 00 58.4688020  0  6                     
G02  23058393.014       85418.967        1636.147           0.239  
G03  24879212.561      -23154.504        -524.803           0.228  
G04  24833582.287      -57841.357       -1378.407           0.227  
G05  20641407.211      -78361.228       -2061.815           0.255  
G06  20758313.002       46853.528        1172.082           0.255  
G07  20808669.800      -51738.708       -1825.976           0.255  
> 2023 05 18 00 00 58.5688020  0  6                     
G02  23058352.417       85582.598        1636.486           0.239  
G03  24879226.098      -23207.002        -525.110           0.228  
G04  24833616.528      -57979.246       -1379.233           0.227  
G05  20641459.674      -78567.428       -2061.703           0.255  
G06  20758281.697       46970.835        1173.004           0.255  
G07  20808717.648      -51921.337       -1826.639           0.255  
> 2023 05 18 00 00 58.6688020  0  6                     
G02  23058309.854       85746.196        1636.288           0.239  
G03  24879239.364      -23259.504        -525.083           0.228  
G04  24833652.588      -58117.084       -1378.506           0.226  
G05  20641512.155      -78773.631       -2062.075           0.255  
G06  20758249.127       47088.138        1173.189           0.255  
G07  20808766.872      -52103.969       -1825.886           0.255  
> 2023 05 18 00 00 58.7688020  0  6                     
G02  23058268.074       85909.842        1636.129           0.239  
G03  24879252.461      -23312.005        -524.836           0.228  
G04  24833688.106      -58254.993       -1377.964           0.227  
G05  20641564.753      -78979.839       -2062.235           0.255  
G06  20758219.677       47205.435        1173.108           0.255  
G07  20808812.780      -52286.604       -1826.254           0.255  
> 2023 05 18 00 00 58.8688020  0  6                     
G02  23058227.693       86073.443        1636.233           0.239  
G03  24879265.985      -23364.515        -524.852           0.228  
G04  24833721.499      -58392.828       -1379.099           0.227  
G05  20641617.298      -79186.050       -2062.290           0.255  
G06  20758192.173       47322.733        1172.134           0.255  
G07  20808857.380      -52469.247       -1826.722           0.255  
> 2023 05 18 00 00 58.9688020  0  6                     
G02  23058184.281       86237.177        1646.103           0.239  
G03  24879279.694      -23417.025        -525.106           0.228  
G04  24833758.930      -58530.697       -1377.465           0.227  
G05  20641669.928      -79392.265       -2062.627           0.255  
G06  20758165.825       47440.046        1173.115           0.255  
G07  20808899.995      -52651.893       -1826.466           0.255  
> 2023 05 18 00 00 59.0688020  0  6                     
G02  23058143.725       86400.706        1636.638           0.239  
G03  24879293.162      -23469.542        -525.493           0.228  
G04  24833792.248      -58668.520       -1386.059           0.227  
G05  20641722.437      -79598.476       -2062.292           0.255  
G06  20758140.875       47557.348        1172.549           0.255  
G07  20808942.689      -52834.544       -1826.554           0.255  
> 2023 05 18 00 00 59.1688020  0  6                     
G02  23058101.403       86564.325        1635.275           0.239  
G03  24879306.247      -23522.058        -525.730           0.228  
G04  24833828.754      -58806.413       -1377.861           0.227  
G05  20641775.025      -79804.698       -2062.202           0.255  
G06  20758114.786       47674.653        1172.680           0.255  
G07  20808984.133      -53017.209       -1826.656           0.255  
> 2023 05 18 00 00 59.2688020  0  6                     
G02  23058060.219       86727.957        1636.874           0.239  
G03  24879319.852      -23574.575        -525.030           0.228  
G04  24833863.362      -58944.277       -1379.715           0.227  
G05  20641827.527      -80010.926       -2062.286           0.255  
G06  20758083.925       47792.007        1169.070           0.255  
G07  20809031.177      -53199.860       -1826.281           0.255  
> 2023 05 18 00 00 59.3688020  0  6                     
G02  23058018.137       86891.563        1634.609           0.239  
G03  24879333.188      -23627.094        -524.872           0.228  
G04  24833898.327      -59082.104       -1376.271           0.227  
G05  20641880.111      -80217.152       -2062.367           0.255  
G06  20758045.050       47909.267        1173.240           0.255  
G07  20809086.272      -53382.517       -1826.078           0.255  
> 2023 05 18 00 00 59.4688020  0  6                     
G02  23057976.876       87055.203        1637.113           0.239  
G03  24879346.392      -23679.622        -525.112           0.228  
G04  24833932.575      -59219.985       -1380.456           0.227  
G05  20641932.619      -80423.377       -2062.400           0.255  
G06  20758006.746       48026.570        1172.693           0.255  
G07  20809142.744      -53565.193       -1826.620           0.255  
> 2023 05 18 00 00 59.5688020  0  6                     
G02  23057934.989       87218.810        1634.478           0.239  
G03  24879359.625      -23732.151        -525.159           0.228  
G04  24833968.447      -59357.805       -1376.065           0.227  
G05  20641985.211      -80629.607       -2062.146           0.255  
G06  20757973.741       48143.874        1171.737           0.255  
G07  20809191.470      -53747.858       -1826.170           0.255  
> 2023 05 18 00 00 59.6688020  0  6                     
G02  23057893.737       87382.460        1637.416           0.239  
G03  24879373.238      -23784.688        -528.223           0.228  
G04  24834003.575      -59495.398       -1391.389           0.227  
G05  20642037.804      -80835.839       -2062.298           0.255  
G06  20757947.622       48261.183        1173.590           0.255  
G07  20809234.769      -53930.532       -1826.309           0.255  
> 2023 05 18 00 00 59.7688020  0  6                     
G02  23057851.815       87546.063        1635.721           0.239  
G03  24879386.663      -23837.245        -535.118           0.228  
G04  24834037.906      -59633.932       -1363.647           0.227  
G05  20642090.396      -81042.078       -2062.213           0.255  
G06  20757921.863       48378.469        1172.501           0.255  
G07  20809278.512      -54113.209       -1827.280           0.255  
> 2023 05 18 00 00 59.8688020  0  6                     
G02  23057810.459       87709.716        1676.198           0.239  
G03  24879399.911      -23889.608        -501.599           0.228  
G04  24834073.749      -59770.993       -1407.162           0.227  
G05  20642142.921      -81248.314       -2062.259           0.255  
G06  20757890.587       48495.773        1172.965           0.255  
G07  20809326.080      -54295.883       -1826.815           0.255  
> 2023 05 18 00 00 59.9688020  0  6                     
G02  23057768.229       87873.311        1636.143           0.239  
G03  24879413.654      -23942.298        -525.566           0.228  
G04  24834109.731      -59909.148       -1378.039           0.226  
G05  20642195.260      -81454.558       -2062.419           0.255  
G06  20757860.447       48613.057        1172.939           0.255  
G07  20809373.495      -54478.549       -1826.215           0.255  
> 2023 05 18 00 01 00.0688020  0  6                     
G02  23057726.166       88036.958        1636.657           0.239  
G03  24879427.017      -23994.841        -525.536           0.228  
G04  24834145.724      -60047.005       -1378.018           0.227  
G05  20642247.977      -81660.804       -2062.670           0.255  
G06  20757830.585       48730.357        1172.680           0.255  
G07  20809418.478      -54661.238       -1826.914           0.255  
> 2023 05 18 00 01 00.1688020  0  6                     
G02  23057684.288       88200.572        1636.495           0.239  
G03  24879439.786      -24047.387        -525.657           0.228  
G04  24834180.718      -60184.830       -1378.344           0.227  
G05  20642300.541      -81867.056       -2062.614           0.255  
G06  20757800.062       48847.656        1173.603           0.255  
G07  20809464.465      -54843.917       -1826.621           0.255  
> 2023 05 18 00 01 00.2688020  0  6                     
G02  23057642.711       88364.210        1637.194           0.239  
G03  24879452.935      -24099.932        -525.262           0.228  
G04  24834215.299      -60322.668       -1378.354           0.227  
G05  20642353.283      -82073.306       -2062.617           0.255  
G06  20757770.430       48964.951        1172.435           0.255  
G07  20809511.439      -55026.616       -1827.196           0.255  
> 2023 05 18 00 01 00.3688020  0  6                     
G02  23057601.447       88527.826        1635.947           0.239  
G03  24879466.638      -24152.454        -520.129           0.228  
G04  24834249.076      -60460.811       -1359.105           0.227  
G05  20642405.828      -82279.561       -2062.274           0.255  
G06  20757740.847       49082.246        1174.007           0.255  
G07  20809557.470      -55209.305       -1827.417           0.255  
> 2023 05 18 00 01 00.4688020  0  6                     
G02  23057559.635       88691.475        1637.003           0.239  
G03  24879480.042      -24205.036        -525.527           0.228  
G04  24834284.670      -60598.447       -1399.825           0.227  
G05  20642458.199      -82485.815       -2062.338           0.255  
G06  20757713.756       49199.538        1173.024           0.255  
G07  20809602.419      -55392.002       -1827.072           0.255  
> 2023 05 18 00 01 00.5688020  0  6                     
G02  23057518.503       88855.084        1636.359           0.239  
G03  24879493.738      -24257.594        -525.737           0.228  
G04  24834319.139      -60736.119       -1378.217           0.227  
G05  20642510.790      -82692.076       -2062.061           0.255  
G06  20757686.746       49316.843        1172.321           0.255  
G07  20809646.048      -55574.777       -1838.141           0.255  
> 2023 05 18 00 01 00.6688020  0  6                     
G02  23057476.622       89018.968        1674.772           0.239  
G03  24879507.294      -24310.153        -525.321           0.228  
G04  24834355.022      -60873.857       -1338.191           0.227  
G05  20642563.259      -82898.336       -2062.406           0.255  
G06  20757656.537       49434.148        1174.487           0.255  
G07  20809694.969      -55757.409       -1827.022           0.255  
> 2023 05 18 00 01 00.7688020  0  6                     
G02  23057433.744       89182.465        1625.880           0.239  
G03  24879520.521      -24362.718        -525.643           0.228  
G04  24834391.581      -61011.746       -1377.199           0.227  
G05  20642615.986      -83104.608       -2062.659           0.255  
G06  20757625.419       49551.431        1173.003           0.255  
G07  20809742.035      -55940.117       -1827.059           0.255  
> 2023 05 18 00 01 00.8688020  0  6                     
G02  23057392.857       89345.990        1636.493           0.239  
G03  24879534.086      -24415.282        -525.705           0.228  
G04  24834426.911      -61149.576       -1378.554           0.227  
G05  20642668.517      -83310.876       -2063.024           0.255  
G06  20757595.679       49668.726        1172.471           0.255  
G07  20809787.464      -56122.836       -1827.363           0.255  
> 2023 05 18 00 01 00.9688020  0  6                     
G02  23057352.550       89509.615        1636.600           0.239  
G03  24879547.491      -24467.850        -525.532           0.228  
G04  24834461.062      -61287.364       -1377.476           0.227  
G05  20642721.029      -83517.152       -2062.950           0.255  
G06  20757565.726       49786.024        1172.681           0.255  
G07  20809834.174      -56305.546       -1826.993           0.255  
> 2023 05 18 00 01 01.0688020  0  6                     
G02  23057309.385       89673.247        1636.859           0.239  
G03  24879560.668      -24520.422        -526.041           0.228  
G04  24834496.663      -61425.174       -1377.753           0.227  
G05  20642773.456      -83723.426       -2063.127           0.255  
G06  20757535.623       49903.324        1173.448           0.255  
G07  20809880.208      -56488.265       -1827.145           0.255  
> 2023 05 18 00 01 01.1688020  0  6                     
G02  23057267.885       89836.870        1635.995           0.239  
G03  24879574.367      -24572.995        -525.853           0.228  
G04  24834529.920      -61562.977       -1377.753           0.227  
G05  20642826.217      -83929.718       -2062.966           0.255  
G06  20757507.148       50020.626        1173.667           0.255  
G07  20809925.672      -56670.992       -1827.533           0.255  
> 2023 05 18 00 01 01.2688020  0  6                     
G02  23057226.029       90000.747        1614.336           0.239  
G03  24879587.505      -24625.570        -525.682           0.228  
G04  24834565.455      -61700.753       -1375.973           0.226  
G05  20642878.832      -84135.996       -2062.836           0.255  
G06  20757478.924       50137.668        1119.497           0.255  
G07  20809969.435      -56853.714       -1827.305           0.255  
> 2023 05 18 00 01 01.3688020  0  6                     
G02  23057184.945       90164.154        1636.536           0.239  
G03  24879600.859      -24678.153        -525.551           0.228  
G04  24834598.846      -61838.594       -1378.344           0.227  
G05  20642931.206      -84342.284       -2062.815           0.255  
G06  20757449.397       50255.222        1174.030           0.255  
G07  20810015.634      -57036.450       -1827.317           0.255  
> 2023 05 18 00 01 01.4688020  0  6                     
G02  23057142.471       90327.727        1632.426           0.239  
G03  24879613.601      -24730.739        -526.063           0.228  
G04  24834634.202      -61976.683       -1407.628           0.227  
G05  20642983.842      -84548.567       -2062.577           0.255  
G06  20757418.986       50372.715        1215.656           0.255  
G07  20810063.629      -57219.187       -1827.585           0.255  
> 2023 05 18 00 01 01.5688020  0  6                     
G02  23057101.818       90491.418        1637.520           0.239  
G03  24879626.958      -24783.327        -526.117           0.228  
G04  24834668.738      -62114.166       -1380.283           0.226  
G05  20643036.336      -84754.862       -2062.831           0.255  
G06  20757388.467       50489.810        1172.427           0.255  
G07  20810110.318      -57401.926       -1827.685           0.255  
> 2023 05 18 00 01 01.6688020  0  6                     
G02  23057058.634       90655.100        1662.586           0.239  
G03  24879640.891      -24835.916        -526.343           0.228  
G04  24834706.583      -62251.944       -1376.537           0.227  
G05  20643088.996      -84961.157       -2063.110           0.255  
G06  20757356.649       50607.118        1173.756           0.255  
G07  20810158.829      -57584.665       -1827.220           0.255  
> 2023 05 18 00 01 01.7688020  0  6                     
G02  23057018.148       90818.677        1636.776           0.239  
G03  24879655.779      -24888.508        -526.024           0.228  
G04  24834739.946      -62389.727       -1378.733           0.227  
G05  20643141.556      -85167.455       -2063.119           0.255  
G06  20757324.491       50724.410        1173.877           0.255  
G07  20810208.842      -57767.416       -1828.007           0.255  
> 2023 05 18 00 01 01.8688020  0  6                     
G02  23056976.706       90982.324        1636.111           0.239  
G03  24879668.684      -24941.102        -525.390           0.228  
G04  24834775.029      -62527.520       -1378.159           0.227  
G05  20643193.996      -85373.753       -2063.117           0.255  
G06  20757294.935       50841.705        1172.273           0.255  
G07  20810255.482      -57950.163       -1827.227           0.255  
> 2023 05 18 00 01 01.9688020  0  6                     
G02  23056934.775       91145.846        1609.572           0.239  
G03  24879681.720      -24993.604        -506.954           0.228  
G04  24834809.588      -62665.291       -1378.594           0.227  
G05  20643246.682      -85580.059       -2062.938           0.255  
G06  20757266.453       50959.010        1172.757           0.255  
G07  20810299.821      -58132.915       -1827.357           0.255  
> 2023 05 18 00 01 02.0688020  0  6                     
G02  23056892.458       91309.597        1635.795           0.239  
G03  24879694.685      -25046.347        -539.152           0.228  
G04  24834846.314      -62803.073       -1376.551           0.227  
G05  20643299.256      -85786.362       -2062.829           0.255  
G06  20757241.240       51076.301        1173.094           0.255  
G07  20810341.274      -58315.675       -1827.815           0.255  
> 2023 05 18 00 01 02.1688020  0  6                     
G02  23056850.930       91473.198        1613.822           0.239  
G03  24879708.228      -25098.909        -525.880           0.228  
G04  24834881.595      -62940.829       -1377.771           0.227  
G05  20643351.875      -85992.672       -2062.960           0.255  
G06  20757213.340       51193.592        1172.067           0.255  
G07  20810385.227      -58498.383       -1809.110           0.255  
> 2023 05 18 00 01 02.2688020  0  6                     
G02  23056808.759       91636.616        1636.672           0.239  
G03  24879721.578      -25151.496        -525.363           0.228  
G04  24834918.037      -63078.623       -1377.483           0.227  
G05  20643404.460      -86198.985       -2063.168           0.255  
G06  20757184.210       51310.898        1171.841           0.255  
G07  20810430.889      -58681.326       -1850.669           0.255  
> 2023 05 18 00 01 02.3688020  0  6                     
G02  23056767.343       91800.493        1636.332           0.239  
G03  24879735.398      -25204.128        -526.168           0.228  
G04  24834952.087      -63216.386       -1378.015           0.227  
G05  20643457.118      -86405.302       -2063.273           0.255  
G06  20757150.528       51428.205        1173.710           0.255  
G07  20810481.536      -58863.963       -1827.532           0.255  
> 2023 05 18 00 01 02.4688020  0  6                     
G02  23056725.998       91964.140        1635.828           0.239  
G03  24879748.936      -25256.741        -525.718           0.228  
G04  24834986.393      -63354.149       -1377.817           0.227  
G05  20643509.620      -86611.621       -2063.447           0.255  
G06  20757121.954       51545.488        1173.529           0.255  
G07  20810527.255      -59046.741       -1828.044           0.255  
> 2023 05 18 00 01 02.5688020  0  6                     
G02  23056684.574       92127.785        1637.029           0.239  
G03  24879761.704      -25309.354        -525.998           0.228  
G04  24835021.096      -63491.914       -1377.921           0.227  
G05  20643562.220      -86817.942       -2063.355           0.255  
G06  20757094.585       51662.778        1172.678           0.255  
G07  20810571.763      -59229.512       -1827.859           0.255  
> 2023 05 18 00 01 02.6688020  0  6                     
G02  23056641.937       92291.428        1636.700           0.239  
G03  24879774.761      -25361.972        -526.245           0.228  
G04  24835057.092      -63629.677       -1377.085           0.227  
G05  20643614.742      -87024.265       -2063.256           0.255  
G06  20757066.727       51780.065        1172.917           0.255  
G07  20810616.435      -59412.282       -1827.925           0.255  
> 2023 05 18 00 01 02.7688020  0  6                     
G02  23056600.896       92455.024        1635.891           0.239  
G03  24879788.600      -25414.762        -560.342           0.228  
G04  24835091.519      -63767.434       -1377.993           0.227  
G05  20643667.318      -87230.595       -2063.424           0.255  
G06  20757034.548       51897.361        1173.170           0.255  
G07  20810664.494      -59595.451       -1904.663           0.255  
> 2023 05 18 00 01 02.8688020  0  6                     
G02  23056558.561       92618.694        1635.756           0.239  
G03  24879801.968      -25467.215        -526.090           0.228  
G04  24835127.819      -63905.410       -1395.434           0.227  
G05  20643719.829      -87436.936       -2063.596           0.255  
G06  20757001.277       52014.816        1183.777           0.255  
G07  20810714.411      -59777.859       -1827.417           0.255  
> 2023 05 18 00 01 02.9688020  0  6                     
G02  23056517.628       92782.351        1637.354           0.239  
G03  24879816.424      -25519.842        -526.476           0.228  
G04  24835162.199      -64042.950       -1378.876           0.227  
G05  20643772.534      -87643.272       -2063.516           0.255  
G06  20756970.096       52131.948        1173.080           0.255  
G07  20810763.649      -59960.643       -1827.407           0.255  
> 2023 05 18 00 01 03.0688020  0  6                     
G02  23056475.052       92945.983        1636.112           0.239  
G03  24879829.044      -25572.473        -526.505           0.228  
G04  24835198.713      -64180.678       -1377.739           0.227  
G05  20643824.968      -87849.606       -2063.213           0.255  
G06  20756940.553       52249.239        1173.775           0.255  
G07  20810809.745      -60143.444       -1827.811           0.255  
> 2023 05 18 00 01 03.1688020  0  6                     
G02  23056434.052       93109.627        1636.736           0.239  
G03  24879842.165      -25625.105        -527.021           0.228  
G04  24835232.436      -64318.430       -1377.748           0.227  
G05  20643877.572      -88055.948       -2063.244           0.255  
G06  20756910.039       52366.524        1171.772           0.255  
G07  20810856.157      -60326.233       -1827.657           0.255  
> 2023 05 18 00 01 03.2688020  0  6                     
G02  23056391.469       93273.258        1636.182           0.239  
G03  24879855.486      -25677.739        -526.571           0.228  
G04  24835268.305      -64456.167       -1376.512           0.227  
G05  20643930.149      -88262.290       -2063.611           0.255  
G06  20756880.718       52483.811        1171.597           0.255  
G07  20810901.832      -60508.817       -1786.318           0.255  
> 2023 05 18 00 01 03.3688020  0  6                     
G02  23056351.564       93436.906        1637.068           0.239  
G03  24879868.489      -25730.374        -526.044           0.228  
G04  24835301.392      -64593.919       -1378.612           0.227  
G05  20643982.835      -88468.640       -2063.610           0.255  
G06  20756849.937       52601.111        1173.768           0.255  
G07  20810949.299      -60691.837       -1827.667           0.255  
> 2023 05 18 00 01 03.4688020  0  6                     
G02  23056308.020       93600.545        1636.126           0.239  
G03  24879882.331      -25783.019        -526.155           0.228  
G04  24835339.265      -64731.653       -1376.744           0.227  
G05  20644035.464      -88674.985       -2063.533           0.255  
G06  20756819.444       52718.395        1173.340           0.255  
G07  20810996.487      -60874.647       -1828.608           0.255  
> 2023 05 18 00 01 03.5688020  0  6                     
G02  23056266.702       93764.182        1636.852           0.239  
G03  24879895.854      -25835.666        -526.827           0.228  
G04  24835373.580      -64869.108       -1378.530           0.227  
G05  20644087.972      -88881.338       -2063.343           0.255  
G06  20756790.120       52835.678        1172.086           0.255  
G07  20811042.772      -61057.345       -1823.349           0.255  
> 2023 05 18 00 01 03.6688020  0  6                     
G02  23056226.429       93927.800        1657.225           0.239  
G03  24879908.856      -25888.310        -526.324           0.228  
G04  24835407.393      -65006.861       -1354.242           0.227  
G05  20644140.784      -89087.693       -2063.429           0.255  
G06  20756759.937       52952.922        1183.457           0.255  
G07  20811088.922      -61240.259       -1797.713           0.255  
> 2023 05 18 00 01 03.7688020  0  6                     
G02  23056184.168       94091.692        1621.320           0.239  
G03  24879922.735      -25940.829        -499.472           0.228  
G04  24835442.824      -65144.829       -1376.045           0.227  
G05  20644193.247      -89294.053       -2063.653           0.255  
G06  20756729.822       53070.638        1213.804           0.255  
G07  20811136.372      -61423.091       -1828.659           0.255  
> 2023 05 18 00 01 03.8688020  0  6                     
G02  23056142.845       94255.135        1637.488           0.239  
G03  24879936.137      -25993.617        -526.368           0.228  
G04  24835477.117      -65282.597       -1378.171           0.227  
G05  20644245.809      -89500.412       -2063.712           0.255  
G06  20756698.266       53187.559        1172.214           0.255  
G07  20811184.053      -61605.909       -1828.255           0.255  
> 2023 05 18 00 01 03.9688020  0  6                     
G02  23056100.177       94418.776        1635.826           0.239  
G03  24879949.909      -26046.277        -527.110           0.228  
G04  24835513.257      -65420.305       -1376.226           0.227  
G05  20644298.392      -89706.779       -2063.965           0.255  
G06  20756664.996       53304.851        1172.291           0.255  
G07  20811234.732      -61788.729       -1827.086           0.255  
> 2023 05 18 00 01 04.0688020  0  6                     
G02  23056059.376       94582.387        1625.038           0.239  
G03  24879963.554      -26098.933        -526.236           0.228  
G04  24835547.145      -65558.026       -1378.275           0.227  
G05  20644351.096      -89913.145       -2063.691           0.255  
G06  20756639.243       53422.591        1230.915           0.255  
G07  20811277.020      -61971.563       -1828.363           0.255  
> 2023 05 18 00 01 04.1688020  0  6                     
G02  23056018.435       94746.071        1636.316           0.239  
G03  24879977.228      -26151.592        -526.401           0.228  
G04  24835581.432      -65695.749       -1376.712           0.227  
G05  20644403.354      -90119.518       -2063.758           0.255  
G06  20756609.061       53539.425        1172.517           0.255  
G07  20811323.290      -62154.401       -1828.687           0.255  
> 2023 05 18 00 01 04.2688020  0  6                     
G02  23055975.526       94909.713        1635.787           0.239  
G03  24879989.682      -26204.264        -526.148           0.228  
G04  24835617.581      -65833.465       -1376.598           0.227  
G05  20644456.233      -90325.885       -2063.534           0.255  
G06  20756579.538       53656.726        1171.838           0.255  
G07  20811370.506      -62337.225       -1827.645           0.255  
> 2023 05 18 00 01 04.3688020  0  6                     
G02  23055933.385       95073.372        1636.138           0.239  
G03  24880003.727      -26256.935        -526.952           0.228  
G04  24835654.246      -65971.189       -1376.418           0.227  
G05  20644508.607      -90532.267       -2063.722           0.255  
G06  20756553.923       53774.032        1172.944           0.255  
G07  20811413.965      -62520.074       -1827.781           0.255  
> 2023 05 18 00 01 04.4688020  0  6                     
G02  23055892.018       95236.983        1618.633           0.239  
G03  24880017.555      -26309.607        -526.713           0.228  
G04  24835688.684      -66109.021       -1419.893           0.227  
G05  20644561.255      -90738.643       -2063.656           0.255  
G06  20756522.618       53891.315        1174.347           0.255  
G07  20811460.921      -62702.916       -1828.542           0.255  
> 2023 05 18 00 01 04.5688020  0  6                     
G02  23055851.142       95400.662        1636.014           0.239  
G03  24880030.373      -26362.351        -522.328           0.228  
G04  24835723.228      -66246.605       -1377.009           0.227  
G05  20644613.702      -90945.038       -2063.690           0.255  
G06  20756493.408       54008.595        1172.918           0.255  
G07  20811507.732      -62885.826       -1825.855           0.255  
> 2023 05 18 00 01 04.6688020  0  6                     
G02  23055808.623       95564.307        1635.597           0.239  
G03  24880044.277      -26414.959        -526.793           0.228  
G04  24835758.670      -66384.295       -1375.045           0.227  
G05  20644666.409      -91151.422       -2063.892           0.255  
G06  20756459.234       54125.891        1172.551           0.255  
G07  20811557.078      -63068.617       -1829.405           0.255  
> 2023 05 18 00 01 04.7688020  0  6                     
G02  23055766.801       95727.962        1637.305           0.239  
G03  24880056.823      -26467.637        -527.027           0.228  
G04  24835794.641      -66522.005       -1377.658           0.227  
G05  20644719.089      -91357.812       -2063.761           0.255  
G06  20756428.397       54243.187        1173.630           0.255  
G07  20811604.088      -63251.466       -1828.731           0.255  
> 2023 05 18 00 01 04.8688020  0  6                     
G02  23055723.390       95891.605        1636.005           0.239  
G03  24880070.030      -26520.319        -527.480           0.228  
G04  24835830.421      -66659.710       -1376.751           0.227  
G05  20644772.052      -91564.203       -2063.995           0.255  
G06  20756399.728       54360.460        1171.050           0.255  
G07  20811648.189      -63434.331       -1828.919           0.255  
> 2023 05 18 00 01 04.9688020  0  6                     
G02  23055681.784       96055.263        1637.243           0.239  
G03  24880083.586      -26573.002        -527.058           0.228  
G04  24835865.871      -66797.417       -1378.555           0.227  
G05  20644824.414      -91770.600       -2063.868           0.255  
G06  20756373.410       54477.759        1171.804           0.255  
G07  20811692.710      -63617.181       -1828.226           0.255  
> 2023 05 18 00 01 05.0688020  0  6                     
G02  23055641.123       96218.913        1636.146           0.239  
G03  24880097.232      -26625.688        -526.619           0.228  
G04  24835901.038      -66935.111       -1376.895           0.227  
G05  20644876.985      -91976.994       -2063.920           0.255  
G06  20756343.625       54595.057        1173.305           0.255  
G07  20811739.883      -63800.055       -1829.026           0.255  
> 2023 05 18 00 01 05.1688020  0  6                     
G02  23055599.557       96382.575        1637.429           0.239  
G03  24880110.799      -26678.379        -526.358           0.228  
G04  24835935.287      -67072.805       -1378.152           0.227  
G05  20644929.504      -92183.400       -2064.010           0.255  
G06  20756309.637       54712.342        1172.201           0.255  
G07  20811790.855      -63982.923       -1829.501           0.255  
> 2023 05 18 00 01 05.2688020  0  6                     
G02  23055559.440       96546.371        1625.368           0.239  
G03  24880124.394      -26731.070        -526.276           0.228  
G04  24835967.596      -67210.484       -1376.967           0.227  
G05  20644982.044      -92389.803       -2064.027           0.255  
G06  20756279.910       54829.626        1172.995           0.255  
G07  20811838.444      -64165.799       -1829.775           0.255  
> 2023 05 18 00 01 05.3688020  0  6                     
G02  23055515.497       96709.870        1635.596           0.239  
G03  24880136.952      -26783.777        -527.305           0.228  
G04  24836006.620      -67348.179       -1377.210           0.227  
G05  20645034.622      -92596.213       -2064.165           0.255  
G06  20756252.293       54946.915        1171.497           0.255  
G07  20811883.456      -64348.683       -1829.947           0.255  
> 2023 05 18 00 01 05.4688020  0  6                     
G02  23055474.787       96873.535        1636.260           0.239  
G03  24880151.446      -26836.022        -484.621           0.228  
G04  24836039.220      -67485.870       -1377.635           0.227  
G05  20645087.160      -92802.618       -2063.989           0.255  
G06  20756220.480       55063.761        1059.645           0.255  
G07  20811930.031      -64531.523       -1828.629           0.255  
> 2023 05 18 00 01 05.5688020  0  6                     
G02  23055432.476       97037.175        1636.959           0.239  
G03  24880164.512      -26889.168        -526.639           0.228  
G04  24836075.885      -67623.545       -1377.899           0.227  
G05  20645139.657      -93009.035       -2064.069           0.255  
G06  20756193.390       55181.474        1172.219           0.255  
G07  20811974.321      -64714.435       -1828.213           0.255  
> 2023 05 18 00 01 05.6688020  0  6                     
G02  23055392.220       97200.829        1636.299           0.239  
G03  24880177.643      -26941.871        -525.997           0.228  
G04  24836108.601      -67761.221       -1376.028           0.227  
G05  20645192.450      -93215.451       -2064.134           0.255  
G06  20756160.382       55298.768        1171.477           0.255  
G07  20812023.235      -64897.321       -1827.467           0.255  
> 2023 05 18 00 01 05.7688020  0  6                     
G02  23055349.509       97364.479        1636.305           0.239  
G03  24880191.995      -26994.588        -527.116           0.228  
G04  24836146.275      -67898.893       -1375.985           0.227  
G05  20645244.855      -93421.874       -2064.496           0.255  
G06  20756131.453       55416.058        1173.657           0.255  
G07  20812068.450      -65080.218       -1829.890           0.255  
> 2023 05 18 00 01 05.8688020  0  6                     
G02  23055306.429       97528.136        1636.478           0.239  
G03  24880203.799      -27047.297        -527.735           0.228  
G04  24836182.358      -68036.557       -1375.932           0.227  
G05  20645297.902      -93628.293       -2064.308           0.255  
G06  20756101.779       55533.336        1174.425           0.255  
G07  20812115.321      -65263.088       -1827.644           0.255  
> 2023 05 18 00 01 05.9688020  0  6                     
G02  23055265.527       97691.783        1636.396           0.239  
G03  24880217.093      -27100.012        -527.671           0.229  
G04  24836215.623      -68174.232       -1376.123           0.227  
G05  20645350.288      -93834.719       -2064.428           0.255  
G06  20756069.887       55650.628        1174.328           0.255  
G07  20812163.255      -65446.006       -1828.567           0.255  
> 2023 05 18 00 01 06.0688020  0  7                     
G02  24282499.734       97848.743        1636.333           0.239  
G03  26107506.774      -27150.521        -525.263           0.228  
G04  26063525.658      -68305.867       -1328.406           0.227  
G05  21872678.465      -94032.694       -2064.321           0.255  
G06  21983317.684       55763.555        1224.508           0.255  
G07  22039481.580      -65621.414       -1828.200           0.255  
G09  20631180.856      -25257.556        -786.482           0.255  
> 2023 05 18 00 01 06.1688020  0  7                     
G02  24282458.287       98012.392        1637.160           0.239  
G03  26107520.080      -27203.300        -527.512           0.228  
G04  26063560.332      -68443.920       -1375.763           0.227  
G05  21872730.642      -94239.126       -2064.399           0.255  
G06  21983288.929       55880.401        1173.903           0.255  
G07  22039528.641      -65804.324       -1828.571           0.255  
G09  20631200.294      -25336.188        -786.605           0.255  
> 2023 05 18 00 01 06.2688020  0  7                     
G02  24282416.230       98176.056        1636.881           0.239  
G03  26107533.695      -27256.026        -527.794           0.228  
G04  26063595.908      -68581.581       -1376.044           0.227  
G05  21872783.228      -94445.571       -2064.511           0.255  
G06  21983255.947       55997.678        1173.661           0.255  
G07  22039579.261      -65987.236       -1829.288           0.255  
G09  20631220.134      -25414.818        -786.373           0.255  
> 2023 05 18 00 01 06.3688020  0  7                     
G02  24282374.591       98339.725        1637.145           0.239  
G03  26107547.110      -27308.748        -527.422           0.228  
G04  26063630.957      -68719.252       -1376.172           0.227  
G05  21872836.134      -94652.012       -2064.347           0.255  
G06  21983226.267       56114.958        1172.836           0.255  
G07  22039625.118      -66170.136       -1828.620           0.255  
G09  20631240.073      -25493.460        -786.741           0.255  
> 2023 05 18 00 01 06.4688020  0  7                     
G02  24282333.135       98503.371        1636.076           0.239  
G03  26107560.800      -27361.475        -527.299           0.228  
G04  26063665.386      -68856.894       -1375.901           0.227  
G05  21872888.635      -94858.448       -2064.209           0.255  
G06  21983194.805       56232.245        1173.406           0.255  
G07  22039673.069      -66353.051       -1828.733           0.255  
G09  20631259.912      -25572.105        -786.772           0.255  
> 2023 05 18 00 01 06.5688020  0  7                     
G02  24282291.922       98667.027        1635.672           0.239  
G03  26107574.240      -27414.212        -526.957           0.228  
G04  26063700.613      -68994.552       -1376.652           0.227  
G05  21872941.299      -95064.892       -2064.218           0.255  
G06  21983164.163       56349.529        1173.153           0.255  
G07  22039721.455      -66535.983       -1829.559           0.255  
G09  20631280.354      -25650.754        -786.549           0.255  
> 2023 05 18 00 01 06.6688020  0  7                     
G02  24282249.982       98830.696        1636.760           0.239  
G03  26107587.244      -27466.942        -526.732           0.228  
G04  26063735.309      -69132.209       -1376.211           0.227  
G05  21872993.981      -95271.340       -2064.587           0.255  
G06  21983137.712       56466.818        1173.593           0.255  
G07  22039764.327      -66718.905       -1829.382           0.255  
G09  20631300.462      -25729.403        -786.709           0.255  
> 2023 05 18 00 01 06.7688020  0  7                     
G02  24282207.588       98994.353        1636.509           0.239  
G03  26107601.319      -27519.572        -520.933           0.228  
G04  26063771.854      -69269.854       -1376.681           0.227  
G05  21873046.348      -95477.773       -2061.592           0.255  
G06  21983110.260       56584.104        1172.233           0.255  
G07  22039807.506      -66901.833       -1828.897           0.255  
G09  20631320.378      -25808.059        -786.646           0.255  
> 2023 05 18 00 01 06.8688020  0  7                     
G02  24282165.653       99158.021        1636.898           0.239  
G03  26107614.887      -27572.424        -526.792           0.228  
G04  26063806.546      -69407.504       -1377.730           0.227  
G05  21873098.906      -95684.244       -2064.785           0.255  
G06  21983077.751       56701.397        1173.994           0.255  
G07  22039855.968      -67084.762       -1829.468           0.255  
G09  20631340.869      -25886.724        -786.912           0.255  
> 2023 05 18 00 01 06.9688020  0  7                     
G02  24282123.529       99321.628        1642.456           0.239  
G03  26107628.046      -27625.144        -516.958           0.228  
G04  26063842.466      -69545.146       -1375.988           0.227  
G05  21873151.881      -95890.665       -2069.355           0.255  
G06  21983047.278       56818.670        1173.554           0.255  
G07  22039904.232      -67267.725       -1824.195           0.255  
G09  20631360.581      -25965.391        -786.849           0.255  
> 2023 05 18 00 01 07.0688020  0  7                     
G02  24282082.392       99485.330        1636.620           0.239  
G03  26107641.077      -27677.915        -526.787           0.228  
G04  26063876.285      -69682.764       -1375.940           0.226  
G05  21873204.381      -96097.157       -2064.574           0.255  
G06  21983016.581       56935.946        1172.395           0.255  
G07  22039951.801      -67450.627       -1829.074           0.255  
G09  20631380.295      -26044.059        -786.823           0.255  
> 2023 05 18 00 01 07.1688020  0  7                     
G02  24282041.346       99649.105        1606.132           0.239  
G03  26107654.241      -27730.525        -461.923           0.228  
G04  26063911.792      -69820.419       -1376.618           0.228  
G05  21873257.039      -96303.622       -2064.768           0.255  
G06  21982984.709       57053.237        1172.531           0.255  
G07  22040002.123      -67633.660       -1859.882           0.255  
G09  20631399.693      -26122.730        -786.180           0.255  
> 2023 05 18 00 01 07.2688020  0  7                     
G02  24281999.455       99812.670        1636.422           0.239  
G03  26107667.415      -27783.421        -528.101           0.228  
G04  26063946.470      -69958.068       -1375.994           0.227  
G05  21873309.663      -96510.085       -2064.652           0.255  
G06  21982956.488       57170.526        1172.947           0.255  
G07  22040046.593      -67816.540       -1818.969           0.255  
G09  20631420.347      -26201.415        -786.651           0.255  
> 2023 05 18 00 01 07.3688020  0  7                     
G02  24281958.836       99976.303        1635.847           0.239  
G03  26107681.667      -27836.166        -527.365           0.228  
G04  26063979.799      -70095.670       -1376.046           0.228  
G05  21873362.026      -96716.540       -2058.514           0.255  
G06  21982928.320       57287.806        1172.144           0.255  
G07  22040089.179      -67999.464       -1829.189           0.255  
G09  20631441.161      -26280.102        -786.834           0.255  
> 2023 05 18 00 01 07.4688020  0  7                     
G02  24281916.234      100139.972        1635.122           0.239  
G03  26107695.573      -27888.930        -527.723           0.228  
G04  26064015.695      -70233.295       -1374.863           0.227  
G05  21873414.542      -96923.022       -2064.639           0.255  
G06  21982899.618       57405.085        1171.077           0.255  
G07  22040135.526      -68182.418       -1829.069           0.255  
G09  20631461.111      -26358.784        -786.426           0.255  
> 2023 05 18 00 01 07.5688020  0  7                     
G02  24281872.342      100303.639        1635.718           0.239  
G03  26107708.515      -27941.689        -528.183           0.228  
G04  26064055.016      -70370.913       -1374.791           0.227  
G05  21873467.359      -97129.501       -2064.788           0.255  
G06  21982869.528       57522.386        1172.843           0.255  
G07  22040182.301      -68365.382       -1829.869           0.255  
G09  20631480.961      -26437.478        -786.554           0.255  
> 2023 05 18 00 01 07.6688020  0  7                     
G02  24281831.632      100467.313        1636.816           0.239  
G03  26107722.235      -27994.678        -542.867           0.228  
G04  26064088.850      -70508.550       -1375.387           0.227  
G05  21873519.957      -97336.030       -2066.078           0.255  
G06  21982838.201       57639.673        1173.865           0.255  
G07  22040231.961      -68548.336       -1829.656           0.255  
G09  20631500.053      -26516.184        -787.422           0.255  
> 2023 05 18 00 01 07.7688020  0  7                     
G02  24281789.406      100630.984        1637.089           0.239  
G03  26107735.861      -28047.222        -528.220           0.228  
G04  26064125.226      -70646.192       -1377.493           0.227  
G05  21873573.201      -97542.458       -2064.663           0.255  
G06  21982807.868       57756.952        1172.090           0.255  
G07  22040278.131      -68731.295       -1829.276           0.255  
G09  20631520.264      -26594.888        -787.333           0.255  
> 2023 05 18 00 01 07.8688020  0  7                     
G02  24281748.243      100794.828        1648.681           0.239  
G03  26107748.890      -28100.410        -588.726           0.228  
G04  26064159.517      -70783.806       -1376.522           0.227  
G05  21873625.377      -97748.938       -2064.636           0.255  
G06  21982777.530       57874.236        1172.539           0.255  
G07  22040324.934      -68914.191       -1892.338           0.255  
G09  20631540.652      -26673.586        -786.610           0.255  
> 2023 05 18 00 01 07.9688020  0  7                     
G02  24281707.231      100958.291        1631.217           0.239  
G03  26107761.598      -28152.761        -527.596           0.228  
G04  26064191.800      -70921.421       -1375.057           0.227  
G05  21873677.974      -97955.427       -2064.741           0.255  
G06  21982748.853       57991.527        1173.026           0.255  
G07  22040370.241      -69097.453       -1856.552           0.255  
G09  20631561.271      -26752.305        -787.063           0.255  
> 2023 05 18 00 01 08.0688020  0  7                     
G02  24281664.154      101121.981        1636.865           0.239  
G03  26107776.255      -28205.543        -528.118           0.228  
G04  26064229.441      -71059.023       -1376.476           0.227  
G05  21873730.193      -98161.916       -2065.028           0.255  
G06  21982718.831       58108.797        1172.019           0.255  
G07  22040417.118      -69280.214       -1829.843           0.255  
G09  20631580.773      -26831.012        -786.691           0.255  
> 2023 05 18 00 01 08.1688020  0  7                     
G02  24281624.017      101285.655        1637.553           0.239  
G03  26107789.382      -28258.319        -528.357           0.228  
G04  26064264.580      -71196.630       -1376.820           0.226  
G05  21873782.795      -98368.408       -2065.143           0.255  
G06  21982689.642       58225.623        1134.776           0.255  
G07  22040463.822      -69463.186       -1830.155           0.255  
G09  20631600.859      -26909.745        -787.239           0.255  
> 2023 05 18 00 01 08.2688020  0  7                     
G02  24281582.368      101449.319        1637.265           0.239  
G03  26107801.658      -28311.099        -527.971           0.228  
G04  26064297.112      -71334.234       -1375.695           0.227  
G05  21873835.326      -98574.903       -2064.947           0.255  
G06  21982659.616       58343.380        1175.767           0.255  
G07  22040509.289      -69646.165       -1829.866           0.255  
G09  20631621.514      -26988.467        -787.642           0.255  
> 2023 05 18 00 01 08.3688020  0  7                     
G02  24281540.688      101612.968        1635.556           0.239  
G03  26107815.763      -28363.878        -527.025           0.228  
G04  26064332.055      -71471.835       -1375.614           0.227  
G05  21873888.117      -98781.405       -2065.025           0.255  
G06  21982628.368       58460.641        1174.337           0.255  
G07  22040557.904      -69829.156       -1829.664           0.255  
G09  20631641.174      -27067.192        -787.619           0.255  
> 2023 05 18 00 01 08.4688020  0  7                     
G02  24281500.071      101776.641        1636.440           0.239  
G03  26107828.413      -28416.667        -527.016           0.228  
G04  26064365.946      -71609.431       -1375.327           0.228  
G05  21873940.758      -98987.903       -2064.767           0.255  
G06  21982601.078       58577.922        1172.394           0.255  
G07  22040601.477      -70012.136       -1829.353           0.255  
G09  20631661.439      -27145.938        -787.617           0.255  
> 2023 05 18 00 01 08.5688020  0  7                     
G02  24281457.416      101940.313        1637.385           0.239  
G03  26107843.728      -28469.459        -527.161           0.228  
G04  26064401.710      -71747.040       -1377.105           0.227  
G05  21873993.748      -99194.411       -2065.077           0.255  
G06  21982570.242       58695.204        1172.725           0.255  
G07  22040647.455      -70195.123       -1829.566           0.255  
G09  20631682.171      -27224.679        -787.772           0.255  
> 2023 05 18 00 01 08.6688020  0  7                     
G02  24281415.893      102103.980        1636.737           0.239  
G03  26107857.495      -28522.257        -528.334           0.228  
G04  26064437.597      -71884.639       -1376.730           0.227  
G05  21874046.293      -99400.918       -2065.024           0.255  
G06  21982539.243       58812.494        1175.220           0.255  
G07  22040697.088      -70378.124       -1829.872           0.255  
G09  20631701.420      -27303.422        -788.688           0.255  
> 2023 05 18 00 01 08.7688020  0  7                     
G02  24281373.773      102267.652        1675.897           0.239  
G03  26107871.658      -28575.058        -527.193           0.228  
G04  26064471.321      -72022.221       -1375.648           0.227  
G05  21874098.817      -99607.430       -2065.103           0.255  
G06  21982512.058       58929.760        1172.292           0.255  
G07  22040742.182      -70561.125       -1830.876           0.255  
G09  20631720.866      -27382.168        -787.286           0.255  
> 2023 05 18 00 01 08.8688020  0  7                     
G02  24281332.629      102431.325        1637.873           0.239  
G03  26107883.600      -28627.854        -526.132           0.228  
G04  26064505.719      -72159.820       -1376.381           0.227  
G05  21874151.226      -99813.943       -2065.307           0.255  
G06  21982479.234       59047.035        1172.944           0.255  
G07  22040790.860      -70744.121       -1830.073           0.255  
G09  20631741.336      -27460.920        -787.527           0.255  
> 2023 05 18 00 01 08.9688020  0  7                     
G02  24281291.595      102594.986        1636.677           0.239  
G03  26107897.743      -28680.659        -528.358           0.228  
G04  26064539.927      -72297.391       -1375.123           0.227  
G05  21874204.579     -100020.465       -2063.745           0.255  
G06  21982450.465       59164.326        1172.420           0.255  
G07  22040836.397      -70927.145       -1828.746           0.255  
G09  20631761.208      -27539.681        -787.656           0.255  
> 2023 05 18 00 01 09.0688020  0  7                     
G02  24281248.679      102758.668        1636.701           0.239  
G03  26107909.289      -28733.465        -527.590           0.228  
G04  26064578.338      -72434.989       -1375.798           0.227  
G05  21874256.924     -100226.977       -2065.122           0.255  
G06  21982420.534       59281.600        1173.639           0.255  
G07  22040884.337      -71110.160       -1832.059           0.255  
G09  20631780.902      -27618.433        -786.985           0.255  
> 2023 05 18 00 01 09.1688020  0  7                     
G02  24281206.497      102922.340        1637.509           0.239  
G03  26107923.549      -28786.268        -527.941           0.228  
G04  26064613.806      -72572.571       -1377.251           0.228  
G05  21874309.401     -100433.504       -2065.395           0.255  
G06  21982394.895       59398.868        1172.371           0.255  
G07  22040924.946      -71293.159       -1830.341           0.255  
G09  20631801.616      -27697.202        -787.198           0.255  
> 2023 05 18 00 01 09.2688020  0  7                     
G02  24281165.935      103086.011        1636.588           0.239  
G03  26107937.253      -28839.084        -528.376           0.228  
G04  26064647.519      -72710.153       -1376.683           0.227  
G05  21874361.874     -100640.057       -2068.620           0.255  
G06  21982362.061       59516.148        1172.447           0.255  
G07  22040973.434      -71476.175       -1830.219           0.255  
G09  20631821.973      -27775.978        -787.870           0.255  
> 2023 05 18 00 01 09.3688020  0  7                     
G02  24281123.774      103249.676        1635.810           0.239  
G03  26107951.176      -28891.896        -528.225           0.228  
G04  26064681.864      -72848.120       -1440.445           0.227  
G05  21874414.411     -100846.572       -2065.530           0.255  
G06  21982329.558       59633.680        1216.938           0.255  
G07  22041023.873      -71659.198       -1829.810           0.255  
G09  20631842.594      -27854.755        -787.564           0.255  
> 2023 05 18 00 01 09.4688020  0  7                     
G02  24281082.450      103413.331        1635.888           0.239  
G03  26107964.522      -28944.892        -534.426           0.228  
G04  26064717.306      -72985.296       -1376.984           0.227  
G05  21874466.944     -101053.099       -2065.154           0.255  
G06  21982302.048       59750.698        1171.575           0.255  
G07  22041067.602      -71842.224       -1830.324           0.255  
G09  20631862.034      -27933.527        -787.856           0.255  
> 2023 05 18 00 01 09.5688020  0  7                     
G02  24281039.444      103577.023        1636.331           0.239  
G03  26107978.236      -28997.536        -528.281           0.228  
G04  26064753.299      -73123.284       -1448.253           0.227  
G05  21874519.426     -101259.634       -2038.952           0.255  
G06  21982271.704       59867.979        1171.146           0.255  
G07  22041116.432      -72025.259       -1830.680           0.255  
G09  20631881.692      -28012.307        -787.352           0.255  
> 2023 05 18 00 01 09.6688020  0  7                     
G02  24280997.803      103740.690        1636.166           0.239  
G03  26107991.797      -29050.349        -527.988           0.228  
G04  26064788.063      -73260.420       -1375.219           0.227  
G05  21874572.867     -101466.171       -2064.968           0.255  
G06  21982243.515       59985.250        1172.344           0.255  
G07  22041160.917      -72208.294       -1831.030           0.255  
G09  20631901.567      -28091.093        -788.018           0.255  
> 2023 05 18 00 01 09.7688020  0  7                     
G02  24280956.593      103904.367        1636.571           0.239  
G03  26108003.371      -29103.176        -528.193           0.228  
G04  26064823.267      -73397.995       -1374.580           0.227  
G05  21874625.219     -101672.712       -2064.994           0.255  
G06  21982209.442       60102.531        1170.848           0.255  
G07  22041208.626      -72391.556       -1867.097           0.255  
G09  20631923.289      -28169.895        -786.955           0.255  
> 2023 05 18 00 01 09.8688020  0  7                     
G02  24280914.634      104068.031        1636.357           0.239  
G03  26108017.603      -29156.000        -528.323           0.228  
G04  26064858.001      -73535.548       -1374.917           0.227  
G05  21874678.081     -101879.256       -2065.594           0.255  
G06  21982181.967       60219.828        1174.000           0.255  
G07  22041258.162      -72574.358       -1830.684           0.255  
G09  20631941.014      -28248.711        -788.672           0.255  
> 2023 05 18 00 01 09.9688020  0  7                     
G02  24280872.569      104231.970        1701.160           0.239  
G03  26108029.088      -29209.032        -528.435           0.228  
G04  26064894.960      -73673.322       -1405.128           0.227  
G05  21874730.433     -102085.810       -2065.651           0.255  
G06  21982153.148       60337.105        1171.969           0.255  
G07  22041304.014      -72757.398       -1829.851           0.255  
G09  20631961.432      -28327.511        -788.389           0.255  
> 2023 05 18 00 01 10.0688020  0  7                     
G02  24280831.910      104395.392        1636.845           0.239  
G03  26108044.985      -29261.673        -528.783           0.228  
G04  26064928.527      -73810.541       -1363.838           0.227  
G05  21874783.025     -102292.357       -2065.613           0.255  
G06  21982123.137       60453.568         997.583           0.255  
G07  22041349.604      -72940.447       -1829.504           0.255  
G09  20631980.804      -28406.316        -788.057           0.255  
> 2023 05 18 00 01 10.1688020  0  7                     
G02  24280790.541      104559.071        1635.686           0.239  
G03  26108058.849      -29314.512        -529.272           0.228  
G04  26064962.467      -73948.226       -1374.934           0.227  
G05  21874835.600     -102498.821       -2062.830           0.255  
G06  21982090.093       60571.665        1172.074           0.255  
G07  22041398.299      -73123.506       -1829.653           0.255  
G09  20632001.907      -28485.131        -787.708           0.255  
> 2023 05 18 00 01 10.2688020  0  7                     
G02  24280749.574      104722.757        1636.794           0.239  
G03  26108071.694      -29367.342        -527.621           0.228  
G04  26064995.545      -74085.772       -1375.281           0.227  
G05  21874888.591     -102705.468       -2066.011           0.255  
G06  21982061.494       60688.929        1171.944           0.255  
G07  22041446.283      -73306.551       -1831.073           0.255  
G09  20632020.977      -28563.955        -788.437           0.255  
> 2023 05 18 00 01 10.3688020  0  7                     
G02  24280706.910      104886.429        1636.218           0.239  
G03  26108086.099      -29420.188        -528.012           0.228  
G04  26065031.906      -74223.664       -1385.715           0.227  
G05  21874941.035     -102912.157       -2088.670           0.255  
G06  21982033.280       60805.815        1095.957           0.255  
G07  22041487.840      -73489.615       -1831.036           0.255  
G09  20632042.988      -28642.774        -788.069           0.255  
> 2023 05 18 00 01 10.4688020  0  7                     
G02  24280664.556      105050.106        1636.427           0.239  
G03  26108099.711      -29473.037        -528.280           0.228  
G04  26065068.220      -74360.865       -1375.125           0.227  
G05  21874993.192     -103118.615       -2075.255           0.255  
G06  21982002.716       60923.506        1173.911           0.255  
G07  22041535.391      -73672.670       -1830.748           0.255  
G09  20632062.230      -28721.604        -788.314           0.255  
> 2023 05 18 00 01 10.5688020  0  7                     
G02  24280623.182      105213.780        1636.491           0.239  
G03  26108114.363      -29525.890        -528.509           0.228  
G04  26065103.838      -74498.392       -1375.338           0.226  
G05  21875045.637     -103325.160       -2065.738           0.255  
G06  21981969.995       61040.784        1172.301           0.255  
G07  22041587.076      -73855.731       -1829.777           0.255  
G09  20632081.800      -28800.443        -788.333           0.255  
> 2023 05 18 00 01 10.6688020  0  7                     
G02  24280581.027      105377.468        1637.051           0.239  
G03  26108126.786      -29578.732        -528.309           0.228  
G04  26065138.338      -74635.952       -1376.111           0.227  
G05  21875098.875     -103531.725       -2065.821           0.255  
G06  21981938.163       61158.059        1172.355           0.255  
G07  22041633.516      -74038.796       -1830.157           0.255  
G09  20632103.040      -28879.282        -788.060           0.255  
> 2023 05 18 00 01 10.7688020  0  7                     
G02  24280539.894      105541.135        1636.018           0.239  
G03  26108140.446      -29631.594        -528.296           0.228  
G04  26065171.660      -74773.486       -1375.266           0.227  
G05  21875150.891     -103738.298       -2066.131           0.255  
G06  21981915.033       61275.347        1173.785           0.255  
G07  22041672.478      -74221.892       -1831.031           0.255  
G09  20632123.898      -28958.116        -788.145           0.255  
> 2023 05 18 00 01 10.8688020  0  7                     
G02  24280498.212      105704.819        1636.566           0.239  
G03  26108152.826      -29684.745        -560.624           0.228  
G04  26065208.266      -74911.013       -1375.268           0.227  
G05  21875204.253     -103944.975       -2088.344           0.255  
G06  21981880.420       61392.581        1172.697           0.255  
G07  22041723.192      -74404.933       -1829.939           0.255  
G09  20632143.724      -29036.961        -788.576           0.255  
> 2023 05 18 00 01 10.9688020  0  7                     
G02  24280455.596      105868.498        1636.332           0.239  
G03  26108165.975      -29737.313        -528.603           0.228  
G04  26065243.571      -75048.550       -1374.922           0.228  
G05  21875256.952     -104151.448       -2065.688           0.255  
G06  21981854.490       61509.885        1172.130           0.255  
G07  22041766.707      -74588.054       -1830.490           0.255  
G09  20632163.509      -29115.816        -788.904           0.255  
> 2023 05 18 00 01 11.0688020  0  7                     
G02  24280415.523      106032.178        1636.463           0.239  
G03  26108179.827      -29790.173        -528.465           0.228  
G04  26065277.271      -75186.086       -1375.369           0.227  
G05  21875309.443     -104358.030       -2065.893           0.255  
G06  21981821.593       61627.155        1171.445           0.255  
G07  22041816.495      -74771.130       -1830.620           0.255  
G09  20632183.654      -29194.671        -788.243           0.255  
> 2023 05 18 00 01 11.1688020  0  7                     
G02  24280372.379      106195.861        1637.132           0.239  
G03  26108193.007      -29843.046        -528.445           0.228  
G04  26065313.684      -75323.713       -1390.082           0.227  
G05  21875362.276     -104564.617       -2066.139           0.255  
G06  21981790.229       61744.439        1171.940           0.255  
G07  22041865.554      -74954.218       -1829.512           0.255  
G09  20632203.630      -29273.528        -788.288           0.255  
> 2023 05 18 00 01 11.2688020  0  7                     
G02  24280331.353      106359.544        1636.822           0.239  
G03  26108205.346      -29895.914        -528.884           0.228  
G04  26065347.333      -75461.137       -1376.217           0.227  
G05  21875414.530     -104771.202       -2066.108           0.255  
G06  21981760.043       61861.697        1171.846           0.255  
G07  22041913.127      -75137.304       -1831.272           0.255  
G09  20632223.164      -29352.390        -787.642           0.255  
> 2023 05 18 00 01 11.3688020  0  7                     
G02  24280288.918      106523.231        1636.951           0.239  
G03  26108218.318      -29948.787        -528.829           0.228  
G04  26065384.365      -75598.656       -1377.277           0.226  
G05  21875467.569     -104977.791       -2065.942           0.255  
G06  21981727.893       61978.964        1171.606           0.255  
G07  22041961.694      -75320.400       -1831.477           0.255  
G09  20632243.387      -29431.257        -788.504           0.255  
> 2023 05 18 00 01 11.4688020  0  7                     
G02  24280248.161      106686.907        1636.454           0.239  
G03  26108232.569      -30001.662        -528.907           0.228  
G04  26065418.834      -75736.167       -1374.915           0.227  
G05  21875520.289     -105184.382       -2065.842           0.255  
G06  21981697.610       62096.242        1170.811           0.255  
G07  22042007.286      -75503.500       -1831.693           0.255  
G09  20632264.010      -29510.136        -788.015           0.255  
> 2023 05 18 00 01 11.5688020  0  7                     
G02  24280205.693      106850.600        1637.584           0.239  
G03  26108245.773      -30054.541        -529.142           0.228  
G04  26065454.940      -75873.694       -1376.641           0.227  
G05  21875573.027     -105390.978       -2065.685           0.255  
G06  21981669.620       62213.516        1173.820           0.255  
G07  22042053.528      -75686.597       -1831.210           0.255  
G09  20632283.451      -29589.014        -789.039           0.255  
> 2023 05 18 00 01 11.6688020  0  7                     
G02  24280163.008      107014.278        1636.923           0.239  
G03  26108258.868      -30107.422        -528.911           0.228  
G04  26065489.780      -76011.191       -1374.724           0.227  
G05  21875625.547     -105597.579       -2066.131           0.255  
G06  21981640.579       62330.791        1172.429           0.255  
G07  22042098.201      -75869.705       -1831.764           0.255  
G09  20632304.358      -29667.897        -788.408           0.255  
> 2023 05 18 00 01 11.7688020  0  7                     
G02  24280121.919      107177.969        1637.286           0.239  
G03  26108273.264      -30160.301        -529.197           0.228  
G04  26065524.609      -76148.703       -1374.228           0.227  
G05  21875678.073     -105804.184       -2066.401           0.255  
G06  21981616.622       62448.079        1171.745           0.255  
G07  22042139.399      -76052.810       -1831.080           0.255  
G09  20632324.196      -29746.788        -788.797           0.255  
> 2023 05 18 00 01 11.8688020  0  7                     
G02  24280080.768      107341.650        1636.953           0.239  
G03  26108287.082      -30213.187        -528.806           0.228  
G04  26065558.930      -76286.209       -1375.036           0.227  
G05  21875730.561     -106010.792       -2065.934           0.255  
G06  21981585.916       62565.457        1190.563           0.255  
G07  22042187.247      -76235.916       -1831.031           0.255  
G09  20632344.262      -29825.682        -788.927           0.255  
> 2023 05 18 00 01 11.9688020  0  7                     
G02  24280038.684      107505.331        1636.035           0.239  
G03  26108300.915      -30266.074        -528.931           0.228  
G04  26065594.111      -76423.717       -1374.070           0.227  
G05  21875783.349     -106217.402       -2066.095           0.255  
G06  21981555.378       62682.604        1173.048           0.255  
G07  22042234.575      -76419.032       -1830.974           0.255  
G09  20632364.185      -29904.576        -789.203           0.255  
> 2023 05 18 00 01 12.0688020  0  7                     
G02  24279997.858      107669.018        1635.659           0.239  
G03  26108314.236      -30318.968        -529.163           0.228  
G04  26065627.584      -76561.224       -1374.940           0.228  
G05  21875836.057     -106424.006       -2073.108           0.255  
G06  21981526.168       62799.879        1171.907           0.255  
G07  22042280.197      -76602.155       -1831.488           0.255  
G09  20632384.062      -29983.474        -788.877           0.255  
> 2023 05 18 00 01 12.1688020  0  7                     
G02  24279954.675      107832.705        1636.329           0.239  
G03  26108327.781      -30371.860        -528.826           0.228  
G04  26065664.496      -76698.735       -1375.704           0.227  
G05  21875888.524     -106630.638       -2066.504           0.255  
G06  21981496.953       62917.160        1173.276           0.255  
G07  22042326.257      -76785.275       -1831.560           0.255  
G09  20632404.660      -30062.381        -788.612           0.255  
> 2023 05 18 00 01 12.2688020  0  7                     
G02  24279914.567      107996.386        1637.005           0.239  
G03  26108341.730      -30424.757        -528.688           0.228  
G04  26065699.404      -76836.210       -1374.455           0.227  
G05  21875940.963     -106837.260       -2066.176           0.255  
G06  21981464.371       63034.435        1173.198           0.255  
G07  22042375.136      -76968.405       -1831.774           0.255  
G09  20632424.541      -30141.296        -789.048           0.255  
> 2023 05 18 00 01 12.3688020  0  7                     
G02  24279873.295      108160.060        1636.094           0.239  
G03  26108355.254      -30477.656        -528.635           0.228  
G04  26065733.516      -76973.696       -1373.552           0.227  
G05  21875993.771     -107043.890       -2066.051           0.255  
G06  21981432.781       63151.704        1172.917           0.255  
G07  22042423.485      -77151.529       -1831.397           0.255  
G09  20632444.766      -30220.209        -789.162           0.255  
> 2023 05 18 00 01 12.4688020  0  7                     
G02  24279831.949      108323.747        1636.928           0.239  
G03  26108367.681      -30530.564        -529.108           0.228  
G04  26065767.971      -77111.166       -1374.914           0.227  
G05  21876046.559     -107250.521       -2066.556           0.255  
G06  21981404.249       63268.979        1172.766           0.255  
G07  22042468.758      -77334.668       -1831.345           0.255  
G09  20632464.856      -30299.126        -789.058           0.255  
> 2023 05 18 00 01 12.5688020  0  7                     
G02  24279790.359      108487.443        1637.241           0.239  
G03  26108380.639      -30583.473        -529.323           0.228  
G04  26065802.884      -77248.670       -1375.586           0.227  
G05  21876099.327     -107457.190       -2064.629           0.255  
G06  21981375.456       63386.251        1172.553           0.255  
G07  22042514.988      -77517.806       -1831.330           0.255  
G09  20632484.947      -30378.051        -788.996           0.255  
> 2023 05 18 00 01 12.6688020  0  7                     
G02  24279748.726      108651.148        1636.734           0.239  
G03  26108393.703      -30636.387        -529.094           0.228  
G04  26065837.390      -77386.178       -1375.725           0.228  
G05  21876151.587     -107663.779       -2066.081           0.255  
G06  21981342.234       63503.515        1172.508           0.255  
G07  22042565.635      -77700.949       -1831.721           0.255  
G09  20632505.195      -30456.981        -788.891           0.255  
> 2023 05 18 00 01 12.7688020  0  7                     
G02  24279706.056      108814.730        1584.299           0.239  
G03  26108408.093      -30689.288        -528.831           0.228  
G04  26065874.164      -77523.643       -1375.064           0.227  
G05  21876204.415     -107870.417       -2066.579           0.255  
G06  21981313.637       63621.026        1228.412           0.255  
G07  22042609.791      -77884.087       -1831.729           0.255  
G09  20632525.170      -30535.912        -789.086           0.255  
> 2023 05 18 00 01 12.8688020  0  7                     
G02  24279663.721      108978.522        1636.984           0.239  
G03  26108421.457      -30742.213        -529.253           0.228  
G04  26065909.475      -77661.133       -1375.591           0.227  
G05  21876257.217     -108077.059       -2066.772           0.255  
G06  21981286.151       63738.068        1172.140           0.255  
G07  22042653.747      -78067.236       -1831.536           0.255  
G09  20632545.470      -30614.850        -789.400           0.255  
> 2023 05 18 00 01 12.9688020  0  7                     
G02  24279621.164      109142.212        1636.203           0.239  
G03  26108435.490      -30795.130        -529.229           0.228  
G04  26065945.115      -77798.613       -1374.709           0.227  
G05  21876309.992     -108283.695       -2065.632           0.255  
G06  21981253.948       63855.347        1173.771           0.255  
G07  22042703.325      -78250.388       -1831.370           0.255  
G09  20632565.209      -30693.795        -789.366           0.255  
> 2023 05 18 00 01 13.0688020  0  7                     
G02  24279578.535      109305.899        1637.645           0.239  
G03  26108449.089      -30848.058        -529.333           0.228  
G04  26065981.421      -77936.074       -1375.045           0.227  
G05  21876362.548     -108490.339       -2066.122           0.255  
G06  21981225.599       63972.606        1172.636           0.255  
G07  22042749.270      -78433.545       -1831.220           0.255  
G09  20632585.038      -30772.744        -789.558           0.255  
> 2023 05 18 00 01 13.1688020  0  7                     
G02  24279538.962      109469.594        1637.272           0.239  
G03  26108462.742      -30900.979        -529.593           0.228  
G04  26066013.421      -78073.593       -1352.509           0.227  
G05  21876414.781     -108696.990       -2066.404           0.255  
G06  21981193.921       64089.886        1172.174           0.255  
G07  22042797.320      -78616.709       -1832.014           0.255  
G09  20632605.430      -30851.694        -789.841           0.255  
> 2023 05 18 00 01 13.2688020  0  7                     
G02  24279498.669      109633.285        1637.208           0.239  
G03  26108475.337      -30953.908        -529.590           0.228  
G04  26066046.315      -78211.022       -1374.425           0.227  
G05  21876467.539     -108903.642       -2066.339           0.255  
G06  21981165.767       64207.164        1172.678           0.255  
G07  22042842.644      -78799.865       -1832.067           0.255  
G09  20632626.028      -30930.649        -789.560           0.255  
> 2023 05 18 00 01 13.3688020  0  7                     
G02  24279456.227      109796.975        1636.133           0.239  
G03  26108489.547      -31006.931        -559.014           0.228  
G04  26066082.892      -78348.378       -1362.515           0.227  
G05  21876520.358     -109110.278       -2049.281           0.255  
G06  21981134.114       64324.437        1173.421           0.255  
G07  22042890.251      -78983.362       -1857.812           0.255  
G09  20632645.973      -31009.612        -790.071           0.255  
> 2023 05 18 00 01 13.4688020  0  7                     
G02  24279413.231      109960.663        1636.061           0.239  
G03  26108502.676      -31059.775        -529.529           0.228  
G04  26066119.434      -78485.943       -1373.681           0.227  
G05  21876573.062     -109316.921       -2053.707           0.255  
G06  21981103.848       64441.703        1172.684           0.255  
G07  22042937.972      -79166.201       -1831.776           0.255  
G09  20632666.017      -31088.579        -789.972           0.255  
> 2023 05 18 00 01 13.5688020  0  7                     
G02  24279371.818      110124.362        1636.641           0.239  
G03  26108516.405      -31112.712        -529.951           0.228  
G04  26066154.517      -78623.418       -1375.994           0.227  
G05  21876625.803     -109523.609       -2066.134           0.255  
G06  21981075.359       64558.971        1174.222           0.255  
G07  22042983.581      -79349.372       -1832.825           0.255  
G09  20632685.953      -31167.545        -789.863           0.255  
> 2023 05 18 00 01 13.6688020  0  7                     
G02  24279327.903      110288.044        1637.314           0.239  
G03  26108530.808      -31165.652        -529.560           0.228  
G04  26066191.695      -78760.841       -1374.975           0.227  
G05  21876678.642     -109730.277       -2066.592           0.255  
G06  21981043.996       64676.235        1172.062           0.255  
G07  22043032.725      -79532.557       -1831.860           0.255  
G09  20632705.199      -31246.519        -789.613           0.255  
> 2023 05 18 00 01 13.7688020  0  7                     
G02  24279286.486      110451.735        1636.780           0.239  
G03  26108543.225      -31218.594        -529.861           0.228  
G04  26066227.482      -78898.292       -1372.147           0.227  
G05  21876731.005     -109937.028       -2072.678           0.255  
G06  21981016.123       64793.923        1199.086           0.255  
G07  22043074.280      -79715.736       -1832.003           0.255  
G09  20632727.009      -31325.500        -789.603           0.255  
> 2023 05 18 00 01 13.8688020  0  7                     
G02  24279246.422      110615.439        1636.993           0.239  
G03  26108556.247      -31271.533        -529.872           0.228  
G04  26066260.266      -79035.773       -1375.077           0.227  
G05  21876784.150     -110143.617       -2066.709           0.255  
G06  21980985.855       64910.771        1171.462           0.255  
G07  22043120.844      -79898.912       -1831.336           0.255  
G09  20632747.473      -31404.487        -789.763           0.255  
> 2023 05 18 00 01 13.9688020  0  7                     
G02  24279204.818      110779.130        1636.107           0.239  
G03  26108569.757      -31324.472        -528.665           0.228  
G04  26066295.849      -79173.212       -1374.378           0.227  
G05  21876836.766     -110350.284       -2066.698           0.255  
G06  21980956.683       65028.043        1172.903           0.255  
G07  22043168.907      -80082.117       -1832.801           0.255  
G09  20632766.572      -31483.469        -789.897           0.255  
> 2023 05 18 00 01 14.0688020  0  7                     
G02  24279162.297      110942.864        1603.329           0.239  
G03  26108582.856      -31377.247        -531.304           0.228  
G04  26066332.207      -79310.653       -1374.833           0.226  
G05  21876889.823     -110557.160       -2088.335           0.255  
G06  21980925.120       65145.304        1173.190           0.255  
G07  22043216.599      -80265.304       -1832.114           0.255  
G09  20632787.187      -31562.455        -789.357           0.255  
> 2023 05 18 00 01 14.1688020  0  7                     
G02  24279121.516      111106.526        1636.498           0.239  
G03  26108597.303      -31430.652        -562.678           0.228  
G04  26066365.968      -79448.307       -1455.635           0.227  
G05  21876942.157     -110763.641       -2066.819           0.255  
G06  21980895.991       65262.581        1173.299           0.255  
G07  22043262.910      -80448.505       -1831.967           0.255  
G09  20632806.752      -31641.459        -790.230           0.255  
> 2023 05 18 00 01 14.2688020  0  7                     
G02  24279079.737      111270.224        1637.580           0.239  
G03  26108611.591      -31483.346        -529.924           0.228  
G04  26066401.174      -79585.549       -1375.759           0.226  
G05  21876994.501     -110970.321       -2066.824           0.255  
G06  21980866.200       65379.834        1172.074           0.255  
G07  22043309.418      -80631.687       -1831.528           0.255  
G09  20632826.962      -31720.465        -790.165           0.255  
> 2023 05 18 00 01 14.3688020  0  7                     
G02  24279038.436      111433.926        1637.246           0.239  
G03  26108624.070      -31536.299        -529.277           0.228  
G04  26066434.858      -79722.995       -1375.987           0.227  
G05  21877047.203     -111177.004       -2066.381           0.255  
G06  21980836.467       65497.102        1171.061           0.255  
G07  22043356.282      -80814.886       -1831.885           0.255  
G09  20632847.314      -31799.472        -789.948           0.255  
> 2023 05 18 00 01 14.4688020  0  7                     
G02  24278997.079      111597.618        1636.920           0.239  
G03  26108637.875      -31589.266        -530.456           0.228  
G04  26066468.039      -79860.403       -1373.834           0.227  
G05  21877100.021     -111383.697       -2066.770           0.255  
G06  21980805.754       65614.371        1173.867           0.255  
G07  22043400.862      -80997.859       -1768.549           0.255  
G09  20632868.470      -31878.476        -789.786           0.255  
> 2023 05 18 00 01 14.5688020  0  7                     
G02  24278955.274      111761.310        1637.266           0.239  
G03  26108651.804      -31642.220        -529.292           0.228  
G04  26066503.688      -79997.844       -1375.257           0.227  
G05  21877152.416     -111590.383       -2066.610           0.255  
G06  21980777.386       65731.645        1173.514           0.255  
G07  22043447.497      -81181.309       -1832.040           0.255  
G09  20632888.002      -31957.496        -790.186           0.255  
> 2023 05 18 00 01 14.6688020  0  7                     
G02  24278913.187      111925.010        1637.067           0.239  
G03  26108665.029      -31695.191        -529.243           0.228  
G04  26066539.009      -80135.266       -1374.205           0.227  
G05  21877205.149     -111797.079       -2066.974           0.255  
G06  21980747.655       65848.905        1172.299           0.255  
G07  22043493.427      -81364.522       -1831.528           0.255  
G09  20632908.371      -32036.517        -790.061           0.255  
> 2023 05 18 00 01 14.7688020  0  7                     
G02  24278871.633      112088.703        1629.228           0.239  
G03  26108678.617      -31748.398        -556.812           0.228  
G04  26066574.048      -80272.708       -1375.837           0.227  
G05  21877257.852     -112003.776       -2066.857           0.255  
G06  21980718.869       65966.171        1171.209           0.255  
G07  22043538.192      -81547.739       -1831.671           0.255  
G09  20632929.431      -32115.538        -789.691           0.255  
> 2023 05 18 00 01 14.8688020  0  7                     
G02  24278828.998      112252.745        1688.701           0.239  
G03  26108692.386      -31801.632        -585.158           0.228  
G04  26066610.517      -80410.131       -1374.477           0.227  
G05  21877310.617     -112210.467       -2077.341           0.255  
G06  21980689.098       66082.887        1162.849           0.255  
G07  22043585.657      -81730.964       -1831.813           0.255  
G09  20632948.717      -32194.570        -790.563           0.255  
> 2023 05 18 00 01 14.9688020  0  7                     
G02  24278787.950      112416.097        1636.219           0.239  
G03  26108705.718      -31854.118        -529.863           0.228  
G04  26066643.479      -80547.541       -1374.090           0.227  
G05  21877363.118     -112417.177       -2066.914           0.255  
G06  21980657.763       66200.709        1171.910           0.255  
G07  22043637.279      -81914.189       -1832.405           0.255  
G09  20632966.891      -32273.608        -790.467           0.255  
> 2023 05 18 00 01 15.0688020  0  7                     
G02  24278746.347      112579.720        1576.107           0.239  
G03  26108718.884      -31907.053        -487.148           0.228  
G04  26066679.399      -80684.957       -1373.198           0.227  
G05  21877415.614     -112623.887       -2067.136           0.255  
G06  21980628.277       66317.974        1172.927           0.255  
G07  22043681.293      -82097.407       -1832.217           0.255  
G09  20632988.133      -32352.648        -790.868           0.255  
> 2023 05 18 00 01 15.1688020  0  7                     
G02  24278704.110      112743.671        1630.280           0.239  
G03  26108733.157      -31960.458        -543.887           0.228  
G04  26066715.413      -80822.386       -1374.000           0.227  
G05  21877468.639     -112830.591       -2066.787           0.255  
G06  21980596.588       66435.240        1172.859           0.255  
G07  22043729.003      -82280.639       -1832.097           0.255  
G09  20633009.047      -32431.689        -790.908           0.255  
> 2023 05 18 00 01 15.2688020  0  7                     
G02  24278661.427      112907.208        1636.525           0.239  
G03  26108746.372      -32013.072        -530.171           0.228  
G04  26066750.068      -80959.791       -1373.063           0.227  
G05  21877521.291     -113037.308       -2067.193           0.255  
G06  21980567.234       66552.507        1170.819           0.255  
G07  22043777.429      -82463.895       -1832.995           0.255  
G09  20633028.192      -32510.730        -789.772           0.255  
> 2023 05 18 00 01 15.3688020  0  7                     
G02  24278620.845      113070.906        1636.328           0.239  
G03  26108759.971      -32066.054        -529.357           0.228  
G04  26066784.890      -81097.198       -1373.336           0.227  
G05  21877573.856     -113244.021       -2067.135           0.255  
G06  21980539.006       66669.772        1171.670           0.255  
G07  22043822.260      -82647.119       -1832.640           0.255  
G09  20633047.837      -32589.786        -790.157           0.255  
> 2023 05 18 00 01 15.4688020  0  7                     
G02  24278579.468      113234.614        1637.255           0.239  
G03  26108774.284      -32119.043        -529.202           0.228  
G04  26066819.734      -81234.604       -1373.074           0.227  
G05  21877626.403     -113450.741       -2067.031           0.255  
G06  21980508.912       66787.052        1172.895           0.255  
G07  22043869.545      -82830.375       -1833.256           0.255  
G09  20633068.290      -32668.847        -790.576           0.255  
> 2023 05 18 00 01 15.5688020  0  7                     
G02  24278537.130      113398.470        1648.939           0.239  
G03  26108786.904      -32171.526        -448.815           0.228  
G04  26066855.264      -81372.020       -1374.973           0.227  
G05  21877679.219     -113657.429       -2048.509           0.255  
G06  21980477.285       66904.533        1160.429           0.255  
G07  22043916.014      -83014.361       -1922.793           0.255  
G09  20633089.247      -32747.908        -789.961           0.255  
> 2023 05 18 00 01 15.6688020  0  7                     
G02  24278495.183      113562.023        1636.683           0.239  
G03  26108800.008      -32225.335        -576.078           0.228  
G04  26066890.648      -81509.418       -1374.330           0.227  
G05  21877731.675     -113864.119       -2072.205           0.255  
G06  21980447.101       67020.988        1059.566           0.255  
G07  22043963.793      -83196.865       -1832.111           0.255  
G09  20633109.468      -32826.980        -790.811           0.255  
> 2023 05 18 00 01 15.7688020  0  7                     
G02  24278453.712      113725.728        1636.987           0.239  
G03  26108813.925      -32278.047        -530.123           0.228  
G04  26066924.782      -81646.821       -1375.573           0.227  
G05  21877784.266     -114070.913       -2067.286           0.255  
G06  21980417.149       67138.842        1172.490           0.255  
G07  22044011.183      -83380.103       -1832.265           0.255  
G09  20633129.454      -32906.042        -790.397           0.255  
> 2023 05 18 00 01 15.8688020  0  7                     
G02  24278411.884      113889.424        1636.783           0.239  
G03  26108827.386      -32331.065        -530.480           0.228  
G04  26066960.399      -81784.201       -1372.098           0.227  
G05  21877836.908     -114277.646       -2067.144           0.255  
G06  21980387.353       67256.113        1171.319           0.255  
G07  22044056.503      -83563.364       -1830.654           0.255  
G09  20633150.431      -32985.120        -790.823           0.255  
> 2023 05 18 00 01 15.9688020  0  7                     
G02  24278371.483      114053.128        1637.432           0.239  
G03  26108840.377      -32384.043        -529.539           0.228  
G04  26066993.237      -81921.620       -1374.487           0.227  
G05  21877889.795     -114484.377       -2067.296           0.255  
G06  21980358.513       67373.366        1171.807           0.255  
G07  22044103.260      -83746.622       -1831.661           0.255  
G09  20633169.566      -33064.194        -790.274           0.255  
> 2023 05 18 00 01 16.0688020  0  7                     
G02  24278328.306      114216.827        1638.087           0.239  
G03  26108853.120      -32437.056        -529.888           0.228  
G04  26067031.187      -82058.999       -1374.683           0.227  
G05  21877942.643     -114691.115       -2067.287           0.255  
G06  21980328.248       67490.640        1173.007           0.255  
G07  22044148.370      -83929.890       -1833.003           0.255  
G09  20633190.428      -33143.282        -791.013           0.255  
> 2023 05 18 00 01 16.1688020  0  7                     
G02  24278287.332      114380.528        1636.700           0.239  
G03  26108867.123      -32490.076        -530.376           0.228  
G04  26067064.739      -82196.385       -1373.258           0.226  
G05  21877995.295     -114897.855       -2067.375           0.255  
G06  21980299.795       67607.930        1172.924           0.255  
G07  22044196.014      -84113.160       -1833.230           0.255  
G09  20633209.599      -33222.387        -790.753           0.255  
> 2023 05 18 00 01 16.2688020  0  7                     
G02  24278246.242      114544.249        1636.985           0.239  
G03  26108881.173      -32543.080        -529.066           0.228  
G04  26067099.042      -82333.794       -1374.994           0.227  
G05  21878047.546     -115104.607       -2067.366           0.255  
G06  21980267.022       67725.195        1175.280           0.255  
G07  22044244.383      -84296.420       -1832.865           0.255  
G09  20633230.524      -33301.490        -792.162           0.255  
> 2023 05 18 00 01 16.3688020  0  7                     
G02  24278204.529      114707.952        1637.454           0.239  
G03  26108894.067      -32596.093        -529.533           0.228  
G04  26067131.094      -82471.166       -1376.064           0.227  
G05  21878100.669     -115311.352       -2067.394           0.255  
G06  21980238.719       67842.442        1172.806           0.255  
G07  22044289.905      -84479.698       -1831.860           0.255  
G09  20633250.302      -33380.582        -791.021           0.255  
> 2023 05 18 00 01 16.4688020  0  7                     
G02  24278164.282      114871.661        1637.465           0.239  
G03  26108908.104      -32648.763        -482.009           0.228  
G04  26067164.473      -82608.536       -1374.214           0.227  
G05  21878153.535     -115518.100       -2067.189           0.255  
G06  21980208.893       67959.700        1171.987           0.255  
G07  22044337.032      -84662.985       -1832.690           0.255  
G09  20633270.435      -33459.681        -790.857           0.255  
> 2023 05 18 00 01 16.5688020  0  7                     
G02  24278121.413      115035.365        1636.490           0.239  
G03  26108921.565      -32702.139        -529.707           0.228  
G04  26067201.989      -82745.904       -1371.650           0.226  
G05  21878206.359     -115724.857       -2067.858           0.255  
G06  21980179.496       68076.953        1171.346           0.255  
G07  22044383.446      -84846.253       -1830.905           0.255  
G09  20633290.303      -33538.791        -791.905           0.255  
> 2023 05 18 00 01 16.6688020  0  7                     
G02  24278078.459      115198.808        1582.786           0.239  
G03  26108934.975      -32755.324        -535.082           0.228  
G04  26067239.879      -82882.672       -1304.948           0.227  
G05  21878258.820     -115931.647       -2077.723           0.255  
G06  21980151.192       68194.217        1172.163           0.255  
G07  22044428.757      -85029.256       -1752.243           0.255  
G09  20633309.996      -33617.911        -791.587           0.255  
> 2023 05 18 00 01 16.7688020  0  7                     
G02  24278037.709      115362.781        1636.095           0.239  
G03  26108949.609      -32808.202        -531.044           0.229  
G04  26067274.407      -83020.645       -1371.927           0.228  
G05  21878311.347     -116138.355       -2073.538           0.255  
G06  21980117.501       68311.484        1173.006           0.255  
G07  22044476.020      -85212.756       -1882.908           0.255  
G09  20633331.762      -33697.024        -791.013           0.255  
> 2023 05 18 00 01 16.8688020  0  7                     
G02  24277996.280      115526.488        1636.753           0.239  
G03  26108961.775      -32861.237        -530.776           0.228  
G04  26067309.723      -83158.029       -1373.523           0.227  
G05  21878363.932     -116345.143       -2069.293           0.255  
G06  21980088.304       68428.736        1171.939           0.255  
G07  22044521.927      -85396.194       -1844.515           0.255  
G09  20633351.960      -33776.140        -791.279           0.255  
> 2023 05 18 00 01 16.9688020  0  7                     
G02  24277953.473      115690.190        1636.561           0.239  
G03  26108975.586      -32914.265        -530.305           0.228  
G04  26067345.253      -83295.380       -1373.114           0.227  
G05  21878416.862     -116551.894       -2067.814           0.255  
G06  21980057.981       68545.999        1172.719           0.255  
G07  22044570.311      -85579.436       -1833.477           0.255  
G09  20633371.732      -33855.263        -791.134           0.255  
> 2023 05 18 00 01 17.0688020  0  7                     
G02  24277911.881      115853.892        1636.727           0.239  
G03  26108989.017      -32967.308        -530.255           0.228  
G04  26067379.782      -83432.746       -1372.796           0.227  
G05  21878469.149     -116758.662       -2067.974           0.255  
G06  21980029.524       68663.270        1173.724           0.255  
G07  22044617.569      -85762.742       -1833.674           0.255  
G09  20633391.440      -33934.396        -791.122           0.255  
> 2023 05 18 00 01 17.1688020  0  7                     
G02  24277869.717      116017.609        1637.393           0.239  
G03  26109003.049      -33020.346        -530.489           0.228  
G04  26067415.240      -83570.108       -1373.011           0.227  
G05  21878522.414     -116965.431       -2067.853           0.255  
G06  21979998.971       68780.509        1171.785           0.255  
G07  22044664.629      -85946.031       -1833.212           0.255  
G09  20633411.367      -34013.537        -790.656           0.255  
> 2023 05 18 00 01 17.2688020  0  7                     
G02  24277828.303      116181.323        1637.185           0.239  
G03  26109016.080      -33073.392        -531.005           0.228  
G04  26067450.025      -83707.742       -1453.131           0.227  
G05  21878575.293     -117172.205       -2067.586           0.255  
G06  21979969.542       68897.786        1171.208           0.255  
G07  22044710.581      -86129.358       -1833.493           0.255  
G09  20633431.661      -34092.669        -791.059           0.255  
> 2023 05 18 00 01 17.3688020  0  7                     
G02  24277787.089      116345.024        1636.258           0.239  
G03  26109028.948      -33126.433        -530.029           0.228  
G04  26067484.793      -83845.083       -1410.743           0.227  
G05  21878628.206     -117378.981       -2067.822           0.255  
G06  21979940.141       69015.047        1174.137           0.255  
G07  22044756.523      -86312.654       -1833.661           0.255  
G09  20633451.615      -34171.823        -791.960           0.255  
> 2023 05 18 00 01 17.4688020  0  7                     
G02  24277744.497      116508.606        1600.081           0.239  
G03  26109043.168      -33179.490        -530.753           0.228  
G04  26067520.410      -83982.179       -1373.836           0.227  
G05  21878680.204     -117585.697       -2060.824           0.255  
G06  21979912.149       69132.177        1209.609           0.255  
G07  22044801.932      -86495.980       -1832.943           0.255  
G09  20633471.808      -34250.964        -790.946           0.255  
> 2023 05 18 00 01 17.5688020  0  7                     
G02  24277704.654      116672.448        1636.910           0.239  
G03  26109057.575      -33232.543        -531.011           0.228  
G04  26067553.378      -84119.739       -1404.075           0.227  
G05  21878732.490     -117792.541       -2067.959           0.255  
G06  21979879.985       69249.566        1172.921           0.255  
G07  22044850.574      -86679.294       -1832.993           0.255  
G09  20633491.953      -34330.128        -792.001           0.255  
> 2023 05 18 00 01 17.6688020  0  7                     
G02  24277659.623      116836.168        1637.393           0.239  
G03  26109070.291      -33285.599        -530.786           0.228  
G04  26067592.949      -84256.863       -1372.330           0.227  
G05  21878785.471     -117999.274       -2047.181           0.255  
G06  21979848.932       69366.830        1172.835           0.255  
G07  22044897.512      -86862.617       -1833.431           0.255  
G09  20633512.675      -34409.284        -791.659           0.255  
> 2023 05 18 00 01 17.7688020  0  7                     
G02  24277618.811      116999.892        1637.044           0.238  
G03  26109082.471      -33338.661        -530.602           0.228  
G04  26067626.896      -84394.223       -1372.865           0.226  
G05  21878838.480     -118206.126       -2067.922           0.255  
G06  21979817.996       69483.934        1093.145           0.255  
G07  22044944.815      -87045.938       -1833.268           0.255  
G09  20633533.094      -34488.450        -791.825           0.255  
> 2023 05 18 00 01 17.8688020  0  7                     
G02  24277579.069      117163.597        1636.695           0.239  
G03  26109096.531      -33391.717        -529.798           0.228  
G04  26067659.132      -84531.545       -1371.915           0.227  
G05  21878891.324     -118412.915       -2067.524           0.255  
G06  21979789.408       69601.347        1172.849           0.255  
G07  22044991.603      -87229.260       -1833.227           0.255  
G09  20633552.521      -34567.619        -791.685           0.255  
> 2023 05 18 00 01 17.9688020  0  7                     
G02  24277535.721      117327.317        1637.664           0.239  
G03  26109110.617      -33444.783        -530.008           0.228  
G04  26067696.181      -84668.891       -1373.507           0.227  
G05  21878943.583     -118619.715       -2068.009           0.255  
G06  21979762.623       69718.606        1172.456           0.255  
G07  22045035.813      -87412.595       -1833.257           0.255  
G09  20633572.710      -34646.792        -791.373           0.255  
> 2023 05 18 00 01 18.0688020  0  7                     
G02  24277495.484      117491.029        1636.961           0.239  
G03  26109123.800      -33497.875        -535.377           0.228  
G04  26067728.860      -84805.963       -1356.402           0.227  
G05  21878996.187     -118826.510       -2068.035           0.255  
G06  21979732.156       69835.446        1081.576           0.255  
G07  22045083.510      -87595.940       -1832.506           0.255  
G09  20633592.969      -34725.964        -791.617           0.255  
> 2023 05 18 00 01 18.1688020  0  7                     
G02  24277454.179      117654.738        1637.125           0.239  
G03  26109138.589      -33550.933        -531.210           0.228  
G04  26067762.974      -84943.175       -1314.048           0.227  
G05  21879049.170     -119033.414       -2080.139           0.255  
G06  21979702.883       69953.136        1171.519           0.255  
G07  22045130.271      -87779.285       -1834.063           0.255  
G09  20633612.759      -34805.144        -790.906           0.255  
> 2023 05 18 00 01 18.2688020  0  7                     
G02  24277411.632      117818.500        1670.021           0.239  
G03  26109151.624      -33604.002        -531.030           0.228  
G04  26067798.356      -85080.936       -1377.003           0.227  
G05  21879101.911     -119240.114       -2067.843           0.255  
G06  21979671.002       70070.393        1133.730           0.255  
G07  22045178.565      -87962.624       -1834.066           0.255  
G09  20633633.142      -34884.337        -792.004           0.255  
> 2023 05 18 00 01 18.3688020  0  7                     
G02  24277370.507      117982.166        1636.428           0.239  
G03  26109165.031      -33657.073        -530.712           0.228  
G04  26067833.086      -85218.221       -1372.770           0.227  
G05  21879154.661     -119446.805       -2060.459           0.255  
G06  21979643.235       70187.647        1172.512           0.255  
G07  22045222.045      -88145.936       -1824.161           0.255  
G09  20633653.494      -34963.525        -791.305           0.255  
> 2023 05 18 00 01 18.4688020  0  7                     
G02  24277327.727      118145.890        1637.386           0.239  
G03  26109178.525      -33710.151        -530.938           0.228  
G04  26067868.763      -85355.544       -1373.011           0.227  
G05  21879207.198     -119653.828       -2079.191           0.255  
G06  21979609.549       70304.921        1172.484           0.255  
G07  22045273.038      -88329.331       -1833.368           0.255  
G09  20633673.699      -35042.725        -792.635           0.255  
> 2023 05 18 00 01 18.5688020  0  7                     
G02  24277285.458      118309.603        1637.091           0.239  
G03  26109191.710      -33763.236        -531.066           0.228  
G04  26067904.804      -85492.865       -1372.699           0.227  
G05  21879259.990     -119860.543       -2068.067           0.255  
G06  21979581.523       70422.168        1171.977           0.255  
G07  22045317.721      -88512.680       -1832.856           0.255  
G09  20633693.800      -35121.921        -791.769           0.255  
> 2023 05 18 00 01 18.6688020  0  7                     
G02  24277243.752      118473.320        1637.188           0.239  
G03  26109204.652      -33816.316        -530.543           0.228  
G04  26067940.150      -85630.178       -1373.580           0.227  
G05  21879312.887     -120067.365       -2068.521           0.255  
G06  21979553.662       70539.432        1172.842           0.255  
G07  22045362.725      -88696.042       -1832.692           0.255  
G09  20633713.963      -35201.124        -791.974           0.255  
> 2023 05 18 00 01 18.7688020  0  7                     
G02  24277201.518      118637.029        1636.878           0.239  
G03  26109218.762      -33869.406        -530.746           0.228  
G04  26067976.070      -85767.499       -1372.682           0.227  
G05  21879365.352     -120274.189       -2068.311           0.255  
G06  21979518.929       70656.703        1171.877           0.255  
G07  22045414.118      -88879.420       -1833.799           0.255  
G09  20633734.417      -35280.340        -791.879           0.255  
> 2023 05 18 00 01 18.8688020  0  7                     
G02  24277160.752      118800.757        1637.835           0.239  
G03  26109231.329      -33922.493        -530.597           0.228  
G04  26068009.348      -85904.807       -1372.749           0.227  
G05  21879418.314     -120481.013       -2068.108           0.255  
G06  21979490.627       70773.947        1172.571           0.255  
G07  22045458.465      -89062.773       -1834.651           0.255  
G09  20633755.104      -35359.551        -792.291           0.255  
> 2023 05 18 00 01 18.9688020  0  7                     
G02  24277119.129      118964.474        1638.139           0.239  
G03  26109245.339      -33975.595        -531.581           0.228  
G04  26068043.695      -86042.118       -1373.145           0.226  
G05  21879470.710     -120687.834       -2068.272           0.255  
G06  21979462.955       70891.211        1171.763           0.255  
G07  22045502.421      -89246.146       -1833.430           0.255  
G09  20633774.586      -35438.765        -791.469           0.255  
> 2023 05 18 00 01 19.0688020  0  7                     
G02  24277077.416      119128.186        1637.114           0.239  
G03  26109260.449      -34028.678        -530.708           0.228  
G04  26068079.321      -86179.433       -1373.968           0.227  
G05  21879523.372     -120894.668       -2068.469           0.255  
G06  21979434.587       71008.616        1159.417           0.255  
G07  22045548.329      -89429.513       -1833.199           0.255  
G09  20633794.778      -35517.994        -792.555           0.255  
> 2023 05 18 00 01 19.1688020  0  7                     
G02  24277035.912      119291.912        1636.713           0.239  
G03  26109274.531      -34081.782        -530.861           0.228  
G04  26068114.518      -86316.732       -1372.575           0.227  
G05  21879576.099     -121101.494       -2068.178           0.255  
G06  21979400.649       71125.706        1171.048           0.255  
G07  22045599.405      -89612.884       -1833.419           0.255  
G09  20633814.825      -35597.223        -791.805           0.255  
> 2023 05 18 00 01 19.2688020  0  7                     
G02  24276993.780      119455.637        1637.995           0.239  
G03  26109286.067      -34134.886        -530.708           0.228  
G04  26068149.998      -86454.042       -1374.566           0.227  
G05  21879628.900     -121308.331       -2068.616           0.255  
G06  21979372.879       71242.972        1172.229           0.255  
G07  22045643.933      -89795.952       -1755.313           0.255  
G09  20633835.846      -35676.451        -792.210           0.255  
> 2023 05 18 00 01 19.3688020  0  7                     
G02  24276953.222      119619.358        1638.198           0.239  
G03  26109300.546      -34187.991        -530.886           0.228  
G04  26068184.276      -86591.341       -1374.721           0.227  
G05  21879681.565     -121515.166       -2068.126           0.255  
G06  21979342.940       71360.227        1172.313           0.255  
G07  22045690.575      -89979.666       -1832.426           0.255  
G09  20633855.905      -35755.685        -792.157           0.255  
> 2023 05 18 00 01 19.4688020  0  7                     
G02  24276911.918      119783.083        1637.145           0.239  
G03  26109313.764      -34241.097        -530.963           0.228  
G04  26068217.962      -86728.638       -1373.021           0.227  
G05  21879734.492     -121722.008       -2067.955           0.255  
G06  21979313.219       71477.486        1173.314           0.255  
G07  22045738.300      -90163.054       -1833.435           0.255  
G09  20633875.259      -35834.935        -793.232           0.255  
> 2023 05 18 00 01 19.5688020  0  7                     
G02  24276869.482      119947.164        1654.073           0.239  
G03  26109327.238      -34294.281        -532.173           0.228  
G04  26068253.913      -86866.291       -1399.259           0.227  
G05  21879787.263     -121928.853       -2068.586           0.255  
G06  21979283.036       71594.937        1143.909           0.255  
G07  22045784.589      -90345.979       -1728.872           0.255  
G09  20633895.657      -35914.178        -792.200           0.255  
> 2023 05 18 00 01 19.6688020  0  7                     
G02  24276827.430      120110.515        1637.866           0.239  
G03  26109341.637      -34347.327        -531.157           0.228  
G04  26068288.838      -87003.208       -1374.121           0.227  
G05  21879839.934     -122135.629       -2059.732           0.255  
G06  21979252.331       71711.993        1172.929           0.255  
G07  22045832.967      -90530.271       -1896.746           0.255  
G09  20633915.468      -35993.433        -792.732           0.255  
> 2023 05 18 00 01 19.7688020  0  7                     
G02  24276785.623      120274.055        1642.893           0.239  
G03  26109354.133      -34400.444        -531.645           0.228  
G04  26068324.010      -87140.492       -1374.128           0.227  
G05  21879892.757     -122342.547       -2068.394           0.255  
G06  21979221.876       71829.483        1185.758           0.255  
G07  22045880.678      -90713.252       -1834.281           0.255  
G09  20633935.338      -36072.680        -791.669           0.255  
> 2023 05 18 00 01 19.8688020  0  7                     
G02  24276743.113      120437.963        1637.730           0.239  
G03  26109368.224      -34453.567        -531.487           0.228  
G04  26068360.279      -87277.798       -1373.206           0.227  
G05  21879945.344     -122549.399       -2068.262           0.255  
G06  21979193.534       71946.511        1174.222           0.255  
G07  22045924.702      -90896.653       -1833.550           0.255  
G09  20633956.152      -36151.944        -792.953           0.255  
> 2023 05 18 00 01 19.9688020  0  7                     
G02  24276701.141      120601.685        1636.689           0.239  
G03  26109381.184      -34506.692        -531.211           0.228  
G04  26068395.936      -87414.994       -1352.356           0.227  
G05  21879997.825     -122756.253       -2055.993           0.255  
G06  21979162.367       72063.744        1171.722           0.255  
G07  22045972.800      -91080.034       -1832.177           0.255  
G09  20633976.570      -36231.214        -793.437           0.255  
> 2023 05 18 00 01 20.0688020  0  7                     
G02  24276659.816      120765.407        1637.623           0.239  
G03  26109395.537      -34559.814        -531.147           0.228  
G04  26068429.405      -87552.363       -1373.152           0.227  
G05  21880050.665     -122963.117       -2068.522           0.255  
G06  21979135.283       72181.012        1173.208           0.255  
G07  22046015.817      -91263.459       -1832.632           0.255  
G09  20633997.040      -36310.481        -793.651           0.255  
> 2023 05 18 00 01 20.1688020  0  7                     
G02  24276618.429      120929.134        1637.063           0.239  
G03  26109408.407      -34612.947        -531.289           0.228  
G04  26068465.181      -87689.646       -1373.116           0.227  
G05  21880103.372     -123169.974       -2068.575           0.255  
G06  21979103.833       72298.259        1172.148           0.255  
G07  22046064.765      -91446.881       -1835.380           0.255  
G09  20634017.235      -36389.750        -792.233           0.255  
> 2023 05 18 00 01 20.2688020  0  7                     
G02  24276577.143      121092.862        1637.970           0.239  
G03  26109422.008      -34666.075        -531.405           0.228  
G04  26068499.285      -87826.912       -1372.390           0.227  
G05  21880156.046     -123376.843       -2068.696           0.255  
G06  21979072.847       72415.520        1172.865           0.255  
G07  22046113.242      -91630.305       -1835.932           0.255  
G09  20634037.146      -36469.029        -792.627           0.255  
> 2023 05 18 00 01 20.3688020  0  7                     
G02  24276535.092      121256.744        1658.129           0.239  
G03  26109435.762      -34719.357        -558.222           0.228  
G04  26068535.204      -87964.186       -1372.530           0.227  
G05  21880208.672     -123583.762       -2071.135           0.255  
G06  21979044.014       72532.716        1109.629           0.255  
G07  22046158.611      -91813.097       -1652.695           0.255  
G09  20634057.636      -36548.314        -792.480           0.255  
> 2023 05 18 00 01 20.4688020  0  7                     
G02  24276493.532      121420.692        1684.898           0.239  
G03  26109448.715      -34772.353        -531.545           0.228  
G04  26068570.202      -88101.446       -1372.554           0.227  
G05  21880261.454     -123790.581       -2068.774           0.255  
G06  21979012.981       72650.025        1172.156           0.255  
G07  22046208.379      -91997.145       -1833.632           0.255  
G09  20634077.011      -36627.591        -792.276           0.255  
> 2023 05 18 00 01 20.5688020  0  7                     
G02  24276451.854      121584.033        1636.775           0.239  
G03  26109462.949      -34825.445        -518.713           0.228  
G04  26068604.598      -88238.715       -1372.832           0.227  
G05  21880314.169     -123997.456       -2067.811           0.255  
G06  21978985.043       72766.651        1111.299           0.255  
G07  22046251.876      -92180.574       -1833.972           0.255  
G09  20634097.357      -36706.885        -792.849           0.255  
> 2023 05 18 00 01 20.6688020  0  7                     
G02  24276409.283      121747.757        1637.336           0.239  
G03  26109476.114      -34878.629        -530.890           0.228  
G04  26068640.221      -88375.980       -1371.348           0.227  
G05  21880367.076     -124204.263       -2055.677           0.255  
G06  21978952.945       72885.068        1234.385           0.255  
G07  22046299.889      -92363.988       -1833.226           0.255  
G09  20634117.891      -36786.189        -792.902           0.255  
> 2023 05 18 00 01 20.7688020  0  7                     
G02  24276367.690      121911.476        1636.792           0.239  
G03  26109489.650      -34931.776        -531.145           0.228  
G04  26068675.080      -88513.228       -1371.368           0.227  
G05  21880419.545     -124411.211       -2069.005           0.255  
G06  21978924.554       73001.827        1161.722           0.255  
G07  22046345.346      -92547.434       -1833.605           0.255  
G09  20634138.227      -36865.495        -793.620           0.255  
> 2023 05 18 00 01 20.8688020  0  7                     
G02  24276326.957      122075.214        1636.514           0.239  
G03  26109503.083      -34984.924        -531.525           0.228  
G04  26068708.613      -88650.494       -1371.651           0.227  
G05  21880472.320     -124618.094       -2068.716           0.255  
G06  21978893.935       73119.041        1171.999           0.255  
G07  22046393.560      -92730.874       -1834.234           0.255  
G09  20634157.992      -36944.789        -792.579           0.255  
> 2023 05 18 00 01 20.9688020  0  7                     
G02  24276284.430      122238.940        1637.401           0.239  
G03  26109517.253      -35038.076        -531.904           0.228  
G04  26068743.843      -88787.751       -1372.761           0.227  
G05  21880525.137     -124824.979       -2069.072           0.255  
G06  21978863.955       73236.305        1172.609           0.255  
G07  22046440.153      -92914.318       -1835.092           0.255  
G09  20634177.772      -37024.101        -792.646           0.255  
> 2023 05 18 00 01 21.0688020  0  7                     
G02  24276242.536      122402.671        1637.007           0.239  
G03  26109530.002      -35091.233        -531.791           0.228  
G04  26068779.481      -88925.007       -1372.634           0.227  
G05  21880577.746     -125031.873       -2068.973           0.255  
G06  21978835.226       73353.549        1171.638           0.255  
G07  22046485.519      -93097.760       -1835.383           0.255  
G09  20634198.414      -37103.419        -792.602           0.255  
> 2023 05 18 00 01 21.1688020  0  7                     
G02  24276200.982      122566.400        1637.266           0.239  
G03  26109544.015      -35144.391        -532.257           0.228  
G04  26068814.486      -89062.253       -1372.001           0.227  
G05  21880630.559     -125238.763       -2069.085           0.255  
G06  21978803.701       73470.807        1172.111           0.255  
G07  22046533.349      -93281.217       -1835.142           0.255  
G09  20634219.508      -37182.734        -792.134           0.255  
> 2023 05 18 00 01 21.2688020  0  7                     
G02  24276159.667      122730.124        1636.748           0.239  
G03  26109556.974      -35197.547        -531.477           0.228  
G04  26068849.464      -89199.455       -1375.426           0.227  
G05  21880683.219     -125445.670       -2069.033           0.255  
G06  21978776.537       73588.264        1210.768           0.255  
G07  22046578.202      -93464.194       -1738.399           0.255  
G09  20634239.449      -37262.063        -793.114           0.255  
> 2023 05 18 00 01 21.3688020  0  7                     
G02  24276117.866      122893.858        1637.953           0.239  
G03  26109570.803      -35250.707        -531.293           0.228  
G04  26068884.116      -89336.628       -1378.132           0.227  
G05  21880735.984     -125652.565       -2068.797           0.255  
G06  21978744.335       73704.664        1130.531           0.255  
G07  22046626.928      -93648.107       -1833.529           0.255  
G09  20634259.575      -37341.389        -793.254           0.255  
> 2023 05 18 00 01 21.4688020  0  7                     
G02  24276076.376      123057.736        1666.061           0.239  
G03  26109584.419      -35303.877        -531.326           0.228  
G04  26068919.303      -89473.725       -1399.041           0.227  
G05  21880788.756     -125859.469       -2069.081           0.255  
G06  21978714.034       73822.556        1132.638           0.255  
G07  22046673.626      -93832.258       -1960.535           0.255  
G09  20634279.792      -37420.728        -794.161           0.255  
> 2023 05 18 00 01 21.5688020  0  7                     
G02  24276033.735      123221.323        1637.657           0.239  
G03  26109598.425      -35357.047        -531.777           0.228  
G04  26068953.977      -89611.237       -1372.714           0.227  
G05  21880841.274     -126066.373       -2069.130           0.255  
G06  21978685.530       73939.818        1171.368           0.255  
G07  22046719.599      -94015.043       -1834.193           0.255  
G09  20634299.707      -37500.059        -793.016           0.255  
> 2023 05 18 00 01 21.6688020  0  7                     
G02  24275993.035      123385.052        1636.596           0.239  
G03  26109611.343      -35410.221        -532.056           0.228  
G04  26068989.168      -89748.473       -1372.210           0.227  
G05  21880894.025     -126273.281       -2069.080           0.255  
G06  21978656.798       74057.075        1171.828           0.255  
G07  22046763.214      -94198.497       -1833.850           0.255  
G09  20634320.300      -37579.406        -794.500           0.255  
> 2023 05 18 00 01 21.7688020  0  7                     
G02  24275950.792      123548.787        1637.297           0.239  
G03  26109625.270      -35463.393        -531.411           0.228  
G04  26069024.773      -89885.703       -1371.699           0.227  
G05  21880946.477     -126480.187       -2068.894           0.255  
G06  21978627.577       74174.329        1172.620           0.255  
G07  22046809.536      -94381.988       -1836.090           0.255  
G09  20634341.123      -37658.743        -792.436           0.255  
> 2023 05 18 00 01 21.8688020  0  7                     
G02  24275908.818      123712.520        1637.535           0.239  
G03  26109638.519      -35516.575        -531.327           0.228  
G04  26069060.104      -90022.936       -1371.902           0.227  
G05  21880999.481     -126687.106       -2069.281           0.255  
G06  21978594.730       74291.577        1172.820           0.255  
G07  22046860.949      -94565.454       -1835.630           0.255  
G09  20634360.643      -37738.099        -792.809           0.255  
> 2023 05 18 00 01 21.9688020  0  7                     
G02  24275867.512      123876.252        1637.196           0.239  
G03  26109652.240      -35569.758        -531.783           0.228  
G04  26069094.406      -90160.159       -1371.802           0.227  
G05  21881052.331     -126894.019       -2068.908           0.255  
G06  21978565.735       74408.822        1172.227           0.255  
G07  22046906.995      -94748.934       -1835.012           0.255  
G09  20634380.936      -37817.456        -792.875           0.255  
> 2023 05 18 00 01 22.0688020  0  7                     
G02  24275825.863      124039.988        1637.427           0.239  
G03  26109665.827      -35622.945        -532.022           0.228  
G04  26069129.492      -90297.390       -1371.856           0.227  
G05  21881105.050     -127100.942       -2069.445           0.255  
G06  21978535.161       74526.074        1172.302           0.255  
G07  22046955.492      -94932.406       -1833.984           0.255  
G09  20634400.940      -37896.818        -793.887           0.255  
> 2023 05 18 00 01 22.1688020  0  7                     
G02  24275783.916      124203.726        1637.229           0.239  
G03  26109679.326      -35676.130        -532.208           0.228  
G04  26069164.653      -90434.612       -1371.318           0.227  
G05  21881157.864     -127307.809       -2063.248           0.255  
G06  21978506.667       74643.330        1158.649           0.255  
G07  22047000.833      -95115.884       -1833.499           0.255  
G09  20634421.058      -37976.187        -794.255           0.255  
> 2023 05 18 00 01 22.2688020  0  7                     
G02  24275741.875      124367.455        1637.461           0.239  
G03  26109693.769      -35729.223        -525.236           0.228  
G04  26069199.357      -90571.489       -1330.407           0.227  
G05  21881210.524     -127514.793       -2069.657           0.255  
G06  21978475.727       74760.571        1172.322           0.255  
G07  22047047.423      -95299.374       -1832.448           0.255  
G09  20634441.512      -38055.555        -794.478           0.255  
> 2023 05 18 00 01 22.3688020  0  7                     
G02  24275700.180      124531.194        1637.355           0.239  
G03  26109707.099      -35782.510        -532.288           0.228  
G04  26069234.566      -90709.049       -1363.661           0.227  
G05  21881263.257     -127721.728       -2069.104           0.255  
G06  21978446.218       74877.811        1171.394           0.255  
G07  22047093.450      -95482.870       -1834.664           0.255  
G09  20634461.754      -38134.936        -794.552           0.255  
> 2023 05 18 00 01 22.4688020  0  7                     
G02  24275658.133      124694.921        1636.645           0.239  
G03  26109719.683      -35835.714        -532.301           0.228  
G04  26069269.620      -90846.274       -1373.001           0.227  
G05  21881316.010     -127928.660       -2069.218           0.255  
G06  21978418.970       74995.070        1171.500           0.255  
G07  22047140.033      -95666.374       -1835.395           0.255  
G09  20634480.933      -38214.306        -793.446           0.255  
> 2023 05 18 00 01 22.5688020  0  7                     
G02  24275616.140      124858.652        1636.985           0.239  
G03  26109734.094      -35888.914        -532.196           0.228  
G04  26069306.214      -90983.482       -1372.541           0.227  
G05  21881368.473     -128135.593       -2069.240           0.255  
G06  21978385.013       75112.321        1173.665           0.255  
G07  22047188.465      -95849.867       -1834.813           0.255  
G09  20634502.137      -38293.693        -794.332           0.255  
> 2023 05 18 00 01 22.6688020  0  7                     
G02  24275575.221      125022.387        1636.670           0.239  
G03  26109746.732      -35942.115        -532.306           0.228  
G04  26069339.113      -91120.679       -1371.378           0.227  
G05  21881421.452     -128342.534       -2069.253           0.255  
G06  21978357.594       75229.567        1172.455           0.255  
G07  22047234.121      -96033.369       -1835.052           0.255  
G09  20634521.915      -38373.082        -794.035           0.255  
> 2023 05 18 00 01 22.7688020  0  7                     
G02  24275533.834      125186.360        1694.007           0.239  
G03  26109760.818      -35995.326        -532.239           0.228  
G04  26069373.135      -91257.885       -1346.894           0.227  
G05  21881474.067     -128549.476       -2069.838           0.255  
G06  21978325.156       75346.803        1171.629           0.255  
G07  22047282.725      -96216.873       -1834.976           0.255  
G09  20634543.286      -38452.474        -793.709           0.255  
> 2023 05 18 00 01 22.8688020  0  7                     
G02  24275491.532      125349.882        1637.990           0.239  
G03  26109773.837      -36048.528        -532.515           0.228  
G04  26069407.963      -91395.093       -1371.526           0.227  
G05  21881526.871     -128756.418       -2068.754           0.255  
G06  21978294.806       75464.044        1170.157           0.255  
G07  22047327.930      -96400.387       -1835.342           0.255  
G09  20634563.621      -38531.872        -792.884           0.255  
> 2023 05 18 00 01 22.9688020  0  7                     
G02  24275449.988      125513.625        1637.663           0.239  
G03  26109788.097      -36101.739        -532.340           0.228  
G04  26069444.142      -91532.289       -1336.570           0.227  
G05  21881579.665     -128963.367       -2069.703           0.255  
G06  21978268.507       75581.313        1173.666           0.255  
G07  22047371.114      -96583.508       -1778.808           0.255  
G09  20634583.707      -38611.275        -794.314           0.255  
> 2023 05 18 00 01 23.0688020  0  7                     
G02  24275408.034      125677.363        1637.776           0.239  
G03  26109801.517      -36154.950        -532.420           0.228  
G04  26069478.868      -91669.493       -1371.410           0.227  
G05  21881632.518     -129170.315       -2069.146           0.255  
G06  21978238.909       75698.554        1172.932           0.255  
G07  22047418.900      -96767.420       -1834.409           0.255  
G09  20634603.256      -38690.679        -794.075           0.255  
> 2023 05 18 00 01 23.1688020  0  7                     
G02  24275367.214      125841.093        1637.042           0.239  
G03  26109814.918      -36208.164        -532.215           0.228  
G04  26069514.376      -91806.693       -1371.767           0.227  
G05  21881685.353     -129377.270       -2070.006           0.255  
G06  21978208.477       75815.797        1169.224           0.255  
G07  22047466.551      -96950.943       -1835.052           0.255  
G09  20634623.219      -38770.095        -792.979           0.255  
> 2023 05 18 00 01 23.2688020  0  7                     
G02  24275326.209      126004.839        1638.361           0.239  
G03  26109828.243      -36261.383        -531.731           0.228  
G04  26069547.509      -91943.891       -1372.953           0.227  
G05  21881737.908     -129584.222       -2069.139           0.255  
G06  21978177.272       75933.076        1173.944           0.255  
G07  22047514.701      -97134.487       -1837.009           0.255  
G09  20634643.679      -38849.519        -794.398           0.255  
> 2023 05 18 00 01 23.3688020  0  7                     
G02  24275284.691      126168.573        1637.250           0.239  
G03  26109842.216      -36314.600        -531.519           0.228  
G04  26069582.112      -92081.074       -1372.543           0.227  
G05  21881790.726     -129791.189       -2069.714           0.255  
G06  21978148.027       76050.211        1132.863           0.255  
G07  22047562.043      -97317.990       -1836.202           0.255  
G09  20634663.459      -38928.934        -793.925           0.255  
> 2023 05 18 00 01 23.4688020  0  7                     
G02  24275242.462      126332.299        1637.616           0.239  
G03  26109855.508      -36367.824        -531.976           0.228  
G04  26069617.152      -92218.250       -1371.189           0.227  
G05  21881843.406     -129998.146       -2069.421           0.255  
G06  21978117.784       76167.536        1171.038           0.255  
G07  22047609.325      -97501.517       -1835.108           0.255  
G09  20634683.896      -39008.363        -794.217           0.255  
> 2023 05 18 00 01 23.5688020  0  7                     
G02  24275198.784      126496.037        1636.987           0.239  
G03  26109869.308      -36420.910        -500.013           0.228  
G04  26069654.364      -92355.538       -1355.145           0.227  
G05  21881896.031     -130204.945       -2055.631           0.255  
G06  21978088.311       76284.799        1165.796           0.255  
G07  22047654.744      -97685.059       -1835.229           0.255  
G09  20634704.513      -39087.789        -794.181           0.255  
> 2023 05 18 00 01 23.6688020  0  7                     
G02  24275157.570      126659.788        1637.713           0.239  
G03  26109883.055      -36474.301        -528.064           0.228  
G04  26069688.597      -92492.680       -1378.424           0.227  
G05  21881948.885     -130411.913       -2080.600           0.255  
G06  21978058.195       76402.072        1206.980           0.255  
G07  22047701.373      -97868.595       -1834.842           0.255  
G09  20634724.804      -39167.232        -794.694           0.255  
> 2023 05 18 00 01 23.7688020  0  7                     
G02  24275115.795      126823.524        1637.202           0.239  
G03  26109896.698      -36527.522        -532.679           0.228  
G04  26069724.297      -92629.801       -1371.670           0.227  
G05  21882001.562     -130619.053       -2069.924           0.255  
G06  21978028.857       76519.306        1173.074           0.255  
G07  22047747.795      -98052.147       -1835.298           0.255  
G09  20634744.855      -39246.666        -794.356           0.255  
> 2023 05 18 00 01 23.8688020  0  7                     
G02  24275074.360      126987.262        1636.636           0.239  
G03  26109909.936      -36580.755        -532.216           0.228  
G04  26069759.500      -92766.986       -1371.931           0.227  
G05  21882054.203     -130826.029       -2069.427           0.255  
G06  21977998.871       76636.551        1172.578           0.255  
G07  22047794.603      -98235.690       -1835.264           0.255  
G09  20634764.954      -39326.111        -794.411           0.255  
> 2023 05 18 00 01 23.9688020  0  7                     
G02  24275032.779      127151.009        1637.597           0.239  
G03  26109923.837      -36633.996        -532.132           0.228  
G04  26069794.528      -92904.364       -1414.703           0.227  
G05  21882106.804     -131033.006       -2069.969           0.255  
G06  21977968.822       76753.792        1172.604           0.255  
G07  22047841.649      -98419.237       -1835.486           0.255  
G09  20634785.258      -39405.557        -794.290           0.255  
> 2023 05 18 00 01 24.0688020  0  7                     
G02  24274991.631      127314.751        1637.219           0.239  
G03  26109937.463      -36687.236        -532.115           0.228  
G04  26069827.690      -93041.310       -1372.657           0.227  
G05  21882159.558     -131239.988       -2069.696           0.255  
G06  21977937.925       76871.043        1172.896           0.255  
G07  22047889.160      -98602.785       -1834.911           0.255  
G09  20634805.716      -39485.016        -794.919           0.255  
> 2023 05 18 00 01 24.1688020  0  7                     
G02  24274950.100      127478.492        1637.026           0.239  
G03  26109951.098      -36740.498        -533.079           0.228  
G04  26069862.528      -93178.468       -1371.567           0.227  
G05  21882212.497     -131446.970       -2069.960           0.255  
G06  21977908.512       76988.290        1172.181           0.255  
G07  22047935.181      -98786.346       -1834.833           0.255  
G09  20634826.267      -39564.468        -794.173           0.255  
> 2023 05 18 00 01 24.2688020  0  7                     
G02  24274908.342      127642.243        1638.222           0.239  
G03  26109964.373      -36793.734        -532.255           0.228  
G04  26069897.817      -93315.634       -1371.494           0.227  
G05  21882264.885     -131653.960       -2069.802           0.255  
G06  21977878.005       77105.548        1171.959           0.255  
G07  22047982.996      -98969.915       -1835.362           0.255  
G09  20634846.144      -39643.935        -794.672           0.255  
> 2023 05 18 00 01 24.3688020  0  7                     
G02  24274865.920      127805.984        1637.446           0.239  
G03  26109977.884      -36846.987        -532.426           0.228  
G04  26069933.479      -93452.801       -1371.751           0.227  
G05  21882318.165     -131860.947       -2069.891           0.255  
G06  21977848.958       77222.785        1172.968           0.255  
G07  22048029.106      -99153.476       -1835.794           0.255  
G09  20634866.266      -39723.403        -795.218           0.255  
> 2023 05 18 00 01 24.4688020  0  7                     
G02  24274825.162      127969.729        1636.980           0.239  
G03  26109991.644      -36900.698        -594.366           0.228  
G04  26069966.895      -93590.036       -1360.629           0.227  
G05  21882370.605     -132067.947       -2068.845           0.255  
G06  21977819.140       77340.177        1106.252           0.255  
G07  22048076.094      -99337.041       -1835.966           0.255  
G09  20634886.730      -39802.880        -795.407           0.255  
> 2023 05 18 00 01 24.5688020  0  7                     
G02  24274782.432      128133.475        1637.257           0.239  
G03  26110005.250      -36953.500        -533.196           0.228  
G04  26070003.386      -93727.116       -1370.757           0.227  
G05  21882423.489     -132274.937       -2069.855           0.255  
G06  21977788.140       77457.261        1171.487           0.255  
G07  22048123.575      -99520.607       -1835.592           0.255  
G09  20634907.164      -39882.352        -794.262           0.255  
> 2023 05 18 00 01 24.6688020  0  7                     
G02  24274741.329      128297.222        1638.023           0.239  
G03  26110018.728      -37006.428        -496.251           0.228  
G04  26070037.675      -93864.275       -1372.277           0.227  
G05  21882476.360     -132481.938       -2069.846           0.255  
G06  21977759.589       77574.517        1172.481           0.255  
G07  22048169.437      -99704.191       -1835.810           0.255  
G09  20634926.995      -39961.833        -794.676           0.255  
> 2023 05 18 00 01 24.7688020  0  7                     
G02  24274700.667      128460.964        1637.716           0.239  
G03  26110031.985      -37060.019        -532.241           0.228  
G04  26070071.100      -94001.420       -1370.826           0.227  
G05  21882529.025     -132688.941       -2069.922           0.255  
G06  21977730.350       77691.757        1172.415           0.255  
G07  22048215.339      -99887.769       -1835.533           0.255  
G09  20634947.505      -40041.321        -795.276           0.255  
> 2023 05 18 00 01 24.8688020  0  7                     
G02  24274657.895      128624.714        1637.081           0.239  
G03  26110045.277      -37113.287        -532.137           0.228  
G04  26070107.733      -94138.570       -1371.130           0.227  
G05  21882582.083     -132895.946       -2070.293           0.255  
G06  21977698.455       77809.006        1172.394           0.255  
G07  22048263.173     -100071.340       -1836.311           0.255  
G09  20634968.019      -40120.816        -795.236           0.255  
> 2023 05 18 00 01 24.9688020  0  7                     
G02  24274615.621      128788.462        1638.187           0.239  
G03  26110059.174      -37166.567        -532.950           0.228  
G04  26070142.994      -94275.714       -1372.303           0.227  
G05  21882634.525     -133102.953       -2070.118           0.255  
G06  21977667.864       77926.250        1171.931           0.255  
G07  22048310.110     -100254.944       -1835.792           0.255  
G09  20634989.095      -40200.306        -794.960           0.255  
> 2023 05 18 00 01 25.0688020  0  7                     
G02  24274574.059      128952.201        1637.040           0.239  
G03  26110073.500      -37219.834        -532.487           0.228  
G04  26070177.967      -94412.857       -1371.527           0.227  
G05  21882687.247     -133309.962       -2069.931           0.255  
G06  21977641.131       78043.488        1173.260           0.255  
G07  22048355.876     -100438.529       -1836.002           0.255  
G09  20635007.986      -40279.807        -795.135           0.255  
> 2023 05 18 00 01 25.1688020  0  7                     
G02  24274532.601      129115.944        1636.667           0.239  
G03  26110085.975      -37273.109        -532.690           0.228  
G04  26070212.292      -94550.313       -1416.826           0.227  
G05  21882740.056     -133516.976       -2069.950           0.255  
G06  21977610.662       78160.782        1156.312           0.255  
G07  22048401.352     -100622.116       -1836.120           0.255  
G09  20635028.757      -40359.312        -795.200           0.255  
> 2023 05 18 00 01 25.2688020  0  7                     
G02  24274490.414      129279.698        1637.192           0.239  
G03  26110099.801      -37326.383        -533.086           0.228  
G04  26070247.894      -94687.131       -1372.407           0.227  
G05  21882792.749     -133723.996       -2070.102           0.255  
G06  21977578.454       78277.955        1171.734           0.255  
G07  22048451.020     -100805.716       -1836.028           0.255  
G09  20635048.802      -40438.818        -794.413           0.255  
> 2023 05 18 00 01 25.3688020  0  7                     
G02  24274449.363      129443.511        1630.911           0.239  
G03  26110114.131      -37379.655        -532.409           0.228  
G04  26070281.772      -94824.303       -1430.793           0.227  
G05  21882845.656     -133931.015       -2070.415           0.255  
G06  21977551.204       78395.218        1172.393           0.255  
G07  22048496.936     -100989.179       -1817.776           0.255  
G09  20635068.545      -40518.332        -795.014           0.255  
> 2023 05 18 00 01 25.4688020  0  7                     
G02  24274406.789      129607.191        1636.749           0.239  
G03  26110127.387      -37432.949        -533.186           0.228  
G04  26070317.485      -94961.133       -1363.744           0.227  
G05  21882898.325     -134138.040       -2070.146           0.255  
G06  21977522.876       78512.452        1172.694           0.255  
G07  22048540.967     -101172.927       -1835.861           0.255  
G09  20635088.972      -40597.847        -795.154           0.255  
> 2023 05 18 00 01 25.5688020  0  7                     
G02  24274364.662      129770.941        1637.109           0.239  
G03  26110139.654      -37486.228        -532.192           0.228  
G04  26070351.737      -95098.517       -1370.699           0.227  
G05  21882951.130     -134345.063       -2070.230           0.255  
G06  21977492.063       78629.825        1179.368           0.255  
G07  22048589.468     -101356.520       -1838.227           0.255  
G09  20635109.278      -40677.373        -795.215           0.255  
> 2023 05 18 00 01 25.6688020  0  7                     
G02  24274322.167      129934.706        1637.829           0.239  
G03  26110154.062      -37539.523        -533.190           0.228  
G04  26070388.435      -95235.637       -1370.471           0.227  
G05  21883003.976     -134552.064       -2073.721           0.255  
G06  21977459.903       78746.940        1170.896           0.255  
G07  22048638.799     -101540.152       -1835.984           0.255  
G09  20635129.303      -40756.903        -795.028           0.255  
> 2023 05 18 00 01 25.7688020  0  7                     
G02  24274281.094      130098.447        1637.496           0.239  
G03  26110168.746      -37592.805        -533.143           0.228  
G04  26070422.430      -95372.780       -1372.562           0.227  
G05  21883056.673     -134759.128       -2070.545           0.255  
G06  21977429.527       78864.202        1173.995           0.255  
G07  22048684.365     -101723.770       -1836.138           0.255  
G09  20635150.181      -40836.429        -795.384           0.255  
> 2023 05 18 00 01 25.8688020  0  7                     
G02  24274241.007      130262.195        1636.578           0.239  
G03  26110181.062      -37646.105        -532.862           0.228  
G04  26070455.812      -95509.884       -1370.589           0.227  
G05  21883109.236     -134966.164       -2070.265           0.255  
G06  21977400.653       78981.438        1173.439           0.255  
G07  22048729.789     -101907.391       -1837.092           0.255  
G09  20635170.893      -40915.963        -795.317           0.255  
> 2023 05 18 00 01 25.9688020  0  7                     
G02  24274197.864      130425.947        1638.096           0.239  
G03  26110194.981      -37699.400        -532.926           0.228  
G04  26070492.803      -95647.001       -1371.057           0.227  
G05  21883161.959     -135173.203       -2070.479           0.255  
G06  21977368.637       79098.661        1172.071           0.255  
G07  22048779.202     -102091.002       -1836.171           0.255  
G09  20635191.154      -40995.504        -795.457           0.255  
> 2023 05 18 00 01 26.0688020  0  7                     
G02  24274155.416      130589.700        1637.812           0.239  
G03  26110208.671      -37752.761        -534.680           0.228  
G04  26070528.692      -95784.125       -1372.027           0.227  
G05  21883214.821     -135380.244       -2070.189           0.255  
G06  21977339.705       79216.217        1233.872           0.255  
G07  22048825.758     -102274.625       -1836.159           0.255  
G09  20635211.226      -41075.055        -795.785           0.255  
> 2023 05 18 00 01 26.1688020  0  7                     
G02  24274113.651      130753.442        1637.845           0.239  
G03  26110222.203      -37806.006        -532.780           0.228  
G04  26070563.557      -95921.218       -1371.305           0.227  
G05  21883267.535     -135587.290       -2070.452           0.255  
G06  21977310.842       79333.159        1173.161           0.255  
G07  22048871.784     -102458.255       -1836.269           0.255  
G09  20635231.113      -41154.602        -795.872           0.255  
> 2023 05 18 00 01 26.2688020  0  7                     
G02  24274070.968      130917.187        1637.489           0.239  
G03  26110235.561      -37859.315        -533.097           0.228  
G04  26070600.636      -96058.642       -1388.184           0.227  
G05  21883320.450     -135794.336       -2070.137           0.255  
G06  21977281.392       79450.403        1173.645           0.255  
G07  22048918.344     -102642.169       -1859.384           0.255  
G09  20635251.428      -41234.159        -796.067           0.255  
> 2023 05 18 00 01 26.3688020  0  7                     
G02  24274030.066      131080.932        1637.468           0.239  
G03  26110249.262      -37912.624        -533.072           0.228  
G04  26070635.031      -96195.433       -1371.259           0.227  
G05  21883373.117     -136001.390       -2070.725           0.255  
G06  21977250.339       79567.633        1172.224           0.255  
G07  22048965.611     -102825.524       -1836.816           0.255  
G09  20635271.765      -41313.715        -795.610           0.255  
> 2023 05 18 00 01 26.4688020  0  7                     
G02  24273989.438      131244.691        1637.102           0.239  
G03  26110262.774      -37965.936        -532.920           0.228  
G04  26070667.935      -96332.534       -1371.260           0.227  
G05  21883425.906     -136208.442       -2070.384           0.255  
G06  21977222.006       79684.881        1171.445           0.255  
G07  22049011.337     -103009.171       -1836.879           0.255  
G09  20635291.739      -41393.282        -795.437           0.255  
> 2023 05 18 00 01 26.5688020  0  7                     
G02  24273947.796      131408.446        1637.246           0.239  
G03  26110276.876      -38019.251        -533.087           0.228  
G04  26070702.088      -96469.635       -1370.098           0.227  
G05  21883478.616     -136415.499       -2070.622           0.255  
G06  21977191.127       79802.275        1175.213           0.255  
G07  22049059.355     -103193.135       -1890.583           0.255  
G09  20635311.834      -41472.844        -795.083           0.255  
> 2023 05 18 00 01 26.6688020  0  7                     
G02  24273906.256      131572.203        1637.229           0.239  
G03  26110290.239      -38072.573        -532.974           0.228  
G04  26070737.432      -96606.735       -1370.156           0.227  
G05  21883531.407     -136622.560       -2070.467           0.255  
G06  21977162.024       79919.371        1173.942           0.255  
G07  22049105.192     -103376.461       -1837.295           0.255  
G09  20635332.383      -41552.416        -795.115           0.255  
> 2023 05 18 00 01 26.7688020  0  7                     
G02  24273865.984      131735.969        1637.364           0.239  
G03  26110303.433      -38125.894        -533.354           0.228  
G04  26070770.174      -96743.837       -1370.260           0.227  
G05  21883584.251     -136829.623       -2070.801           0.255  
G06  21977131.002       80036.605        1173.395           0.255  
G07  22049152.279     -103560.105       -1836.613           0.255  
G09  20635352.732      -41631.994        -795.773           0.255  
> 2023 05 18 00 01 26.8688020  0  7                     
G02  24273823.614      131899.730        1637.410           0.239  
G03  26110317.608      -38179.219        -532.885           0.228  
G04  26070805.889      -96880.932       -1370.544           0.227  
G05  21883637.005     -137036.691       -2070.783           0.255  
G06  21977101.023       80153.858        1173.495           0.255  
G07  22049199.417     -103743.767       -1836.676           0.255  
G09  20635373.311      -41711.581        -795.989           0.255  
> 2023 05 18 00 01 26.9688020  0  7                     
G02  24273780.062      132063.476        1636.993           0.239  
G03  26110330.862      -38232.549        -533.156           0.228  
G04  26070842.943      -97018.025       -1370.698           0.227  
G05  21883689.791     -137243.776       -2070.338           0.255  
G06  21977071.733       80271.098        1171.859           0.255  
G07  22049245.861     -103927.424       -1836.423           0.255  
G09  20635393.363      -41791.165        -795.811           0.255  
> 2023 05 18 00 01 27.0688020  0  7                     
G02  24273739.356      132227.245        1637.791           0.239  
G03  26110344.868      -38285.883        -533.481           0.228  
G04  26070877.099      -97155.108       -1371.055           0.227  
G05  21883742.471     -137450.830       -2070.705           0.255  
G06  21977042.062       80388.325        1171.921           0.255  
G07  22049292.077     -104111.076       -1836.352           0.255  
G09  20635413.543      -41870.753        -795.294           0.255  
> 2023 05 18 00 01 27.1688020  0  7                     
G02  24273698.539      132390.992        1637.647           0.239  
G03  26110358.367      -38339.212        -533.529           0.228  
G04  26070910.154      -97292.183       -1371.172           0.227  
G05  21883795.346     -137657.906       -2070.972           0.255  
G06  21977012.717       80505.550        1172.077           0.255  
G07  22049338.591     -104294.733       -1835.979           0.255  
G09  20635433.978      -41950.347        -795.547           0.255  
> 2023 05 18 00 01 27.2688020  0  7                     
G02  24273656.278      132554.750        1637.199           0.239  
G03  26110371.952      -38392.552        -533.516           0.228  
G04  26070945.834      -97429.263       -1370.541           0.228  
G05  21883848.104     -137864.985       -2070.730           0.255  
G06  21976982.192       80622.782        1171.469           0.255  
G07  22049386.465     -104478.398       -1835.616           0.255  
G09  20635454.307      -42029.950        -795.825           0.255  
> 2023 05 18 00 01 27.3688020  0  7                     
G02  24273612.747      132718.512        1637.472           0.239  
G03  26110385.592      -38445.890        -533.520           0.228  
G04  26070984.184      -97566.350       -1370.412           0.227  
G05  21883900.791     -138072.067       -2070.892           0.255  
G06  21976952.729       80740.038        1173.349           0.255  
G07  22049433.107     -104662.074       -1835.571           0.255  
G09  20635474.433      -42109.556        -796.623           0.255  
> 2023 05 18 00 01 27.4688020  0  7                     
G02  24273572.726      132882.278        1637.586           0.239  
G03  26110398.954      -38499.228        -533.566           0.228  
G04  26071016.559      -97703.429       -1370.787           0.227  
G05  21883953.745     -138279.150       -2070.555           0.255  
G06  21976922.169       80857.274        1172.254           0.255  
G07  22049479.949     -104845.760       -1835.470           0.255  
G09  20635494.750      -42189.167        -796.576           0.255  
> 2023 05 18 00 01 27.5688020  0  7                     
G02  24273530.417      133046.024        1637.268           0.238  
G03  26110412.290      -38552.574        -533.560           0.228  
G04  26071051.750      -97840.482       -1370.830           0.226  
G05  21884006.448     -138486.239       -2071.132           0.255  
G06  21976891.399       80974.516        1172.431           0.255  
G07  22049527.117     -105029.446       -1835.976           0.255  
G09  20635515.166      -42268.782        -796.562           0.255  
> 2023 05 18 00 01 27.6688020  0  7                     
G02  24273489.423      133209.783        1637.826           0.239  
G03  26110426.126      -38605.918        -533.463           0.228  
G04  26071086.291      -97977.328       -1344.202           0.227  
G05  21884059.258     -138693.329       -2070.744           0.255  
G06  21976862.564       81091.747        1171.732           0.255  
G07  22049572.701     -105213.137       -1837.121           0.255  
G09  20635535.468      -42348.400        -796.154           0.255  
> 2023 05 18 00 01 27.7688020  0  7                     
G02  24273447.247      133373.548        1637.643           0.239  
G03  26110439.292      -38659.272        -533.585           0.228  
G04  26071121.561      -98114.633       -1370.244           0.227  
G05  21884112.161     -138900.423       -2070.849           0.255  
G06  21976832.334       81208.681        1115.321           0.255  
G07  22049620.242     -105396.966       -1861.235           0.255  
G09  20635556.139      -42428.022        -796.573           0.255  
> 2023 05 18 00 01 27.8688020  0  7                     
G02  24273406.286      133537.309        1637.810           0.239  
G03  26110452.517      -38712.621        -533.384           0.228  
G04  26071155.360      -98251.705       -1370.734           0.226  
G05  21884164.930     -139107.520       -2070.948           0.255  
G06  21976803.585       81326.229        1172.708           0.255  
G07  22049666.467     -105580.512       -1837.060           0.255  
G09  20635576.221      -42507.651        -796.668           0.255  
> 2023 05 18 00 01 27.9688020  0  7                     
G02  24273363.616      133701.070        1637.309           0.239  
G03  26110466.001      -38765.929        -535.436           0.228  
G04  26071191.465      -98388.755       -1371.201           0.227  
G05  21884217.277     -139314.716       -2080.627           0.255  
G06  21976773.274       81443.463        1172.872           0.255  
G07  22049713.419     -105764.522       -1873.995           0.255  
G09  20635596.382      -42587.282        -796.419           0.255  
> 2023 05 18 00 01 28.0688020  0  7                     
G02  24273321.451      133864.828        1637.246           0.239  
G03  26110480.288      -38819.335        -533.581           0.228  
G04  26071227.464      -98525.811       -1370.545           0.227  
G05  21884270.107     -139521.722       -2070.966           0.255  
G06  21976742.462       81560.557        1199.428           0.255  
G07  22049761.535     -105947.906       -1837.581           0.255  
G09  20635616.716      -42666.921        -796.126           0.255  
> 2023 05 18 00 01 28.1688020  0  7                     
G02  24273280.028      134028.599        1638.144           0.239  
G03  26110493.791      -38872.700        -533.847           0.228  
G04  26071262.360      -98662.866       -1370.478           0.227  
G05  21884322.952     -139728.830       -2071.292           0.255  
G06  21976713.513       81677.913        1170.735           0.255  
G07  22049807.232     -106131.603       -1837.294           0.255  
G09  20635637.088      -42746.556        -795.757           0.255  
> 2023 05 18 00 01 28.2688020  0  7                     
G02  24273239.213      134192.360        1637.507           0.239  
G03  26110507.238      -38926.062        -533.595           0.228  
G04  26071295.527      -98799.919       -1370.237           0.227  
G05  21884375.808     -139935.935       -2070.760           0.255  
G06  21976683.337       81795.152        1171.329           0.255  
G07  22049854.069     -106315.307       -1837.522           0.255  
G09  20635657.443      -42826.200        -795.503           0.255  
> 2023 05 18 00 01 28.3688020  0  7                     
G02  24273197.280      134356.120        1637.063           0.239  
G03  26110521.744      -38979.431        -533.742           0.228  
G04  26071330.686      -98936.974       -1370.550           0.227  
G05  21884428.474     -140143.049       -2071.066           0.255  
G06  21976654.145       81912.399        1173.262           0.255  
G07  22049900.215     -106499.019       -1837.645           0.255  
G09  20635677.613      -42905.851        -796.021           0.255  
> 2023 05 18 00 01 28.4688020  0  7                     
G02  24273154.731      134519.892        1638.071           0.239  
G03  26110535.472      -39032.799        -533.516           0.228  
G04  26071366.023      -99073.995       -1354.296           0.227  
G05  21884481.372     -140350.163       -2071.128           0.255  
G06  21976623.046       82029.628        1173.155           0.255  
G07  22049948.780     -106682.726       -1837.559           0.255  
G09  20635697.844      -42985.512        -796.736           0.255  
> 2023 05 18 00 01 28.5688020  0  7                     
G02  24273112.691      134683.657        1638.194           0.239  
G03  26110548.198      -39086.175        -533.529           0.228  
G04  26071402.304      -99211.072       -1370.636           0.227  
G05  21884534.012     -140557.283       -2071.083           0.255  
G06  21976592.618       82146.874        1173.436           0.255  
G07  22049996.819     -106866.448       -1837.496           0.255  
G09  20635717.927      -43065.170        -797.263           0.255  
> 2023 05 18 00 01 28.6688020  0  7                     
G02  24273071.574      134847.411        1638.300           0.239  
G03  26110561.618      -39139.551        -533.763           0.228  
G04  26071436.135      -99348.103       -1370.942           0.227  
G05  21884586.942     -140764.405       -2071.202           0.255  
G06  21976562.768       82264.114        1172.254           0.255  
G07  22050043.040     -107050.170       -1837.510           0.255  
G09  20635738.274      -43144.835        -796.932           0.255  
> 2023 05 18 00 01 28.7688020  0  7                     
G02  24273029.555      135011.176        1637.458           0.239  
G03  26110576.102      -39192.934        -533.796           0.228  
G04  26071470.986      -99485.140       -1369.987           0.227  
G05  21884639.678     -140971.528       -2071.246           0.255  
G06  21976533.079       82381.266        1150.731           0.255  
G07  22050090.018     -107233.888       -1822.458           0.255  
G09  20635758.369      -43224.503        -796.750           0.255  
> 2023 05 18 00 01 28.8688020  0  7                     
G02  24272987.315      135174.940        1637.537           0.239  
G03  26110589.006      -39246.317        -533.871           0.228  
G04  26071506.954      -99622.186       -1369.950           0.227  
G05  21884692.459     -141178.655       -2071.276           0.255  
G06  21976504.222       82498.585        1172.630           0.255  
G07  22050135.074     -107417.622       -1837.779           0.255  
G09  20635778.921      -43304.183        -796.604           0.255  
> 2023 05 18 00 01 28.9688020  0  7                     
G02  24272946.199      135338.716        1637.779           0.239  
G03  26110603.244      -39299.703        -533.963           0.228  
G04  26071540.589      -99759.233       -1370.680           0.226  
G05  21884745.360     -141385.795       -2071.500           0.255  
G06  21976474.255       82615.811        1171.437           0.255  
G07  22050181.570     -107601.349       -1837.569           0.255  
G09  20635799.391      -43383.854        -796.511           0.255  
> 2023 05 18 00 01 29.0688020  0  7                     
G02  24272905.960      135502.473        1638.350           0.239  
G03  26110616.379      -39353.090        -533.941           0.228  
G04  26071572.879      -99896.252       -1370.857           0.227  
G05  21884798.110     -141592.929       -2071.313           0.255  
G06  21976444.916       82733.056        1172.243           0.255  
G07  22050227.974     -107785.083       -1837.581           0.255  
G09  20635819.662      -43463.537        -796.680           0.255  
> 2023 05 18 00 01 29.1688020  0  7                     
G02  24272863.324      135666.235        1637.850           0.239  
G03  26110630.252      -39406.482        -533.653           0.228  
G04  26071609.078     -100033.271       -1370.532           0.227  
G05  21884850.871     -141800.066       -2071.447           0.255  
G06  21976414.576       82850.292        1172.726           0.255  
G07  22050275.450     -107968.824       -1837.663           0.255  
G09  20635840.063      -43543.225        -796.742           0.255  
> 2023 05 18 00 01 29.2688020  0  7                     
G02  24272820.402      135829.933        1618.236           0.239  
G03  26110643.743      -39459.878        -533.831           0.228  
G04  26071647.018     -100170.300       -1369.931           0.227  
G05  21884903.713     -142007.204       -2071.258           0.255  
G06  21976384.928       82967.538        1174.304           0.255  
G07  22050322.739     -108152.573       -1837.426           0.255  
G09  20635860.206      -43622.921        -797.091           0.255  
> 2023 05 18 00 01 29.3688020  0  7                     
G02  24272779.828      135993.645        1616.066           0.239  
G03  26110657.061      -39513.279        -534.247           0.228  
G04  26071680.021     -100307.333       -1370.331           0.227  
G05  21884956.390     -142214.347       -2071.412           0.255  
G06  21976355.645       83084.744        1187.335           0.255  
G07  22050369.025     -108336.386       -1856.875           0.255  
G09  20635880.311      -43702.616        -797.367           0.255  
> 2023 05 18 00 01 29.4688020  0  7                     
G02  24272739.912      136157.549        1643.625           0.239  
G03  26110671.004      -39566.676        -533.780           0.228  
G04  26071712.018     -100444.344       -1370.358           0.227  
G05  21885009.188     -142421.494       -2071.478           0.255  
G06  21976324.657       83202.007        1172.440           0.255  
G07  22050416.615     -108520.252       -1884.170           0.255  
G09  20635900.745      -43782.315        -797.019           0.255  
> 2023 05 18 00 01 29.5688020  0  7                     
G02  24272696.463      136321.325        1633.625           0.239  
G03  26110684.642      -39620.069        -534.402           0.228  
G04  26071749.360     -100581.361       -1370.297           0.227  
G05  21885061.899     -142628.642       -2071.532           0.255  
G06  21976295.380       83318.960        1126.449           0.255  
G07  22050462.571     -108704.028       -1867.319           0.255  
G09  20635921.168      -43862.023        -797.175           0.255  
> 2023 05 18 00 01 29.6688020  0  7                     
G02  24272655.912      136485.090        1636.936           0.239  
G03  26110698.174      -39673.490        -534.073           0.228  
G04  26071782.373     -100718.388       -1369.994           0.227  
G05  21885114.646     -142835.794       -2071.644           0.255  
G06  21976265.827       83436.631        1171.482           0.255  
G07  22050509.221     -108887.570       -1837.337           0.255  
G09  20635941.527      -43941.733        -796.811           0.255  
> 2023 05 18 00 01 29.7688020  0  7                     
G02  24272612.639      136648.859        1637.858           0.239  
G03  26110711.966      -39726.897        -534.240           0.228  
G04  26071819.387     -100855.401       -1370.367           0.227  
G05  21885167.691     -143042.947       -2071.393           0.255  
G06  21976235.291       83553.689        1171.709           0.255  
G07  22050556.493     -109071.531       -1854.875           0.255  
G09  20635961.688      -44021.445        -796.709           0.255  
> 2023 05 18 00 01 29.8688020  0  7                     
G02  24272569.560      136812.627        1637.964           0.239  
G03  26110725.486      -39780.308        -533.883           0.228  
G04  26071856.299     -100992.396       -1370.069           0.227  
G05  21885220.266     -143250.106       -2071.445           0.255  
G06  21976204.816       83670.918        1170.911           0.255  
G07  22050604.341     -109255.092       -1837.606           0.255  
G09  20635981.937      -44101.163        -796.793           0.255  
> 2023 05 18 00 01 29.9688020  0  7                     
G02  24272528.884      136976.390        1637.314           0.239  
G03  26110739.345      -39833.720        -534.156           0.228  
G04  26071890.918     -101129.395       -1369.533           0.227  
G05  21885272.977     -143457.267       -2071.499           0.255  
G06  21976174.978       83788.148        1172.053           0.255  
G07  22050651.026     -109438.857       -1837.960           0.255  
G09  20636002.250      -44180.888        -797.111           0.255  
> 2023 05 18 00 01 30.0688020  0  7                     
G02  24272486.288      137140.165        1636.799           0.239  
G03  26110752.420      -39887.146        -534.306           0.228  
G04  26071926.366     -101266.411       -1369.626           0.227  
G05  21885326.070     -143664.433       -2071.826           0.255  
G06  21976143.707       83905.389        1173.661           0.255  
G07  22050698.895     -109622.620       -1837.687           0.255  
G09  20636022.717      -44260.621        -797.311           0.255  
> 2023 05 18 00 01 30.1688020  0  7                     
G02  24272445.983      137303.937        1637.112           0.239  
G03  26110767.084      -39940.556        -533.992           0.228  
G04  26071959.325     -101403.413       -1370.165           0.227  
G05  21885378.622     -143871.596       -2071.537           0.255  
G06  21976114.409       84022.617        1172.730           0.255  
G07  22050746.249     -109806.410       -1838.291           0.255  
G09  20636042.482      -44340.358        -797.465           0.255  
> 2023 05 18 00 01 30.2688020  0  7                     
G02  24272405.272      137467.712        1638.426           0.239  
G03  26110780.422      -39993.682        -511.337           0.228  
G04  26071992.980     -101540.224       -1347.633           0.227  
G05  21885431.497     -144078.771       -2071.847           0.255  
G06  21976084.478       84139.855        1173.393           0.255  
G07  22050791.654     -109990.197       -1838.322           0.255  
G09  20636063.864      -44420.089        -797.496           0.255  
> 2023 05 18 00 01 30.3688020  0  7                     
G02  24272362.530      137631.476        1638.229           0.239  
G03  26110793.652      -40047.436        -526.339           0.228  
G04  26072029.179     -101677.401       -1369.719           0.227  
G05  21885484.239     -144285.940       -2071.704           0.255  
G06  21976055.253       84257.163        1249.745           0.255  
G07  22050838.212     -110173.867       -1808.944           0.255  
G09  20636084.078      -44499.836        -797.740           0.255  
> 2023 05 18 00 01 30.4688020  0  7                     
G02  24272321.684      137795.250        1637.396           0.239  
G03  26110807.436      -40100.835        -534.114           0.228  
G04  26072061.781     -101814.394       -1369.714           0.227  
G05  21885537.077     -144493.119       -2071.805           0.255  
G06  21976025.296       84374.327        1173.365           0.255  
G07  22050885.167     -110357.763       -1837.989           0.255  
G09  20636104.203      -44579.588        -798.094           0.255  
> 2023 05 18 00 01 30.5688020  0  7                     
G02  24272278.097      137959.027        1636.716           0.239  
G03  26110820.784      -40154.266        -534.222           0.228  
G04  26072098.714     -101951.384       -1369.449           0.227  
G05  21885589.818     -144700.294       -2071.680           0.255  
G06  21975996.633       84491.556        1173.726           0.255  
G07  22050930.985     -110541.550       -1838.635           0.255  
G09  20636124.478      -44659.345        -798.140           0.255  
> 2023 05 18 00 01 30.6688020  0  7                     
G02  24272237.102      138122.813        1638.737           0.239  
G03  26110833.549      -40207.705        -534.516           0.228  
G04  26072134.096     -102088.377       -1370.318           0.227  
G05  21885642.609     -144907.479       -2071.648           0.255  
G06  21975967.656       84608.762        1172.088           0.255  
G07  22050976.378     -110725.351       -1838.743           0.255  
G09  20636145.023      -44739.089        -796.811           0.255  
> 2023 05 18 00 01 30.7688020  0  7                     
G02  24272195.327      138286.580        1638.312           0.239  
G03  26110848.182      -40261.140        -534.393           0.228  
G04  26072168.270     -102225.354       -1370.468           0.226  
G05  21885695.386     -145114.664       -2072.113           0.255  
G06  21975936.955       84725.997        1172.135           0.255  
G07  22051024.000     -110909.135       -1838.109           0.255  
G09  20636165.406      -44818.853        -796.955           0.255  
> 2023 05 18 00 01 30.8688020  0  7                     
G02  24272153.178      138450.365        1652.602           0.239  
G03  26110862.079      -40314.579        -534.037           0.228  
G04  26072203.964     -102361.858       -1314.998           0.227  
G05  21885748.309     -145321.853       -2071.640           0.255  
G06  21975907.792       84843.241        1171.655           0.255  
G07  22051069.950     -111092.551       -1757.105           0.255  
G09  20636185.627      -44898.627        -797.545           0.255  
> 2023 05 18 00 01 30.9688020  0  7                     
G02  24272112.184      138614.130        1637.159           0.239  
G03  26110875.143      -40368.035        -523.885           0.228  
G04  26072238.823     -102499.323       -1369.145           0.227  
G05  21885801.008     -145529.055       -2072.077           0.255  
G06  21975878.974       84960.466        1171.239           0.255  
G07  22051117.502     -111276.738       -1837.657           0.255  
G09  20636204.956      -44978.400        -796.971           0.255  
> 2023 05 18 00 01 31.0688020  0  7                     
G02  24272070.935      138777.915        1638.465           0.238  
G03  26110889.054      -40421.472        -534.377           0.228  
G04  26072272.433     -102636.299       -1370.385           0.227  
G05  21885854.105     -145736.248       -2071.968           0.255  
G06  21975848.359       85077.690        1171.486           0.255  
G07  22051165.253     -111460.540       -1837.505           0.255  
G09  20636225.479      -45058.171        -797.566           0.255  
> 2023 05 18 00 01 31.1688020  0  7                     
G02  24272028.832      138941.684        1637.663           0.239  
G03  26110903.121      -40474.922        -534.389           0.228  
G04  26072307.340     -102773.076       -1341.167           0.227  
G05  21885906.801     -145943.446       -2072.080           0.255  
G06  21975816.687       85194.909        1169.997           0.255  
G07  22051212.005     -111644.338       -1837.325           0.255  
G09  20636246.532      -45137.949        -797.535           0.255  
> 2023 05 18 00 01 31.2688020  0  7                     
G02  24271986.955      139105.462        1637.934           0.239  
G03  26110916.189      -40528.383        -534.803           0.228  
G04  26072342.404     -102910.242       -1370.141           0.227  
G05  21885959.705     -146150.647       -2072.202           0.255  
G06  21975786.608       85312.137        1169.274           0.255  
G07  22051260.518     -111828.155       -1837.545           0.255  
G09  20636266.369      -45217.734        -796.738           0.255  
> 2023 05 18 00 01 31.3688020  0  7                     
G02  24271945.011      139269.228        1637.289           0.239  
G03  26110929.320      -40581.833        -534.976           0.228  
G04  26072378.072     -103047.206       -1369.939           0.227  
G05  21886012.492     -146357.849       -2071.870           0.255  
G06  21975756.172       85429.389        1172.358           0.255  
G07  22051306.727     -112011.980       -1838.068           0.255  
G09  20636287.233      -45297.527        -797.233           0.255  
> 2023 05 18 00 01 31.4688020  0  7                     
G02  24271902.589      139433.015        1637.576           0.239  
G03  26110943.466      -40635.288        -534.452           0.228  
G04  26072413.717     -103184.171       -1369.793           0.227  
G05  21886064.946     -146565.058       -2072.242           0.255  
G06  21975726.660       85546.610        1171.100           0.255  
G07  22051354.123     -112195.801       -1838.328           0.255  
G09  20636306.897      -45377.320        -797.171           0.255  
> 2023 05 18 00 01 31.5688020  0  7                     
G02  24271860.250      139596.644        1611.989           0.239  
G03  26110956.449      -40688.655        -512.171           0.228  
G04  26072449.742     -103321.109       -1369.079           0.227  
G05  21886117.998     -146772.202       -2056.953           0.255  
G06  21975696.419       85663.659        1168.827           0.255  
G07  22051401.755     -112379.622       -1838.251           0.255  
G09  20636327.050      -45457.120        -797.596           0.255  
> 2023 05 18 00 01 31.6688020  0  7                     
G02  24271820.498      139760.765        1673.835           0.239  
G03  26110970.836      -40742.340        -559.097           0.228  
G04  26072481.367     -103457.904       -1337.855           0.227  
G05  21886170.731     -146979.438       -2064.801           0.255  
G06  21975666.832       85781.078        1172.705           0.255  
G07  22051447.880     -112563.457       -1838.953           0.255  
G09  20636347.702      -45536.922        -798.411           0.255  
> 2023 05 18 00 01 31.7688020  0  7                     
G02  24271777.531      139924.350        1638.133           0.239  
G03  26110984.786      -40796.109        -583.999           0.228  
G04  26072517.854     -103595.040       -1369.044           0.227  
G05  21886223.530     -147186.693       -2072.147           0.255  
G06  21975636.801       85898.302        1173.031           0.255  
G07  22051494.617     -112747.286       -1839.301           0.255  
G09  20636368.094      -45616.729        -797.996           0.255  
> 2023 05 18 00 01 31.8688020  0  7                     
G02  24271735.883      140088.323        1641.130           0.239  
G03  26110997.633      -40848.649        -470.601           0.228  
G04  26072552.985     -103732.083       -1435.170           0.227  
G05  21886276.241     -147393.841       -2065.213           0.255  
G06  21975608.237       86015.518        1151.054           0.255  
G07  22051539.722     -112930.982       -1765.064           0.255  
G09  20636388.650      -45696.536        -797.798           0.255  
> 2023 05 18 00 01 31.9688020  0  7                     
G02  24271695.456      140251.911        1637.893           0.239  
G03  26111011.345      -40902.630        -534.626           0.228  
G04  26072586.125     -103868.940       -1369.755           0.226  
G05  21886329.073     -147601.135       -2072.130           0.255  
G06  21975580.367       86132.772        1173.219           0.255  
G07  22051584.254     -113114.973       -1838.982           0.255  
G09  20636408.861      -45776.352        -798.337           0.255  
> 2023 05 18 00 01 32.0688020  0  7                     
G02  24271652.979      140415.685        1637.984           0.239  
G03  26111024.781      -40956.102        -533.984           0.228  
G04  26072621.436     -104005.888       -1369.165           0.228  
G05  21886381.932     -147808.370       -2072.351           0.255  
G06  21975551.303       86249.994        1171.202           0.255  
G07  22051630.947     -113298.808       -1838.173           0.255  
G09  20636429.161      -45856.173        -797.551           0.255  
> 2023 05 18 00 01 32.1688020  0  7                     
G02  24271610.673      140579.475        1637.671           0.239  
G03  26111038.740      -41009.589        -534.857           0.228  
G04  26072658.023     -104142.845       -1369.124           0.227  
G05  21886434.589     -148015.597       -2072.335           0.255  
G06  21975519.391       86367.227        1171.984           0.255  
G07  22051679.918     -113482.652       -1838.714           0.255  
G09  20636449.544      -45936.003        -797.894           0.255  
> 2023 05 18 00 01 32.2688020  0  7                     
G02  24271569.911      140743.257        1637.741           0.239  
G03  26111052.587      -41063.068        -534.825           0.228  
G04  26072691.596     -104279.795       -1369.908           0.227  
G05  21886487.623     -148222.831       -2072.152           0.255  
G06  21975488.282       86484.449        1171.700           0.255  
G07  22051727.573     -113666.493       -1838.366           0.255  
G09  20636470.136      -46015.830        -797.672           0.255  
> 2023 05 18 00 01 32.3688020  0  7                     
G02  24271526.609      140907.035        1637.892           0.239  
G03  26111065.936      -41116.555        -535.173           0.228  
G04  26072727.641     -104416.722       -1369.749           0.227  
G05  21886540.357     -148430.061       -2072.371           0.255  
G06  21975459.107       86601.674        1172.639           0.255  
G07  22051774.931     -113850.353       -1838.758           0.255  
G09  20636489.887      -46095.666        -797.880           0.255  
> 2023 05 18 00 01 32.4688020  0  7                     
G02  24271485.053      141070.823        1638.086           0.239  
G03  26111079.223      -41170.050        -535.658           0.228  
G04  26072764.320     -104553.673       -1370.071           0.227  
G05  21886593.054     -148637.302       -2072.647           0.255  
G06  21975429.515       86718.734        1164.751           0.255  
G07  22051820.659     -114034.207       -1838.960           0.255  
G09  20636510.544      -46175.508        -797.908           0.255  
> 2023 05 18 00 01 32.5688020  0  7                     
G02  24271444.405      141234.596        1637.667           0.239  
G03  26111093.162      -41223.524        -535.060           0.228  
G04  26072797.702     -104690.595       -1369.455           0.226  
G05  21886646.043     -148844.537       -2072.090           0.255  
G06  21975399.771       86836.129        1171.591           0.255  
G07  22051867.573     -114218.074       -1838.602           0.255  
G09  20636531.079      -46255.358        -798.323           0.255  
> 2023 05 18 00 01 32.6688020  0  7                     
G02  24271402.896      141398.383        1637.932           0.239  
G03  26111106.804      -41277.017        -534.755           0.228  
G04  26072830.612     -104827.520       -1369.020           0.227  
G05  21886698.823     -149051.786       -2072.434           0.255  
G06  21975368.013       86953.354        1172.843           0.255  
G07  22051915.539     -114401.925       -1837.641           0.255  
G09  20636551.478      -46335.205        -798.915           0.255  
> 2023 05 18 00 01 32.7688020  0  7                     
G02  24271359.033      141562.166        1637.451           0.239  
G03  26111120.233      -41330.663        -553.444           0.228  
G04  26072868.836     -104964.461       -1369.082           0.228  
G05  21886751.630     -149259.028       -2072.397           0.255  
G06  21975338.880       87070.575        1172.816           0.255  
G07  22051961.379     -114585.798       -1838.195           0.255  
G09  20636572.169      -46415.058        -799.033           0.255  
> 2023 05 18 00 01 32.8688020  0  7                     
G02  24271317.634      141725.952        1637.839           0.239  
G03  26111134.369      -41384.013        -534.951           0.228  
G04  26072902.872     -105101.395       -1370.179           0.226  
G05  21886804.307     -149466.280       -2072.398           0.255  
G06  21975310.132       87187.802        1172.477           0.255  
G07  22052007.784     -114769.683       -1839.076           0.255  
G09  20636592.169      -46494.914        -799.051           0.255  
> 2023 05 18 00 01 32.9688020  0  7                     
G02  24271277.347      141889.729        1637.791           0.238  
G03  26111148.089      -41437.519        -534.872           0.228  
G04  26072936.043     -105238.301       -1370.108           0.227  
G05  21886857.105     -149673.531       -2072.688           0.255  
G06  21975278.988       87305.035        1172.915           0.255  
G07  22052056.068     -114953.560       -1838.490           0.255  
G09  20636612.363      -46574.777        -798.858           0.255  
> 2023 05 18 00 01 33.0688020  0  7                     
G02  24271234.373      142053.513        1637.675           0.239  
G03  26111161.395      -41491.039        -535.270           0.228  
G04  26072973.097     -105375.225       -1369.032           0.227  
G05  21886909.891     -149880.788       -2072.685           0.255  
G06  21975250.207       87422.260        1173.064           0.255  
G07  22052101.936     -115137.426       -1837.681           0.255  
G09  20636632.753      -46654.645        -799.729           0.255  
> 2023 05 18 00 01 33.1688020  0  7                     
G02  24271196.108      142217.313        1637.407           0.239  
G03  26111175.486      -41544.534        -535.495           0.228  
G04  26073002.501     -105512.150       -1369.403           0.226  
G05  21886962.975     -150088.042       -2072.447           0.255  
G06  21975219.219       87539.466        1172.524           0.255  
G07  22052149.348     -115321.306       -1838.204           0.255  
G09  20636653.201      -46734.510        -798.507           0.255  
> 2023 05 18 00 01 33.2688020  0  7                     
G02  24271152.451      142380.838        1624.198           0.238  
G03  26111188.771      -41597.794        -475.615           0.228  
G04  26073039.789     -105649.056       -1369.380           0.227  
G05  21887015.659     -150295.372       -2073.161           0.255  
G06  21975188.240       87656.691        1171.772           0.255  
G07  22052196.960     -115505.200       -1838.587           0.255  
G09  20636673.780      -46814.388        -798.378           0.255  
> 2023 05 18 00 01 33.3688020  0  7                     
G02  24271109.405      142544.862        1617.881           0.239  
G03  26111202.224      -41651.557        -535.043           0.228  
G04  26073077.112     -105785.974       -1368.710           0.227  
G05  21887068.518     -150502.571       -2072.499           0.255  
G06  21975160.429       87774.483        1260.529           0.255  
G07  22052242.346     -115689.084       -1837.622           0.255  
G09  20636693.891      -46894.275        -798.413           0.255  
> 2023 05 18 00 01 33.4688020  0  7                     
G02  24271067.933      142708.704        1615.059           0.238  
G03  26111215.871      -41705.074        -535.075           0.228  
G04  26073111.343     -105922.881       -1369.800           0.226  
G05  21887121.274     -150709.840       -2072.538           0.255  
G06  21975129.850       87891.254        1256.909           0.255  
G07  22052289.879     -115872.948       -1873.471           0.255  
G09  20636713.974      -46974.160        -799.129           0.255  
> 2023 05 18 00 01 33.5688020  0  7                     
G02  24271025.473      142872.451        1638.365           0.239  
G03  26111229.981      -41758.596        -535.561           0.228  
G04  26073147.780     -106059.780       -1369.279           0.227  
G05  21887174.251     -150917.106       -2065.724           0.255  
G06  21975098.689       88008.380        1173.754           0.255  
G07  22052337.550     -116056.876       -1838.616           0.255  
G09  20636734.510      -47054.050        -799.380           0.255  
> 2023 05 18 00 01 33.6688020  0  7                     
G02  24270986.315      143036.234        1638.314           0.239  
G03  26111243.459      -41812.114        -534.568           0.228  
G04  26073178.417     -106196.698       -1369.451           0.227  
G05  21887227.097     -151124.387       -2072.960           0.255  
G06  21975069.479       88125.597        1173.101           0.255  
G07  22052383.253     -116240.787       -1839.025           0.255  
G09  20636755.241      -47133.943        -799.339           0.255  
> 2023 05 18 00 01 33.7688020  0  7                     
G02  24270942.917      143200.031        1637.787           0.239  
G03  26111256.932      -41865.647        -535.278           0.228  
G04  26073215.967     -106333.603       -1369.617           0.227  
G05  21887279.933     -151331.659       -2072.705           0.255  
G06  21975040.743       88242.834        1172.897           0.255  
G07  22052430.234     -116424.710       -1839.451           0.255  
G09  20636775.256      -47213.839        -798.801           0.255  
> 2023 05 18 00 01 33.8688020  0  7                     
G02  24270901.755      143363.824        1638.294           0.239  
G03  26111270.464      -41919.175        -535.549           0.228  
G04  26073250.002     -106470.495       -1369.568           0.226  
G05  21887332.436     -151538.943       -2072.678           0.255  
G06  21975010.047       88360.053        1171.501           0.255  
G07  22052477.590     -116608.602       -1837.691           0.255  
G09  20636796.075      -47293.747        -799.464           0.255  
> 2023 05 18 00 01 33.9688020  0  7                     
G02  24270858.360      143527.599        1638.046           0.239  
G03  26111284.335      -41972.706        -534.886           0.228  
G04  26073288.033     -106607.377       -1369.430           0.228  
G05  21887385.334     -151746.234       -2073.034           0.255  
G06  21974979.019       88477.267        1171.931           0.255  
G07  22052525.540     -116792.518       -1838.071           0.255  
G09  20636816.225      -47373.649        -799.111           0.255  
> 2023 05 18 00 01 34.0688020  0  7                     
G02  24270817.994      143691.398        1638.048           0.239  
G03  26111299.111      -42026.242        -535.695           0.228  
G04  26073320.091     -106744.282       -1369.128           0.227  
G05  21887438.240     -151953.520       -2072.732           0.255  
G06  21974951.137       88594.488        1171.815           0.255  
G07  22052569.035     -116976.430       -1838.134           0.255  
G09  20636836.858      -47453.564        -798.973           0.255  
> 2023 05 18 00 01 34.1688020  0  7                     
G02  24270776.250      143855.185        1638.339           0.239  
G03  26111312.319      -42079.783        -535.091           0.228  
G04  26073355.207     -106881.177       -1369.470           0.227  
G05  21887490.897     -152160.810       -2072.801           0.255  
G06  21974921.329       88711.709        1170.972           0.255  
G07  22052617.605     -117160.330       -1837.446           0.255  
G09  20636856.590      -47533.494        -799.125           0.255  
> 2023 05 18 00 01 34.2688020  0  7                     
G02  24270734.075      144018.965        1637.472           0.239  
G03  26111326.474      -42133.319        -535.345           0.228  
G04  26073390.172     -107018.058       -1368.305           0.228  
G05  21887543.644     -152368.101       -2073.009           0.255  
G06  21974890.683       88828.964        1194.941           0.255  
G07  22052666.306     -117344.274       -1839.620           0.255  
G09  20636876.627      -47613.408        -798.973           0.255  
> 2023 05 18 00 01 34.3688020  0  7                     
G02  24270691.804      144182.769        1638.105           0.239  
G03  26111339.119      -42186.868        -536.498           0.228  
G04  26073425.715     -107154.934       -1368.282           0.228  
G05  21887596.900     -152575.396       -2072.898           0.255  
G06  21974861.779       88946.181        1171.828           0.255  
G07  22052709.786     -117528.211       -1838.858           0.255  
G09  20636897.762      -47693.337        -799.812           0.255  
> 2023 05 18 00 01 34.4688020  0  7                     
G02  24270650.773      144346.560        1639.312           0.239  
G03  26111351.682      -42240.406        -535.872           0.228  
G04  26073458.973     -107291.825       -1370.445           0.227  
G05  21887649.386     -152782.697       -2073.190           0.255  
G06  21974833.124       89063.389        1171.292           0.255  
G07  22052758.239     -117712.125       -1837.530           0.255  
G09  20636917.323      -47773.265        -799.242           0.255  
> 2023 05 18 00 01 34.5688020  0  7                     
G02  24270609.450      144510.356        1639.409           0.239  
G03  26111366.462      -42293.949        -535.455           0.228  
G04  26073494.002     -107428.700       -1369.354           0.227  
G05  21887702.028     -152989.995       -2072.904           0.255  
G06  21974801.129       89180.595        1170.686           0.255  
G07  22052806.789     -117896.060       -1837.241           0.255  
G09  20636937.927      -47853.199        -799.126           0.255  
> 2023 05 18 00 01 34.6688020  0  7                     
G02  24270567.166      144674.141        1637.470           0.239  
G03  26111379.398      -42347.509        -535.491           0.228  
G04  26073530.912     -107565.570       -1368.972           0.227  
G05  21887755.055     -153197.302       -2073.159           0.255  
G06  21974770.464       89297.817        1172.808           0.255  
G07  22052854.032     -118079.985       -1838.367           0.255  
G09  20636958.680      -47933.140        -800.208           0.255  
> 2023 05 18 00 01 34.7688020  0  7                     
G02  24270527.099      144837.938        1637.052           0.239  
G03  26111392.874      -42401.057        -535.480           0.228  
G04  26073561.384     -107702.441       -1368.306           0.227  
G05  21887808.028     -153404.608       -2073.197           0.255  
G06  21974742.548       89415.055        1173.498           0.255  
G07  22052900.134     -118263.938       -1839.977           0.255  
G09  20636978.700      -48013.080        -799.284           0.255  
> 2023 05 18 00 01 34.8688020  0  7                     
G02  24270485.744      145001.746        1637.835           0.239  
G03  26111405.861      -42454.614        -535.006           0.228  
G04  26073597.624     -107839.328       -1369.878           0.226  
G05  21887860.762     -153611.917       -2072.773           0.255  
G06  21974710.546       89532.292        1173.970           0.255  
G07  22052946.504     -118447.882       -1838.641           0.255  
G09  20637000.058      -48093.040        -800.282           0.255  
> 2023 05 18 00 01 34.9688020  0  7                     
G02  24270443.586      145165.528        1637.381           0.239  
G03  26111419.942      -42508.173        -535.319           0.228  
G04  26073632.915     -107976.191       -1367.712           0.228  
G05  21887913.642     -153819.230       -2072.914           0.255  
G06  21974682.337       89649.496        1173.456           0.255  
G07  22052992.621     -118631.829       -1839.139           0.255  
G09  20637020.093      -48172.989        -799.889           0.255  
> 2023 05 18 00 01 35.0688020  0  7                     
G02  24270400.075      145329.326        1638.348           0.239  
G03  26111434.153      -42561.740        -535.476           0.228  
G04  26073669.469     -108113.057       -1368.822           0.226  
G05  21887966.278     -154026.550       -2073.293           0.255  
G06  21974653.510       89766.720        1171.501           0.255  
G07  22053039.677     -118815.788       -1839.013           0.255  
G09  20637039.294      -48252.948        -799.396           0.255  
> 2023 05 18 00 01 35.1688020  0  7                     
G02  24270359.619      145493.208        1662.569           0.239  
G03  26111447.685      -42615.306        -535.783           0.228  
G04  26073703.053     -108249.772       -1342.837           0.227  
G05  21888019.343     -154233.868       -2073.435           0.255  
G06  21974623.811       89883.922        1170.047           0.255  
G07  22053085.660     -118999.743       -1840.605           0.255  
G09  20637060.013      -48332.903        -798.305           0.255  
> 2023 05 18 00 01 35.2688020  0  7                     
G02  24270316.438      145656.912        1638.484           0.239  
G03  26111462.010      -42668.877        -535.715           0.228  
G04  26073740.450     -108386.771       -1368.873           0.226  
G05  21888072.070     -154441.191       -2073.236           0.255  
G06  21974591.135       90001.155        1170.898           0.255  
G07  22053134.294     -119183.707       -1840.358           0.255  
G09  20637080.903      -48412.878        -798.901           0.255  
> 2023 05 18 00 01 35.3688020  0  7                     
G02  24270275.457      145820.699        1637.991           0.239  
G03  26111473.946      -42722.448        -535.817           0.228  
G04  26073773.386     -108523.627       -1368.388           0.227  
G05  21888124.839     -154648.518       -2073.467           0.255  
G06  21974562.049       90118.359        1172.683           0.255  
G07  22053180.771     -119367.651       -1839.693           0.255  
G09  20637101.594      -48492.852        -800.066           0.255  
> 2023 05 18 00 01 35.4688020  0  7                     
G02  24270233.540      145984.493        1637.702           0.239  
G03  26111488.527      -42776.029        -536.198           0.228  
G04  26073808.390     -108660.480       -1368.477           0.227  
G05  21888177.707     -154855.846       -2073.225           0.255  
G06  21974535.044       90235.590        1174.266           0.255  
G07  22053225.369     -119551.633       -1839.490           0.255  
G09  20637121.567      -48572.834        -800.765           0.255  
