     3.02           OBSERVATION DATA    M: Mixed            RINEX VERSION / TYPE
GNSS-SDRLIB v1.1                        20230616 045718 UTC PGM / RUN BY / DATE 
                                                            MARKER NAME         
                                                            MARKER NUMBER       
                                                            MARKER TYPE         
                                                            OBSERVER / AGENCY   
GNSS-SDRLIB         GNSS-SDRLIB         1.1                 REC # / TYPE / VERS 
                                                            ANT # / TYPE        
        0.0000        0.0000        0.0000                  APPROX POSITION XYZ 
        0.0000        0.0000        0.0000                  ANTENNA: DELTA H/E/N
G    4 C1C L1C D1C S1C                                      SYS / # / OBS TYPES 
R    4 C1C L1C D1C S1C                                      SYS / # / OBS TYPES 
E    4 C1C L1C D1C S1C                                      SYS / # / OBS TYPES 
J    4 C1C L1C D1C S1C                                      SYS / # / OBS TYPES 
S    4 C1C L1C D1C S1C                                      SYS / # / OBS TYPES 
C    4 C1C L1C D1C S1C                                      SYS / # / OBS TYPES 
  1970     1     1     0     0    0.0000000     GPS         TIME OF FIRST OBS   
  1970     1     1     0     0    0.0000000     GPS         TIME OF LAST OBS    
G                                                           SYS / PHASE SHIFT   
R                                                           SYS / PHASE SHIFT   
E                                                           SYS / PHASE SHIFT   
J                                                           SYS / PHASE SHIFT   
S                                                           SYS / PHASE SHIFT   
C                                                           SYS / PHASE SHIFT   
  0                                                         GLONASS SLOT / FRQ #
 C1C    0.000 C1P    0.000 C2C    0.000 C2P    0.000        GLONASS COD/PHS/BIS 
                                                            END OF HEADER       
> 2023  5 18  0  0 36.0688020  0  1                     
G 8  20626276.271       -3766.073        -622.867           4.500  
> 2023  5 18  0  0 36.0688020  0  2                     
G 7  22526802.906       51463.004        2730.027           0.500  
G 8  20626276.271       -3766.073        -622.867           4.500  
> 2023  5 18  0  0 36.0688020  0  3                     
G 4  23612904.683      -54947.874       -2848.694          61.000  
G 7  22526802.906       51463.004        2730.027           0.500  
G 8  20626276.271       -3766.073        -622.867           4.500  
> 2023  5 18  0  0 36.0688020  0  4                     
G 1  24305253.520      118834.203        3897.910          59.750  
G 4  23612904.683      -54947.874       -2848.694          61.000  
G 7  22526802.906       51463.004        2730.027           0.500  
G 8  20626276.271       -3766.073        -622.867           4.500  
> 2023  5 18  0  0 36.1688020  0  4                     
G 1  24305326.619      119224.004        3897.703          59.750  
G 4  23613105.376      -55232.749       -2842.022          61.000  
G 7  22526897.828       51735.703        2699.664           0.500  
G 8  20626435.033       -3828.444        -622.508           4.750  
> 2023  5 18  0  0 36.2688020  0  4                     
G 1  24305252.300      119613.816        3897.379          59.750  
G 4  23613159.632      -55517.521       -2848.332          61.000  
G 7  22526846.492       52008.991        2730.277           0.500  
G 8  20626447.139       -3890.812        -624.219           4.500  
> 2023  5 18  0  0 36.3688020  0  4                     
G 1  24305177.673      120003.628        3898.469          59.750  
G 4  23613214.631      -55802.343       -2847.695          61.000  
G 7  22526794.639       52281.987        2730.285           0.500  
G 8  20626458.827       -3953.204        -623.210           4.750  
> 2023  5 18  0  0 36.4688020  0  4                     
G 1  24305103.439      120393.435        3898.735          59.750  
G 4  23613268.578      -56087.175       -2848.530          61.000  
G 7  22526742.594       52554.972        2729.674           0.500  
G 8  20626470.863       -4015.567        -623.011           4.750  
> 2023  5 18  0  0 36.5688020  0  4                     
G 1  24305029.222      120783.242        3898.261          59.750  
G 4  23613322.975      -56372.001       -2847.694          61.000  
G 7  22526690.236       52827.956        2729.255           0.500  
G 8  20626482.618       -4077.983        -625.896           4.750  
> 2023  5 18  0  0 36.6688020  0  4                     
G 1  24304953.959      121173.050        3898.589          59.750  
G 4  23613378.000      -56656.832       -2848.194          61.000  
G 7  22526638.147       53100.944        2729.662           0.500  
G 8  20626494.494       -4140.355        -623.333           4.750  
> 2023  5 18  0  0 36.7688020  0  4                     
G 1  24304880.399      121562.857        3898.326          59.750  
G 4  23613432.037      -56941.668       -2847.778          61.000  
G 7  22526586.214       53373.923        2729.453           0.500  
G 8  20626506.563       -4202.757        -625.340           4.500  
> 2023  5 18  0  0 36.8688020  0  4                     
G 1  24304806.659      121952.663        3898.772          59.750  
G 4  23613486.717      -57226.469       -2859.825          61.000  
G 7  22526534.306       53647.068        2734.294           0.500  
G 8  20626518.143       -4265.155        -622.531           4.750  
> 2023  5 18  0  0 36.9688020  0  4                     
G 1  24304732.745      122342.472        3898.388          59.750  
G 4  23613540.128      -57511.344       -2848.640          61.000  
G 7  22526482.574       53919.880        2729.341           0.500  
G 8  20626530.533       -4327.550        -624.222           4.750  
> 2023  5 18  0  0 37.0688020  0  4                     
G 1  24304658.490      122732.282        3898.139          59.750  
G 4  23613593.881      -57796.271       -2867.079          61.000  
G 7  22526430.502       54193.031        2746.316           0.500  
G 8  20626542.103       -4389.980        -624.467           4.750  
> 2023  5 18  0  0 37.1688020  0  4                     
G 1  24304584.394      123122.089        3898.164          59.750  
G 4  23613648.782      -58081.019       -2848.538          61.000  
G 7  22526379.265       54465.821        2729.207           0.500  
G 8  20626553.980       -4452.375        -623.555           4.750  
> 2023  5 18  0  0 37.2688020  0  4                     
G 1  24304510.586      123511.894        3898.018          59.750  
G 4  23613702.445      -58365.859       -2848.198          61.000  
G 7  22526327.223       54738.787        2729.766           0.500  
G 8  20626565.697       -4514.816        -626.001           4.500  
> 2023  5 18  0  0 37.3688020  0  4                     
G 1  24304435.748      123901.697        3897.181          59.750  
G 4  23613756.631      -58650.695       -2848.248          61.000  
G 7  22526275.166       55011.747        2730.151           0.500  
G 8  20626577.511       -4577.215        -622.232           4.750  
> 2023  5 18  0  0 37.4688020  0  4                     
G 1  24304361.262      124291.504        3896.898          59.750  
G 4  23613810.278      -58935.539       -2848.519          61.000  
G 7  22526222.875       55284.707        2729.663           0.500  
G 8  20626589.542       -4639.656        -623.482           4.750  
> 2023  5 18  0  0 37.5688020  0  4                     
G 1  24304287.299      124681.318        3898.303          59.750  
G 4  23613864.737      -59220.384       -2848.897          61.000  
G 7  22526170.190       55557.666        2729.229           0.500  
G 8  20626601.124       -4702.094        -623.470           4.750  
> 2023  5 18  0  0 37.6688020  0  4                     
G 1  24304213.409      125071.125        3898.145          59.750  
G 4  23613919.664      -59505.229       -2849.411          61.000  
G 7  22526118.621       55830.621        2728.875           0.500  
G 8  20626613.007       -4764.520        -623.683           4.500  
> 2023  5 18  0  0 37.7688020  0  4                     
G 1  24304140.060      125460.936        3897.456          59.750  
G 4  23613973.232      -59790.070       -2848.969          61.000  
G 7  22526066.969       56103.576        2730.421           0.500  
G 8  20626625.522       -4826.970        -623.933           4.500  
> 2023  5 18  0  0 37.8688020  0  4                     
G 1  24304064.555      125850.745        3898.131          59.750  
G 4  23614027.959      -60074.925       -2849.367          61.000  
G 7  22526014.692       56376.523        2729.369           0.500  
G 8  20626638.167       -4889.418        -625.741           4.500  
> 2023  5 18  0  0 37.9688020  0  4                     
G 1  24303990.935      126240.559        3898.078          59.750  
G 4  23614081.602      -60359.775       -2848.889          61.000  
G 7  22525963.430       56649.465        2729.623           0.500  
G 8  20626647.905       -4951.844        -624.034           4.500  
> 2023  5 18  0  0 38.0688020  0  4                     
G 1  24303917.051      126630.343        3898.495          59.750  
G 4  23614136.184      -60644.625       -2848.670          61.000  
G 7  22525911.079       56922.410        2729.327           0.500  
G 8  20626660.882       -5014.307        -624.248           4.750  
> 2023  5 18  0  0 38.1688020  0  4                     
G 1  24303841.774      127020.151        3898.156          59.750  
G 4  23614190.943      -60929.477       -2849.214          61.000  
G 7  22525859.117       57195.345        2729.384           0.500  
G 8  20626672.305       -5076.773        -624.583           4.500  
> 2023  5 18  0  0 38.2688020  0  4                     
G 1  24303768.421      127409.956        3897.512          59.750  
G 4  23614244.119      -61214.102       -2840.626          61.000  
G 7  22525807.061       57468.343        2738.195           0.500  
G 8  20626684.263       -5139.244        -623.930           4.500  
> 2023  5 18  0  0 38.3688020  0  4                     
G 1  24303693.928      127799.764        3898.369          59.750  
G 4  23614298.540      -61499.187       -2849.104          61.000  
G 7  22525755.486       57741.220        2729.593           0.500  
G 8  20626696.336       -5201.712        -624.619           4.500  
> 2023  5 18  0  0 38.4688020  0  4                     
G 1  24303619.635      128189.567        3898.114          59.750  
G 4  23614353.005      -61784.040       -2848.449          61.000  
G 7  22525703.618       58014.149        2729.241           0.500  
G 8  20626708.332       -5264.201        -624.985           4.750  
> 2023  5 18  0  0 38.5688020  0  4                     
G 1  24303545.765      128579.383        3898.489          60.000  
G 4  23614407.477      -62068.752       -2840.987          61.000  
G 7  22525651.597       58286.959        2718.802           0.500  
G 8  20626720.033       -5326.660        -624.783           4.500  
> 2023  5 18  0  0 38.6688020  0  4                     
G 1  24303471.676      128969.193        3898.514          59.750  
G 4  23614461.969      -62353.765       -2848.469          61.000  
G 7  22525599.848       58559.987        2729.146           0.500  
G 8  20626731.732       -5389.155        -624.608           4.500  
> 2023  5 18  0  0 38.7688020  0  4                     
G 1  24303397.303      129358.998        3897.885          59.750  
G 4  23614515.714      -62638.622       -2848.508          61.000  
G 7  22525547.487       58832.909        2729.045           0.500  
G 8  20626744.266       -5451.636        -624.808           4.750  
> 2023  5 18  0  0 38.8688020  0  4                     
G 1  24303323.071      129748.808        3898.156          59.750  
G 4  23614569.868      -62923.480       -2848.126          61.000  
G 7  22525495.790       59105.821        2729.144           0.500  
G 8  20626755.891       -5514.125        -625.281           4.500  
> 2023  5 18  0  0 38.9688020  0  4                     
G 1  24303249.226      130138.611        3898.209          59.750  
G 4  23614623.602      -63208.349       -2848.216          61.000  
G 7  22525444.213       59378.730        2729.156           0.500  
G 8  20626767.876       -5576.620        -625.358           4.500  
> 2023  5 18  0  0 39.0688020  0  4                     
G 1  24303174.146      130528.418        3897.523          59.750  
G 4  23614678.429      -63493.228       -2849.451          61.000  
G 7  22525392.448       59651.648        2728.939           0.500  
G 8  20626780.412       -5639.133        -627.089           4.500  
> 2023  5 18  0  0 39.1688020  0  4                     
G 1  24303101.120      130918.233        3897.896          59.750  
G 4  23614732.032      -63778.089       -2858.006          61.000  
G 7  22525340.012       59924.541        2722.560           0.500  
G 8  20626791.912       -5701.631        -626.448           4.500  
> 2023  5 18  0  0 39.2688020  0  4                     
G 1  24303027.032      131308.034        3897.804          59.750  
G 4  23614786.135      -64062.956       -2848.255          61.000  
G 7  22525288.130       60197.462        2728.772           0.500  
G 8  20626803.242       -5764.155        -627.808           4.500  
> 2023  5 18  0  0 39.3688020  0  4                     
G 1  24302951.414      131697.844        3896.915          59.750  
G 4  23614840.542      -64347.831       -2849.121          61.000  
G 7  22525235.963       60470.371        2728.829           0.500  
G 8  20626815.284       -5826.646        -624.823           4.500  
> 2023  5 18  0  0 39.4688020  0  4                     
G 1  24302877.741      132087.648        3898.460          59.750  
G 4  23614895.152      -64632.708       -2848.183          61.000  
G 7  22525183.868       60743.275        2729.991           0.500  
G 8  20626827.216       -5889.166        -625.904           4.750  
> 2023  5 18  0  0 39.5688020  0  4                     
G 1  24302804.244      132477.450        3898.800          59.750  
G 4  23614949.148      -64917.584       -2849.032          61.000  
G 7  22525132.091       61016.167        2728.728           0.500  
G 8  20626839.404       -5951.686        -623.964           4.500  
> 2023  5 18  0  0 39.6688020  0  4                     
G 1  24302730.056      132867.249        3898.102          60.000  
G 4  23615003.355      -65202.448       -2849.285          61.000  
G 7  22525080.359       61289.064        2729.035           0.500  
G 8  20626850.908       -6014.226        -625.577           4.500  
> 2023  5 18  0  0 39.7688020  0  4                     
G 1  24302655.630      133257.060        3898.165          59.750  
G 4  23615057.570      -65487.326       -2848.459          61.000  
G 7  22525028.322       61561.958        2728.390           0.500  
G 8  20626862.562       -6076.768        -626.372           4.500  
> 2023  5 18  0  0 39.8688020  0  4                     
G 1  24302581.532      133646.867        3897.913          59.750  
G 4  23615111.422      -65772.209       -2849.403          61.000  
G 7  22524976.174       61834.851        2728.572           0.500  
G 8  20626874.822       -6139.290        -624.082           4.750  
> 2023  5 18  0  0 39.9688020  0  4                     
G 1  24302507.515      134036.675        3898.156          59.750  
G 4  23615166.145      -66057.088       -2849.073          61.000  
G 7  22524923.615       62107.744        2728.973           0.500  
G 8  20626886.162       -6201.832        -625.635           4.500  
> 2023  5 18  0  0 40.0688020  0  4                     
G 1  24302432.880      134426.486        3898.840          59.750  
G 4  23615220.797      -66341.966       -2849.241          61.000  
G 7  22524872.997       62380.623        2729.330           0.500  
G 8  20626897.777       -6264.389        -626.033           4.500  
> 2023  5 18  0  0 40.1688020  0  4                     
G 1  24302359.304      134816.294        3898.839          59.750  
G 4  23615274.261      -66626.847       -2848.906          61.000  
G 7  22524820.468       62653.496        2728.152           0.500  
G 8  20626910.161       -6326.941        -625.531           4.500  
> 2023  5 18  0  0 40.2688020  0  4                     
G 1  24302284.396      135206.099        3898.560          59.750  
G 4  23615329.089      -66911.731       -2849.540          61.000  
G 7  22524768.835       62926.375        2728.843           0.500  
G 8  20626923.116       -6389.489        -624.087           4.750  
> 2023  5 18  0  0 40.3688020  0  4                     
G 1  24302210.031      135595.902        3897.531          60.000  
G 4  23615382.458      -67196.612       -2848.463          61.000  
G 7  22524716.536       63199.247        2729.213           0.500  
G 8  20626934.191       -6452.073        -627.273           4.750  
> 2023  5 18  0  0 40.4688020  0  4                     
G 1  24302136.269      135985.716        3898.171          59.750  
G 4  23615436.934      -67481.507       -2849.229          61.000  
G 7  22524664.869       63472.114        2728.479           0.500  
G 8  20626946.339       -6514.626        -624.584           4.500  
> 2023  5 18  0  0 40.5688020  0  4                     
G 1  24302061.791      136375.525        3897.651          59.750  
G 4  23615492.970      -67766.392       -2849.300          61.000  
G 7  22524613.615       63744.980        2728.815           0.500  
G 8  20626957.865       -6577.208        -627.747           4.500  
> 2023  5 18  0  0 40.6688020  0  4                     
G 1  24301986.873      136765.334        3897.655          59.750  
G 4  23615546.670      -68051.281       -2849.293          61.000  
G 7  22524561.103       64017.847        2728.306           0.500  
G 8  20626970.220       -6639.767        -625.280           4.500  
> 2023  5 18  0  0 40.7688020  0  4                     
G 1  24301913.194      137155.138        3897.976          59.750  
G 4  23615599.230      -68336.191       -2849.343          61.000  
G 7  22524508.851       64290.710        2728.507           0.500  
G 8  20626982.369       -6702.355        -626.972           4.500  
> 2023  5 18  0  0 40.8688020  0  4                     
G 1  24301839.403      137544.947        3897.362          59.750  
G 4  23615653.420      -68621.080       -2849.118          61.000  
G 7  22524456.683       64563.568        2728.392           0.500  
G 8  20626993.979       -6764.954        -627.768           4.500  
> 2023  5 18  0  0 40.9688020  0  4                     
G 1  24301765.923      137934.755        3897.666          59.750  
G 4  23615708.462      -68905.976       -2849.489          61.000  
G 7  22524404.861       64836.426        2728.681           0.500  
G 8  20627005.327       -6827.526        -626.962           4.500  
> 2023  5 18  0  0 41.0688020  0  4                     
G 1  24301691.402      138324.571        3897.914          59.750  
G 4  23615762.161      -69191.001       -2847.861          61.000  
G 7  22524352.557       65109.155        2718.196           0.500  
G 8  20627018.184       -6890.117        -624.680           4.750  
> 2023  5 18  0  0 41.1688020  0  4                     
G 1  24301616.993      138714.377        3897.963          59.750  
G 4  23615816.829      -69475.765       -2848.129          61.000  
G 7  22524301.165       65382.131        2728.725           0.500  
G 8  20627029.443       -6952.714        -626.255           4.500  
> 2023  5 18  0  0 41.2688020  0  4                     
G 1  24301543.288      139104.188        3898.634          59.750  
G 4  23615871.048      -69760.686       -2849.285          61.000  
G 7  22524249.644       65654.975        2728.637           0.500  
G 8  20627041.033       -7015.326        -626.509           4.500  
> 2023  5 18  0  0 41.3688020  0  4                     
G 1  24301469.263      139493.988        3898.573          60.000  
G 4  23615924.962      -70045.580       -2849.120          61.000  
G 7  22524197.482       65927.821        2728.581           0.500  
G 8  20627052.766       -7077.948        -626.435           4.500  
> 2023  5 18  0  0 41.4688020  0  4                     
G 1  24301394.995      139883.803        3898.323          59.750  
G 4  23615978.855      -70330.481       -2849.382          61.000  
G 7  22524145.493       66200.662        2727.991           0.500  
G 8  20627065.413       -7140.556        -626.526           4.500  
> 2023  5 18  0  0 41.5688020  0  4                     
G 1  24301320.431      140273.609        3898.483          59.750  
G 4  23616034.014      -70615.384       -2849.088          61.000  
G 7  22524093.711       66473.507        2728.450           0.500  
G 8  20627077.294       -7203.155        -627.242           4.500  
> 2023  5 18  0  0 41.6688020  0  4                     
G 1  24301245.882      140663.408        3897.544          59.750  
G 4  23616087.401      -70900.286       -2848.514          61.000  
G 7  22524042.131       66746.354        2728.900           0.500  
G 8  20627089.072       -7265.789        -625.143           4.500  
> 2023  5 18  0  0 41.7688020  0  4                     
G 1  24301171.928      141053.223        3898.423          59.750  
G 4  23616141.465      -71185.199       -2848.568          61.000  
G 7  22523989.920       67019.187        2729.122           0.500  
G 8  20627101.228       -7328.403        -626.247           4.500  
> 2023  5 18  0  0 41.8688020  0  4                     
G 1  24301097.711      141443.031        3898.642          59.750  
G 4  23616196.176      -71470.101       -2849.672          61.000  
G 7  22523937.704       67292.012        2727.966           0.500  
G 8  20627113.495       -7391.053        -626.964           4.500  
> 2023  5 18  0  0 41.9688020  0  4                     
G 1  24301022.817      141832.834        3897.969          59.750  
G 4  23616251.234      -71755.010       -2849.913          61.000  
G 7  22523885.581       67564.844        2727.870           0.500  
G 8  20627125.293       -7453.664        -625.454           4.500  
> 2023  5 18  0  0 42.0688020  0  4                     
G 1  24300948.466      142222.639        3897.754          59.750  
G 4  23616304.935      -72039.923       -2849.782          61.000  
G 7  22523834.098       67837.671        2728.289           0.500  
G 8  20627137.244       -7516.325        -626.124           4.500  
> 2023  5 18  0  0 42.1688020  0  4                     
G 1  24300875.295      142612.444        3897.375          59.750  
G 4  23616359.717      -72324.829       -2848.227          61.000  
G 7  22523782.380       68110.489        2728.171           0.500  
G 8  20627148.781       -7578.956        -627.075           4.500  
> 2023  5 18  0  0 42.2688020  0  4                     
G 1  24300801.393      143002.263        3898.087          59.750  
G 4  23616413.326      -72609.744       -2848.974          61.000  
G 7  22523730.145       68383.310        2728.104           0.500  
G 8  20627161.341       -7641.616        -626.285           4.500  
> 2023  5 18  0  0 42.3688020  0  4                     
G 1  24300727.016      143392.062        3897.310          59.750  
G 4  23616467.442      -72894.648       -2848.828          61.000  
G 7  22523678.299       68656.126        2728.103           0.500  
G 8  20627172.653       -7704.257        -626.125           4.500  
> 2023  5 18  0  0 42.4688020  0  4                     
G 1  24300652.536      143781.881        3898.396          59.750  
G 4  23616521.553      -73179.570       -2849.558          61.000  
G 7  22523626.332       68928.939        2728.109           0.500  
G 8  20627184.672       -7766.927        -626.646           4.500  
> 2023  5 18  0  0 42.5688020  0  4                     
G 1  24300578.686      144171.687        3897.908          59.750  
G 4  23616575.632      -73464.488       -2849.710          61.000  
G 7  22523574.219       69201.752        2728.171           0.500  
G 8  20627196.647       -7829.582        -626.497           4.500  
> 2023  5 18  0  0 42.6688020  0  4                     
G 1  24300504.427      144561.493        3898.725          59.750  
G 4  23616629.205      -73749.407       -2848.981          61.000  
G 7  22523522.804       69474.561        2728.302           0.500  
G 8  20627208.413       -7892.256        -626.126           4.750  
> 2023  5 18  0  0 42.7688020  0  4                     
G 1  24300430.222      144951.292        3898.585          59.750  
G 4  23616683.809      -74034.318       -2848.255          61.000  
G 7  22523470.329       69747.359        2727.896           0.500  
G 8  20627220.132       -7954.915        -626.963           4.500  
> 2023  5 18  0  0 42.8688020  0  4                     
G 1  24300356.655      145341.086        3897.437          59.750  
G 4  23616737.790      -74319.248       -2848.994          61.000  
G 7  22523418.455       70020.166        2728.264           0.500  
G 8  20627232.255       -8017.613        -626.520           4.500  
> 2023  5 18  0  0 42.9688020  0  4                     
G 1  24300282.518      145730.890        3897.340          59.750  
G 4  23616793.049      -74604.251       -2831.966          61.000  
G 7  22523367.229       70292.994        2730.741           0.500  
G 8  20627244.218       -8080.274        -626.769           4.500  
> 2023  5 18  0  0 43.0688020  0  4                     
G 1  24300208.029      146120.694        3897.703          59.750  
G 4  23616846.975      -74889.095       -2849.089          61.000  
G 7  22523315.265       70565.759        2727.642           0.500  
G 8  20627256.303       -8142.977        -626.742           4.750  
> 2023  5 18  0  0 43.1688020  0  4                     
G 1  24300133.586      146510.498        3897.287          59.750  
G 4  23616901.376      -75174.173       -2873.926          61.000  
G 7  22523263.534       70838.489        2729.133           0.500  
G 8  20627267.977       -8205.650        -627.099           4.500  
> 2023  5 18  0  0 43.2688020  0  4                     
G 1  24300058.392      146900.303        3897.570          59.750  
G 4  23616955.426      -75458.952       -2849.341          61.000  
G 7  22523211.470       71111.340        2727.903           0.500  
G 8  20627280.283       -8268.353        -626.065           4.500  
> 2023  5 18  0  0 43.3688020  0  4                     
G 1  24299984.891      147290.102        3897.659          59.750  
G 4  23617009.199      -75743.877       -2849.266          61.000  
G 7  22523159.033       71384.124        2727.765           0.500  
G 8  20627292.054       -8331.050        -627.699           4.500  
> 2023  5 18  0  0 43.4688020  0  4                     
G 1  24299910.722      147679.905        3897.664          59.750  
G 4  23617063.624      -76028.808       -2849.259          61.000  
G 7  22523107.403       71656.908        2728.191           0.500  
G 8  20627303.516       -8393.760        -626.122           4.500  
> 2023  5 18  0  0 43.5688020  0  4                     
G 1  24299836.279      148069.709        3897.492          59.750  
G 4  23617118.385      -76313.738       -2849.498          61.000  
G 7  22523055.463       71929.682        2727.655           0.500  
G 8  20627316.018       -8456.463        -626.560           4.500  
> 2023  5 18  0  0 43.6688020  0  4                     
G 1  24299762.216      148459.508        3897.172          59.750  
G 4  23617173.055      -76598.672       -2848.745          61.000  
G 7  22523003.839       72202.466        2727.482           0.500  
G 8  20627328.741       -8519.168        -626.621           4.750  
> 2023  5 18  0  0 43.7688020  0  4                     
G 1  24299688.000      148849.314        3897.721          59.750  
G 4  23617226.160      -76883.617       -2849.802          61.000  
G 7  22522951.434       72475.239        2728.321           0.500  
G 8  20627340.199       -8581.906        -627.323           4.500  
> 2023  5 18  0  0 43.8688020  0  4                     
G 1  24299614.129      149239.115        3897.253          59.750  
G 4  23617281.106      -77168.545       -2849.094          61.000  
G 7  22522899.907       72748.010        2727.612           0.500  
G 8  20627351.662       -8644.635        -628.248           4.500  
> 2023  5 18  0  0 43.9688020  0  4                     
G 1  24299539.770      149628.919        3897.452          59.750  
G 4  23617333.689      -77453.484       -2849.203          61.000  
G 7  22522847.884       73020.777        2727.354           0.500  
G 8  20627363.262       -8707.348        -627.352           4.500  
> 2023  5 18  0  0 44.0688020  0  4                     
G 1  24299466.113      150018.715        3897.926          59.750  
G 4  23617388.430      -77738.747       -2875.741          61.000  
G 7  22522795.656       73293.445        2716.316           0.500  
G 8  20627375.301       -8770.080        -628.649           4.750  
> 2023  5 18  0  0 44.1688020  0  4                     
G 1  24299392.428      150408.516        3897.736          59.750  
G 4  23617443.276      -78023.361       -2848.838          61.000  
G 7  22522743.944       73566.311        2727.651           0.500  
G 8  20627387.465       -8832.815        -627.078           4.750  
> 2023  5 18  0  0 44.2688020  0  4                     
G 1  24299317.689      150798.324        3897.591          59.750  
G 4  23617497.416      -78308.301       -2848.218          61.000  
G 7  22522692.104       73839.073        2727.900           0.500  
G 8  20627399.673       -8895.560        -626.850           4.750  
> 2023  5 18  0  0 44.3688020  0  4                     
G 1  24299243.814      151188.126        3898.380          60.000  
G 4  23617551.801      -78593.256       -2849.713          61.000  
G 7  22522640.365       74111.832        2727.408           0.500  
G 8  20627411.591       -8958.299        -627.256           4.750  
> 2023  5 18  0  0 44.4688020  0  4                     
G 1  24299170.122      151577.925        3897.854          59.750  
G 4  23617604.852      -78878.189       -2848.723          61.000  
G 7  22522588.727       74384.576        2727.846           0.500  
G 8  20627423.584       -9021.064        -628.844           4.500  
> 2023  5 18  0  0 44.5688020  0  4                     
G 1  24299095.472      151967.725        3897.295          59.750  
G 4  23617659.671      -79163.139       -2849.836          61.000  
G 7  22522536.524       74657.320        2727.416           0.500  
G 8  20627435.255       -9083.815        -628.068           4.500  
> 2023  5 18  0  0 44.6688020  0  4                     
G 1  24299020.930      152357.528        3897.522          59.750  
G 4  23617714.173      -79448.078       -2848.920          61.000  
G 7  22522483.742       74930.074        2727.505           0.500  
G 8  20627446.816       -9146.589        -628.862           4.500  
> 2023  5 18  0  0 44.7688020  0  4                     
G 1  24298946.493      152747.330        3898.003          59.750  
G 4  23617768.399      -79733.032       -2848.744          61.000  
G 7  22522431.911       75202.809        2726.804           0.500  
G 8  20627458.900       -9209.341        -627.885           4.500  
> 2023  5 18  0  0 44.8688020  0  4                     
G 1  24298872.758      153137.130        3897.571          59.750  
G 4  23617822.878      -80017.957       -2877.275          61.000  
G 7  22522380.760       75475.545        2727.317           0.500  
G 8  20627470.778       -9272.102        -627.915           4.500  
> 2023  5 18  0  0 44.9688020  0  4                     
G 1  24298798.288      153526.932        3897.789          59.750  
G 4  23617876.981      -80302.941       -2850.059          61.000  
G 7  22522328.900       75748.296        2727.639           0.500  
G 8  20627483.016       -9334.885        -627.291           4.500  
> 2023  5 18  0  0 45.0688020  0  4                     
G 1  24298724.362      153916.732        3897.537          59.750  
G 4  23617930.776      -80587.816       -2854.454          61.000  
G 7  22522276.782       76021.232        2742.216           0.500  
G 8  20627494.562       -9397.659        -628.341           4.500  
> 2023  5 18  0  0 45.1688020  0  4                     
G 1  24298650.002      154306.538        3898.267          59.750  
G 4  23617985.432      -80872.841       -2849.118          61.000  
G 7  22522224.421       76293.765        2727.356           0.500  
G 8  20627506.565       -9460.443        -626.772           4.500  
> 2023  5 18  0  0 45.2688020  0  4                     
G 1  24298575.732      154696.340        3897.422          59.750  
G 4  23618040.102      -81157.804       -2849.584          61.000  
G 7  22522173.310       76566.493        2727.144           0.500  
G 8  20627519.043       -9523.228        -627.386           4.750  
> 2023  5 18  0  0 45.3688020  0  4                     
G 1  24298501.895      155086.136        3898.293          59.750  
G 4  23618093.872      -81442.777       -2849.230          61.000  
G 7  22522121.393       76839.227        2727.262           0.500  
G 8  20627530.760       -9586.026        -628.684           4.500  
> 2023  5 18  0  0 45.4688020  0  4                     
G 1  24298426.772      155475.941        3897.742          59.750  
G 4  23618148.568      -81727.735       -2848.913          61.000  
G 7  22522069.075       77111.945        2726.956           0.500  
G 8  20627542.986       -9648.826        -628.840           4.500  
> 2023  5 18  0  0 45.5688020  0  4                     
G 1  24298353.052      155865.743        3897.621          59.750  
G 4  23618202.393      -82012.701       -2849.990          61.000  
G 7  22522016.937       77384.670        2727.057           0.500  
G 8  20627554.871       -9711.621        -628.294           4.500  
> 2023  5 18  0  0 45.6688020  0  4                     
G 1  24298278.895      156255.547        3897.278          59.750  
G 4  23618256.338      -82297.656       -2849.407          61.000  
G 7  22521965.478       77657.394        2727.422           0.500  
G 8  20627566.379       -9774.431        -627.914           4.750  
> 2023  5 18  0  0 45.7688020  0  4                     
G 1  24298204.228      156645.350        3897.598          59.750  
G 4  23618311.215      -82582.624       -2849.268          61.000  
G 7  22521913.177       77930.109        2727.411           0.500  
G 8  20627578.947       -9837.249        -627.806           4.500  
> 2023  5 18  0  0 45.8688020  0  4                     
G 1  24298130.318      157035.153        3897.979          59.750  
G 4  23618365.892      -82867.617       -2860.436          61.000  
G 7  22521861.922       78202.838        2728.890           0.500  
G 8  20627590.870       -9900.058        -627.109           4.500  
> 2023  5 18  0  0 45.9688020  0  4                     
G 1  24298056.231      157424.955        3897.438          59.750  
G 4  23618420.134      -83152.576       -2850.361          61.000  
G 7  22521809.972       78475.527        2727.027           0.500  
G 8  20627602.069       -9962.867        -627.563           4.500  
> 2023  5 18  0  0 46.0688020  0  4                     
G 1  24297982.430      157814.757        3898.586          59.750  
G 4  23618474.208      -83437.539       -2849.625          61.000  
G 7  22521758.214       78748.236        2727.439           0.500  
G 8  20627614.003      -10025.700        -628.319           4.500  
> 2023  5 18  0  0 46.1688020  0  4                     
G 1  24297908.240      158204.561        3898.063          59.750  
G 4  23618526.946      -83722.136       -2818.519          61.000  
G 7  22521705.684       79021.113        2751.599           0.500  
G 8  20627626.011      -10088.530        -627.508           4.500  
> 2023  5 18  0  0 46.2688020  0  4                     
G 1  24297833.997      158594.364        3898.345          59.750  
G 4  23618581.424      -84007.470       -2849.996          61.000  
G 7  22521654.612       79293.640        2727.022           0.500  
G 8  20627638.565      -10151.377        -629.212           4.500  
> 2023  5 18  0  0 46.3688020  0  4                     
G 1  24297759.774      158984.172        3899.046          60.000  
G 4  23618635.293      -84292.451       -2849.601          61.000  
G 7  22521602.533       79566.336        2727.371           0.500  
G 8  20627650.300      -10214.209        -628.320           4.500  
> 2023  5 18  0  0 46.4688020  0  4                     
G 1  24297685.840      159373.963        3898.600          59.750  
G 4  23618690.815      -84577.427       -2850.714          61.000  
G 7  22521550.321       79839.033        2726.902           0.500  
G 8  20627661.947      -10277.050        -628.778           4.500  
> 2023  5 18  0  0 46.5688020  0  4                     
G 1  24297611.854      159763.762        3897.884          59.750  
G 4  23618743.758      -84862.398       -2850.362          61.000  
G 7  22521497.796       80111.724        2726.958           0.500  
G 8  20627674.084      -10339.906        -629.570           4.500  
> 2023  5 18  0  0 46.6688020  0  4                     
G 1  24297537.467      160153.568        3897.876          59.750  
G 4  23618798.709      -85147.377       -2850.200          61.000  
G 7  22521446.162       80384.416        2726.955           0.500  
G 8  20627686.819      -10402.751        -628.371           4.750  
> 2023  5 18  0  0 46.7688020  0  4                     
G 1  24297463.112      160543.373        3898.258          59.750  
G 4  23618852.475      -85432.359       -2850.357          61.000  
G 7  22521393.871       80657.099        2726.388           0.500  
G 8  20627698.908      -10465.606        -628.551           4.750  
> 2023  5 18  0  0 46.8688020  0  4                     
G 1  24297389.606      160933.176        3897.805          60.000  
G 4  23618906.734      -85717.337       -2850.140          61.000  
G 7  22521342.541       80929.789        2726.113           0.500  
G 8  20627710.282      -10528.448        -628.894           4.500  
> 2023  5 18  0  0 46.9688020  0  4                     
G 1  24297314.794      161322.973        3897.936          59.750  
G 4  23618961.062      -86002.306       -2848.323          61.000  
G 7  22521291.092       81202.474        2726.702           0.500  
G 8  20627722.631      -10591.328        -627.630           4.500  
> 2023  5 18  0  0 47.0688020  0  4                     
G 1  24297240.779      161712.772        3897.241          59.750  
G 4  23619015.311      -86287.297       -2849.263          61.000  
G 7  22521238.884       81475.151        2727.132           0.500  
G 8  20627734.181      -10654.200        -629.182           4.500  
> 2023  5 18  0  0 47.1688020  0  4                     
G 1  24297166.687      162102.579        3897.831          59.750  
G 4  23619070.138      -86572.282       -2850.146          61.000  
G 7  22521186.427       81747.829        2727.064           0.500  
G 8  20627746.193      -10717.079        -629.250           4.500  
> 2023  5 18  0  0 47.2688020  0  4                     
G 1  24297092.271      162492.383        3897.980          59.750  
G 4  23619124.301      -86857.262       -2848.923          61.000  
G 7  22521135.154       82020.505        2727.208           0.500  
G 8  20627759.338      -10779.956        -628.867           4.750  
> 2023  5 18  0  0 47.3688020  0  4                     
G 1  24297017.439      162882.184        3898.061          59.750  
G 4  23619178.844      -87142.256       -2849.878          61.000  
G 7  22521083.093       82293.169        2726.644           0.500  
G 8  20627771.033      -10842.838        -629.528           4.750  
> 2023  5 18  0  0 47.4688020  0  4                     
G 1  24296944.005      163271.979        3897.086          59.750  
G 4  23619232.122      -87427.248       -2850.094          61.000  
G 7  22521031.521       82565.840        2726.906           0.500  
G 8  20627782.126      -10905.730        -628.537           4.750  
> 2023  5 18  0  0 47.5688020  0  4                     
G 1  24296869.816      163661.788        3897.812          59.750  
G 4  23619286.853      -87712.239       -2850.351          61.000  
G 7  22520979.026       82838.500        2726.701           0.500  
G 8  20627794.420      -10968.614        -629.021           4.500  
> 2023  5 18  0  0 47.6688020  0  4                     
G 1  24296795.816      164051.594        3899.129          59.750  
G 4  23619341.403      -87997.229       -2850.784          61.000  
G 7  22520927.526       83111.165        2726.744           0.500  
G 8  20627806.252      -11031.496        -629.031           4.500  
> 2023  5 18  0  0 47.7688020  0  4                     
G 1  24296721.680      164441.375        3898.498          59.750  
G 4  23619395.081      -88282.217       -2850.953          61.000  
G 7  22520876.037       83383.820        2726.583           0.500  
G 8  20627818.011      -11094.415        -626.841           4.750  
> 2023  5 18  0  0 47.8688020  0  4                     
G 1  24296646.712      164831.172        3898.321          59.750  
G 4  23619449.466      -88567.216       -2850.275          61.000  
G 7  22520824.640       83656.478        2726.257           0.500  
G 8  20627829.886      -11157.323        -627.531           4.750  
> 2023  5 18  0  0 47.9688020  0  4                     
G 1  24296572.182      165220.976        3897.204          59.750  
G 4  23619503.191      -88852.207       -2849.679          61.000  
G 7  22520772.266       83929.127        2726.695           0.500  
G 8  20627842.687      -11220.231        -628.229           4.750  
> 2023  5 18  0  0 48.0688020  0  4                     
G 1  24296498.194      165610.778        3897.973          59.750  
G 4  23619557.802      -89137.204       -2850.135          61.000  
G 7  22520720.408       84201.777        2726.580           0.500  
G 8  20627854.166      -11283.152        -629.121           4.500  
> 2023  5 18  0  0 48.1688020  0  4                     
G 1  24296424.064      166000.575        3897.441          59.750  
G 4  23619612.278      -89422.204       -2850.338          61.000  
G 7  22520668.148       84474.422        2726.133           0.500  
G 8  20627865.601      -11346.085        -629.055           4.500  
> 2023  5 18  0  0 48.2688020  0  4                     
G 1  24296350.471      166390.380        3897.436          59.750  
G 4  23619666.250      -89707.204       -2849.917          61.000  
G 7  22520616.136       84747.062        2726.022           0.500  
G 8  20627876.877      -11408.997        -628.696           4.500  
> 2023  5 18  0  0 48.3688020  0  4                     
G 1  24296276.685      166780.184        3897.912          59.750  
G 4  23619721.098      -89992.204       -2849.914          61.000  
G 7  22520564.730       85019.703        2725.905           0.500  
G 8  20627890.144      -11471.933        -629.126           4.500  
> 2023  5 18  0  0 48.4688020  0  4                     
G 1  24296202.392      167169.988        3898.284          59.750  
G 4  23619775.251      -90277.208       -2849.468          61.000  
G 7  22520512.317       85292.344        2726.151           0.500  
G 8  20627901.633      -11534.863        -629.533           4.500  
> 2023  5 18  0  0 48.5688020  0  4                     
G 1  24296128.019      167559.772        3898.251          59.750  
G 4  23619829.210      -90562.224       -2850.195          61.000  
G 7  22520460.786       85564.973        2726.053           0.500  
G 8  20627913.611      -11597.800        -629.236           4.500  
> 2023  5 18  0  0 48.6688020  0  4                     
G 1  24296053.533      167949.570        3897.490          59.750  
G 4  23619883.806      -90847.230       -2850.062          61.000  
G 7  22520408.448       85837.600        2726.327           0.500  
G 8  20627925.807      -11660.758        -629.498           4.500  
> 2023  5 18  0  0 48.7688020  0  4                     
G 1  24295979.229      168339.378        3898.438          59.750  
G 4  23619937.819      -91132.239       -2850.540          61.000  
G 7  22520356.771       86110.220        2726.728           0.500  
G 8  20627937.466      -11723.679        -628.821           4.500  
> 2023  5 18  0  0 48.8688020  0  4                     
G 1  24295905.397      168729.175        3897.541          59.750  
G 4  23619993.000      -91417.246       -2849.840          61.000  
G 7  22520305.293       86382.840        2726.153           0.500  
G 8  20627949.746      -11786.652        -629.156           4.750  
> 2023  5 18  0  0 48.9688020  0  4                     
G 1  24295830.836      169118.978        3897.893          59.750  
G 4  23620046.489      -91702.258       -2849.745          61.000  
G 7  22520253.546       86655.467        2726.323           0.500  
G 8  20627961.825      -11849.610        -630.602           4.500  
> 2023  5 18  0  0 49.0688020  0  4                     
G 1  24295756.721      169508.769        3897.561          59.750  
G 4  23620099.921      -91987.267       -2849.693          61.000  
G 7  22520201.274       86928.082        2725.761           0.500  
G 8  20627972.962      -11912.573        -629.872           4.750  
> 2023  5 18  0  0 49.1688020  0  4                     
G 1  24295682.894      169898.565        3897.907          59.750  
G 4  23620154.186      -92272.280       -2850.236          61.000  
G 7  22520149.911       87200.696        2725.663           0.500  
G 8  20627985.893      -11975.555        -630.298           4.500  
> 2023  5 18  0  0 49.2688020  0  4                     
G 1  24295608.200      170288.361        3897.999          59.750  
G 4  23620208.833      -92557.298       -2850.544          61.000  
G 7  22520097.347       87473.313        2725.799           0.500  
G 8  20627997.280      -12038.506        -630.303           4.500  
> 2023  5 18  0  0 49.3688020  0  4                     
G 1  24295533.799      170678.159        3898.044          59.750  
G 4  23620262.832      -92842.311       -2849.588          61.000  
G 7  22520045.949       87745.928        2726.331           0.500  
G 8  20628009.997      -12101.491        -629.697           4.750  
> 2023  5 18  0  0 49.4688020  0  4                     
G 1  24295459.853      171067.958        3897.870          59.750  
G 4  23620317.277      -93127.324       -2849.470          61.000  
G 7  22519993.762       88018.529        2725.893           0.500  
G 8  20628021.611      -12164.470        -630.354           4.500  
> 2023  5 18  0  0 49.5688020  0  4                     
G 1  24295385.331      171457.750        3897.562          59.750  
G 4  23620371.338      -93412.348       -2849.939          61.000  
G 7  22519942.198       88291.143        2726.448           0.500  
G 8  20628033.267      -12227.453        -629.159           4.500  
> 2023  5 18  0  0 49.6688020  0  4                     
G 1  24295311.815      171847.542        3897.646          59.750  
G 4  23620425.575      -93697.369       -2850.160          61.000  
G 7  22519890.067       88563.740        2725.466           0.500  
G 8  20628045.696      -12290.451        -630.418           4.500  
> 2023  5 18  0  0 49.7688020  0  4                     
G 1  24295237.795      172237.348        3898.195          59.750  
G 4  23620480.349      -93982.394       -2850.413          61.000  
G 7  22519838.528       88836.346        2725.907           0.500  
G 8  20628057.665      -12353.432        -629.333           4.500  
> 2023  5 18  0  0 49.8688020  0  4                     
G 1  24295164.015      172627.137        3898.186          59.750  
G 4  23620534.328      -94267.417       -2850.445          61.000  
G 7  22519786.695       89108.929        2726.583           0.500  
G 8  20628069.649      -12416.440        -629.294           4.500  
> 2023  5 18  0  0 49.9688020  0  4                     
G 1  24295089.400      173016.915        3898.704          59.750  
G 4  23620588.236      -94552.442       -2850.112          61.000  
G 7  22519734.557       89381.525        2725.878           0.500  
G 8  20628081.372      -12479.459        -631.665           4.500  
> 2023  5 18  0  0 50.0688020  0  4                     
G 1  24295015.917      173406.706        3898.135          59.750  
G 4  23620642.837      -94837.470       -2850.369          61.000  
G 7  22519682.002       89654.113        2726.580           0.500  
G 8  20628093.442      -12542.442        -628.057           4.500  
> 2023  5 18  0  0 50.1688020  0  4                     
G 1  24294941.359      173796.503        3897.700          59.750  
G 4  23620697.006      -95122.498       -2850.099          61.000  
G 7  22519630.356       89926.697        2725.661           0.500  
G 8  20628105.392      -12605.492        -632.060           4.500  
> 2023  5 18  0  0 50.2688020  0  4                     
G 1  24294867.036      174186.300        3897.709          59.750  
G 4  23620751.432      -95407.535       -2850.466          61.000  
G 7  22519578.400       90199.281        2725.632           0.500  
G 8  20628117.178      -12668.489        -630.542           4.500  
> 2023  5 18  0  0 50.3688020  0  4                     
G 1  24294792.141      174576.101        3897.986          59.750  
G 4  23620806.351      -95692.561       -2850.095          61.000  
G 7  22519526.561       90471.865        2725.938           0.500  
G 8  20628129.790      -12731.516        -629.515           4.750  
> 2023  5 18  0  0 50.4688020  0  4                     
G 1  24294718.703      174965.894        3897.773          59.750  
G 4  23620860.143      -95977.607       -2852.404          61.000  
G 7  22519475.226       90744.446        2725.485           0.500  
G 8  20628141.148      -12794.551        -631.868           4.500  
> 2023  5 18  0  0 50.5688020  0  4                     
G 1  24294644.120      175355.697        3898.053          59.750  
G 4  23620914.403      -96262.574       -2858.340          61.000  
G 7  22519423.302       91017.093        2737.194           0.500  
G 8  20628154.222      -12857.563        -629.530           4.500  
> 2023  5 18  0  0 50.6688020  0  4                     
G 1  24294569.603      175745.487        3897.792          59.750  
G 4  23620968.641      -96547.668       -2850.510          61.000  
G 7  22519371.479       91289.591        2725.623           0.500  
G 8  20628166.394      -12920.613        -629.992           4.500  
> 2023  5 18  0  0 50.7688020  0  4                     
G 1  24294495.920      176135.284        3897.953          59.750  
G 4  23621022.347      -96832.716       -2850.681          61.000  
G 7  22519319.543       91562.164        2725.605           0.500  
G 8  20628177.662      -12983.658        -631.166           4.500  
> 2023  5 18  0  0 50.8688020  0  4                     
G 1  24294421.577      176525.078        3897.919          59.750  
G 4  23621077.350      -97117.753       -2850.661          61.000  
G 7  22519267.272       91834.729        2725.294           0.500  
G 8  20628189.625      -13046.704        -630.409           4.500  
> 2023  5 18  0  0 50.9688020  0  4                     
G 1  24294347.096      176914.867        3897.172          59.750  
G 4  23621131.232      -97402.857       -2858.771          61.000  
G 7  22519215.669       92107.295        2725.725           0.500  
G 8  20628200.953      -13109.756        -631.535           4.500  
> 2023  5 18  0  0 51.0688020  0  4                     
G 1  24294273.292      177304.674        3898.359          59.750  
G 4  23621185.602      -97687.832       -2850.298          61.000  
G 7  22519164.019       92379.846        2725.287           0.500  
G 8  20628212.497      -13172.799        -630.714           4.500  
> 2023  5 18  0  0 51.1688020  0  4                     
G 1  24294199.032      177694.462        3897.164          59.750  
G 4  23621239.722      -97972.873       -2850.177          61.000  
G 7  22519112.115       92652.408        2725.338           0.500  
G 8  20628225.526      -13235.870        -629.841           4.500  
> 2023  5 18  0  0 51.2688020  0  4                     
G 1  24294125.242      178084.256        3897.452          59.750  
G 4  23621293.839      -98257.924       -2851.302          61.000  
G 7  22519060.331       92924.956        2724.777           0.500  
G 8  20628237.275      -13298.936        -632.307           4.500  
> 2023  5 18  0  0 51.3688020  0  4                     
G 1  24294051.334      178474.059        3898.253          59.750  
G 4  23621348.232      -98542.968       -2850.774          61.000  
G 7  22519008.449       93197.515        2725.165           0.500  
G 8  20628249.390      -13361.989        -629.665           4.500  
> 2023  5 18  0  0 51.4688020  0  4                     
G 1  24293976.788      178863.849        3897.986          59.750  
G 4  23621401.968      -98828.011       -2850.794          61.000  
G 7  22518956.693       93470.062        2725.538           0.500  
G 8  20628261.418      -13425.077        -630.450           4.750  
> 2023  5 18  0  0 51.5688020  0  4                     
G 1  24293903.087      179253.631        3898.677          59.750  
G 4  23621456.145      -99113.073       -2850.728          61.000  
G 7  22518904.826       93742.609        2725.090           0.500  
G 8  20628273.130      -13488.138        -630.852           4.500  
> 2023  5 18  0  0 51.6688020  0  4                     
G 1  24293828.977      179643.427        3898.357          59.750  
G 4  23621510.530      -99398.124       -2850.486          61.000  
G 7  22518852.960       94015.148        2725.738           0.500  
G 8  20628285.734      -13551.227        -630.667           4.500  
> 2023  5 18  0  0 51.7688020  0  4                     
G 1  24293754.568      180033.225        3898.185          59.750  
G 4  23621564.769      -99683.174       -2850.807          61.000  
G 7  22518800.981       94287.686        2724.969           0.500  
G 8  20628297.508      -13614.320        -630.692           4.500  
> 2023  5 18  0  0 51.8688020  0  4                     
G 1  24293680.496      180423.013        3897.490          59.750  
G 4  23621618.998      -99968.227       -2850.434          61.000  
G 7  22518748.901       94560.225        2725.872           0.500  
G 8  20628308.834      -13677.405        -631.214           4.500  
> 2023  5 18  0  0 51.9688020  0  4                     
G 1  24293606.027      180812.811        3897.868          59.750  
G 4  23621673.144     -100253.276       -2849.680          61.000  
G 7  22518697.082       94832.759        2725.282           0.500  
G 8  20628321.699      -13740.510        -630.803           4.500  
> 2023  5 18  0  0 52.0688020  0  4                     
G 1  24293531.603      181202.611        3898.014          59.750  
G 4  23621727.857     -100538.339       -2850.400          61.000  
G 7  22518645.349       95105.298        2725.966           0.500  
G 8  20628333.412      -13803.611        -631.382           4.500  
> 2023  5 18  0  0 52.1688020  0  4                     
G 1  24293457.502      181592.406        3897.915          59.750  
G 4  23621782.035     -100823.396       -2850.056          61.000  
G 7  22518593.330       95377.822        2725.283           0.500  
G 8  20628345.143      -13866.701        -630.767           4.500  
> 2023  5 18  0  0 52.2688020  0  4                     
G 1  24293384.157      181982.206        3898.400          59.750  
G 4  23621835.845     -101108.456       -2849.742          61.000  
G 7  22518541.606       95650.350        2724.874           0.500  
G 8  20628357.641      -13929.835        -632.181           4.500  
> 2023  5 18  0  0 52.3688020  0  4                     
G 1  24293309.657      182371.994        3897.205          59.750  
G 4  23621890.704     -101393.527       -2850.164          61.000  
G 7  22518489.997       95922.860        2724.731           0.500  
G 8  20628369.268      -13992.947        -631.641           4.500  
> 2023  5 18  0  0 52.4688020  0  4                     
G 1  24293234.790      182761.789        3897.795          59.750  
G 4  23621944.518     -101678.593       -2851.232          61.000  
G 7  22518438.225       96195.382        2724.873           0.500  
G 8  20628381.332      -14056.042        -629.858           4.500  
> 2023  5 18  0  0 52.5688020  0  4                     
G 1  24293161.032      183151.587        3897.908          59.750  
G 4  23621998.616     -101963.650       -2850.500          61.000  
G 7  22518386.051       96467.899        2725.403           0.500  
G 8  20628393.397      -14119.196        -632.087           4.500  
> 2023  5 18  0  0 52.6688020  0  4                     
G 1  24293086.576      183541.382        3897.978          59.750  
G 4  23622052.638     -102248.718       -2851.423          61.000  
G 7  22518334.210       96740.414        2724.869           0.500  
G 8  20628405.124      -14182.308        -632.038           4.500  
> 2023  5 18  0  0 52.7688020  0  4                     
G 1  24293012.188      183931.183        3898.186          59.750  
G 4  23622107.878     -102533.782       -2851.096          61.000  
G 7  22518281.986       97012.922        2724.959           0.500  
G 8  20628417.445      -14245.429        -630.572           4.500  
> 2023  5 18  0  0 52.8688020  0  4                     
G 1  24292937.783      184320.969        3897.724          59.750  
G 4  23622161.742     -102818.845       -2850.927          61.000  
G 7  22518230.048       97285.432        2724.855           0.500  
G 8  20628430.057      -14308.585        -632.013           4.500  
> 2023  5 18  0  0 52.9688020  0  4                     
G 1  24292863.379      184710.765        3897.138          59.750  
G 4  23622215.840     -103103.912       -2850.779          61.000  
G 7  22518178.581       97557.932        2724.592           0.500  
G 8  20628441.325      -14371.718        -631.580           4.500  
> 2023  5 18  0  0 53.0688020  0  4                     
G 1  24292788.782      185100.562        3897.463          59.750  
G 4  23622270.998     -103388.980       -2850.608          61.000  
G 7  22518126.304       97830.441        2725.416           0.500  
G 8  20628454.236      -14434.860        -630.976           4.500  
> 2023  5 18  0  0 53.1688020  0  4                     
G 1  24292715.328      185490.359        3898.094          59.750  
G 4  23622325.045     -103674.051       -2850.473          61.000  
G 7  22518074.797       98102.933        2724.336           0.500  
G 8  20628466.378      -14498.026        -632.014           4.500  
> 2023  5 18  0  0 53.2688020  0  4                     
G 1  24292641.051      185880.162        3898.437          59.750  
G 4  23622378.834     -103959.125       -2850.697          61.000  
G 7  22518022.871       98375.442        2725.604           0.500  
G 8  20628477.535      -14561.169        -631.710           4.500  
> 2023  5 18  0  0 53.3688020  0  4                     
G 1  24292567.556      186269.961        3898.691          59.750  
G 4  23622433.144     -104244.203       -2850.240          61.000  
G 7  22517970.910       98647.922        2724.370           0.500  
G 8  20628489.846      -14624.333        -631.071           4.500  
> 2023  5 18  0  0 53.4688020  0  4                     
G 1  24292493.044      186659.753        3898.639          59.750  
G 4  23622486.669     -104529.281       -2850.772          61.000  
G 7  22517919.347       98920.422        2724.779           0.500  
G 8  20628502.138      -14687.503        -631.520           4.750  
> 2023  5 18  0  0 53.5688020  0  4                     
G 1  24292418.498      187049.545        3897.956          59.750  
G 4  23622541.775     -104814.359       -2850.685          61.000  
G 7  22517867.500       99192.906        2724.855           0.500  
G 8  20628513.421      -14750.667        -632.182           4.500  
> 2023  5 18  0  0 53.6688020  0  4                     
G 1  24292344.971      187439.344        3898.023          59.750  
G 4  23622595.757     -105099.433       -2850.917          61.000  
G 7  22517815.532       99465.390        2725.323           0.500  
G 8  20628525.738      -14813.839        -631.500           4.750  
> 2023  5 18  0  0 53.7688020  0  4                     
G 1  24292270.985      187829.140        3898.094          59.750  
G 4  23622649.758     -105384.515       -2851.265          61.000  
G 7  22517763.877       99737.866        2724.222           0.500  
G 8  20628537.924      -14877.034        -632.738           4.500  
> 2023  5 18  0  0 53.8688020  0  4                     
G 1  24292196.731      188218.936        3897.840          59.750  
G 4  23622704.013     -105669.597       -2851.530          61.000  
G 7  22517711.968      100010.353        2725.396           0.500  
G 8  20628549.361      -14940.200        -632.115           4.500  
> 2023  5 18  0  0 53.9688020  0  4                     
G 1  24292122.658      188608.730        3897.707          59.750  
G 4  23622758.127     -105954.674       -2851.332          61.000  
G 7  22517659.891      100282.823        2724.931           0.500  
G 8  20628561.540      -15003.382        -630.458           4.500  
> 2023  5 18  0  0 54.0688020  0  4                     
G 1  24292048.773      188998.526        3897.325          59.750  
G 4  23622812.587     -106239.759       -2851.052          61.000  
G 7  22517607.941      100555.301        2725.183           0.500  
G 8  20628574.328      -15066.593        -632.978           4.750  
> 2023  5 18  0  0 54.1688020  0  4                     
G 1  24291974.278      189388.323        3898.064          59.750  
G 4  23622867.220     -106525.038       -2879.936          61.000  
G 7  22517555.772      100827.763        2724.574           0.500  
G 8  20628585.821      -15129.786        -632.818           4.500  
> 2023  5 18  0  0 54.2688020  0  4                     
G 1  24291900.176      189778.119        3898.266          59.750  
G 4  23622921.437     -106809.924       -2849.625          61.000  
G 7  22517503.742      101100.230        2724.176           0.500  
G 8  20628597.556      -15192.971        -631.287           4.500  
> 2023  5 18  0  0 54.3688020  0  4                     
G 1  24291825.647      190167.911        3897.854          59.750  
G 4  23622975.554     -107095.007       -2854.644          61.000  
G 7  22517452.531      101372.646        2715.691           0.500  
G 8  20628610.180      -15256.193        -632.616           4.500  
> 2023  5 18  0  0 54.4688020  0  4                     
G 1  24291751.620      190557.710        3898.081          59.750  
G 4  23623029.711     -107380.121       -2851.703          61.000  
G 7  22517400.851      101645.157        2724.994           0.500  
G 8  20628621.669      -15319.407        -632.285           4.500  
> 2023  5 18  0  0 54.5688020  0  4                     
G 1  24291677.514      190947.507        3897.722          59.750  
G 4  23623083.861     -107665.208       -2852.331          61.000  
G 7  22517348.842      101917.594        2726.185           0.500  
G 8  20628633.993      -15382.608        -630.545           4.500  
> 2023  5 18  0  0 54.6688020  0  4                     
G 1  24291603.650      191337.298        3897.632          59.750  
G 4  23623137.719     -107950.294       -2855.948          61.000  
G 7  22517296.905      102190.161        2738.025           0.500  
G 8  20628646.598      -15445.835        -631.547           4.500  
> 2023  5 18  0  0 54.7688020  0  4                     
G 1  24291529.220      191727.095        3897.899          59.750  
G 4  23623191.425     -108235.385       -2850.895          61.000  
G 7  22517245.454      102462.522        2724.490           0.500  
G 8  20628657.570      -15509.068        -633.369           4.500  
> 2023  5 18  0  0 54.8688020  0  4                     
G 1  24291455.590      192116.887        3897.778          59.750  
G 4  23623245.210     -108520.475       -2849.961          61.000  
G 7  22517193.128      102734.966        2724.266           0.500  
G 8  20628670.133      -15572.289        -631.262           4.500  
> 2023  5 18  0  0 54.9688020  0  4                     
G 1  24291380.268      192506.679        3898.298          59.750  
G 4  23623300.283     -108805.576       -2849.804          61.000  
G 7  22517141.758      103007.418        2724.463           0.500  
G 8  20628682.318      -15635.537        -631.416           4.750  
> 2023  5 18  0  0 55.0688020  0  4                     
G 1  24291306.691      192896.465        3898.316          59.750  
G 4  23623354.860     -109090.388       -2818.553          61.000  
G 7  22517089.987      103279.747        2734.896           0.500  
G 8  20628693.807      -15698.771        -632.310           4.500  
> 2023  5 18  0  0 55.1688020  0  4                     
G 1  24291232.196      193286.256        3897.711          59.750  
G 4  23623409.408     -109375.780       -2851.164          61.000  
G 7  22517037.745      103552.304        2724.880           0.500  
G 8  20628706.651      -15762.020        -633.163           4.500  
> 2023  5 18  0  0 55.2688020  0  4                     
G 1  24291157.922      193676.053        3897.409          59.750  
G 4  23623464.045     -109660.882       -2851.061          61.000  
G 7  22516986.438      103824.740        2724.053           0.500  
G 8  20628718.944      -15825.272        -632.243           4.500  
> 2023  5 18  0  0 55.3688020  0  4                     
G 1  24291083.840      194065.836        3897.758          59.750  
G 4  23623518.414     -109945.984       -2851.537          61.000  
G 7  22516934.401      104097.176        2724.555           0.500  
G 8  20628729.434      -15888.519        -632.647           4.500  
> 2023  5 18  0  0 55.4688020  0  4                     
G 1  24291009.851      194455.626        3897.742          59.750  
G 4  23623573.003     -110231.092       -2851.592          61.000  
G 7  22516881.984      104369.606        2724.132           0.500  
G 8  20628740.942      -15951.772        -632.552           4.500  
> 2023  5 18  0  0 55.5688020  0  4                     
G 1  24290935.206      194845.425        3898.293          59.750  
G 4  23623627.302     -110516.196       -2850.851          61.000  
G 7  22516830.795      104642.034        2724.387           0.500  
G 8  20628754.316      -16015.047        -633.320           4.500  
> 2023  5 18  0  0 55.6688020  0  4                     
G 1  24290861.432      195235.213        3898.334          59.750  
G 4  23623681.303     -110801.299       -2850.143          61.000  
G 7  22516778.640      104914.465        2724.665           0.500  
G 8  20628766.677      -16078.315        -632.648           4.500  
> 2023  5 18  0  0 55.7688020  0  4                     
G 1  24290787.847      195625.003        3898.804          59.750  
G 4  23623735.355     -111086.407       -2850.255          61.000  
G 7  22516726.704      105186.889        2724.966           0.500  
G 8  20628778.080      -16141.564        -631.785           4.500  
> 2023  5 18  0  0 55.8688020  0  4                     
G 1  24290713.417      196014.788        3898.110          59.750  
G 4  23623789.014     -111371.513       -2850.706          61.000  
G 7  22516674.873      105459.304        2724.013           0.500  
G 8  20628790.868      -16204.851        -632.902           4.500  
> 2023  5 18  0  0 55.9688020  0  4                     
G 1  24290638.984      196404.577        3897.886          59.750  
G 4  23623843.455     -111656.634       -2852.210          61.000  
G 7  22516622.919      105731.797        2733.224           0.500  
G 8  20628802.801      -16268.145        -633.149           4.500  
> 2023  5 18  0  0 56.0688020  0  4                     
G 1  24290564.609      196794.369        3898.177          59.750  
G 4  23623897.878     -111941.792       -2863.071          61.000  
G 7  22516571.402      106004.133        2723.931           0.500  
G 8  20628814.724      -16331.423        -633.362           4.500  
> 2023  5 18  0  0 56.1688020  0  4                     
G 1  24290490.859      197184.155        3897.656          59.750  
G 4  23623951.803     -112226.852       -2851.002          61.000  
G 7  22516519.698      106276.548        2724.039           0.500  
G 8  20628826.760      -16394.700        -631.561           4.500  
> 2023  5 18  0  0 56.2688020  0  4                     
G 1  24290416.483      197573.945        3897.711          59.750  
G 4  23624006.220     -112511.968       -2850.612          61.000  
G 7  22516467.763      106548.950        2723.911           0.500  
G 8  20628838.460      -16458.010        -632.608           4.500  
> 2023  5 18  0  0 56.3688020  0  4                     
G 1  24290342.462      197963.731        3897.586          59.750  
G 4  23624060.227     -112797.087       -2850.826          61.000  
G 7  22516415.824      106821.365        2724.650           0.500  
G 8  20628850.644      -16521.309        -634.019           4.500  
> 2023  5 18  0  0 56.4688020  0  4                     
G 1  24290267.951      198353.520        3897.823          59.750  
G 4  23624114.540     -113082.210       -2851.587          61.000  
G 7  22516363.760      107093.757        2723.558           0.500  
G 8  20628862.414      -16584.605        -632.881           4.500  
> 2023  5 18  0  0 56.5688020  0  4                     
G 1  24290194.063      198743.314        3898.209          59.750  
G 4  23624168.852     -113367.327       -2850.846          61.000  
G 7  22516312.098      107366.159        2724.014           0.500  
G 8  20628874.842      -16647.916        -632.907           4.500  
> 2023  5 18  0  0 56.6688020  0  4                     
G 1  24290120.180      199133.109        3898.276          59.750  
G 4  23624223.297     -113652.450       -2851.606          61.000  
G 7  22516260.553      107638.556        2723.953           0.500  
G 8  20628887.078      -16711.230        -633.203           4.500  
> 2023  5 18  0  0 56.7688020  0  4                     
G 1  24290045.772      199522.895        3897.965          59.750  
G 4  23624277.468     -113937.571       -2851.015          61.000  
G 7  22516208.480      107910.948        2724.100           0.500  
G 8  20628898.410      -16774.545        -633.645           4.500  
> 2023  5 18  0  0 56.8688020  0  4                     
G 1  24289971.567      199912.686        3898.110          59.750  
G 4  23624331.811     -114222.696       -2851.197          61.000  
G 7  22516156.660      108183.341        2724.656           0.500  
G 8  20628910.878      -16837.864        -632.479           4.500  
> 2023  5 18  0  0 56.9688020  0  4                     
G 1  24289897.372      200302.472        3897.587          59.750  
G 4  23624386.155     -114507.813       -2850.425          61.000  
G 7  22516104.702      108455.723        2723.167           0.500  
G 8  20628923.264      -16901.199        -633.066           4.500  
> 2023  5 18  0  0 57.0688020  0  4                     
G 1  24289823.157      200692.264        3898.032          59.750  
G 4  23624440.323     -114792.945       -2850.781          61.000  
G 7  22516052.995      108728.109        2724.069           0.500  
G 8  20628934.841      -16964.526        -633.803           4.500  
> 2023  5 18  0  0 57.1688020  0  4                     
G 1  24289748.914      201082.048        3897.787          59.750  
G 4  23624494.316     -115078.081       -2851.266          61.000  
G 7  22516001.424      109000.492        2724.141           0.500  
G 8  20628946.824      -17027.857        -633.462           4.500  
> 2023  5 18  0  0 57.2688020  0  4                     
G 1  24289674.570      201471.840        3897.778          59.750  
G 4  23624548.900     -115363.217       -2852.154          61.000  
G 7  22515949.205      109272.861        2723.543           0.500  
G 8  20628959.136      -17091.209        -632.831           4.500  
> 2023  5 18  0  0 57.3688020  0  4                     
G 1  24289600.493      201861.561        3888.933          59.750  
G 4  23624602.971     -115648.500       -2888.702          61.000  
G 7  22515897.339      109545.417        2715.267           0.500  
G 8  20628971.336      -17154.558        -634.234           4.500  
> 2023  5 18  0  0 57.4688020  0  4                     
G 1  24289526.327      202251.401        3897.705          59.750  
G 4  23624656.961     -115933.473       -2851.717          61.000  
G 7  22515845.513      109817.612        2723.477           0.500  
G 8  20628983.340      -17217.889        -633.748           4.500  
> 2023  5 18  0  0 57.5688020  0  4                     
G 1  24289452.363      202641.191        3897.318          59.750  
G 4  23624711.541     -116218.604       -2850.891          61.000  
G 7  22515793.865      110089.975        2723.190           0.500  
G 8  20628995.017      -17281.242        -632.336           4.500  
> 2023  5 18  0  0 57.6688020  0  4                     
G 1  24289378.168      203030.984        3897.474          59.750  
G 4  23624765.764     -116503.745       -2851.049          61.000  
G 7  22515742.364      110362.352        2723.663           0.500  
G 8  20629007.975      -17344.615        -633.769           4.500  
> 2023  5 18  0  0 57.7688020  0  4                     
G 1  24289303.789      203420.774        3897.427          59.750  
G 4  23624820.090     -116788.885       -2851.069          61.000  
G 7  22515690.518      110634.712        2723.392           0.500  
G 8  20629019.478      -17407.976        -633.901           4.500  
> 2023  5 18  0  0 57.8688020  0  4                     
G 1  24289229.689      203810.564        3897.656          59.750  
G 4  23624874.073     -117074.024       -2851.392          61.000  
G 7  22515638.195      110907.078        2724.207           0.500  
G 8  20629031.231      -17471.334        -633.289           4.500  
> 2023  5 18  0  0 57.9688020  0  4                     
G 1  24289155.502      204200.354        3898.020          59.750  
G 4  23624928.309     -117359.157       -2851.139          61.000  
G 7  22515586.076      111179.434        2723.951           0.500  
G 8  20629043.518      -17534.712        -633.374           4.500  
> 2023  5 18  0  0 58.0688020  0  4                     
G 1  24289081.384      204590.140        3897.756          59.750  
G 4  23624982.490     -117644.306       -2851.235          61.000  
G 7  22515534.280      111451.788        2723.354           0.500  
G 8  20629055.600      -17598.105        -634.895           4.500  
> 2023  5 18  0  0 58.1688020  0  4                     
G 1  24289007.251      204979.931        3898.080          59.750  
G 4  23625037.302     -117929.455       -2851.699          61.000  
G 7  22515482.501      111724.141        2724.065           0.500  
G 8  20629067.315      -17661.476        -634.407           4.500  
> 2023  5 18  0  0 58.2688020  0  4                     
G 1  24288933.198      205369.723        3898.528          59.750  
G 4  23625091.583     -118214.595       -2852.282          61.000  
G 7  22515430.926      111996.499        2723.986           0.500  
G 8  20629079.392      -17724.850        -632.816           4.500  
> 2023  5 18  0  0 58.3688020  0  4                     
G 1  24288858.907      205759.512        3898.169          59.750  
G 4  23625146.019     -118499.730       -2851.471          61.000  
G 7  22515379.354      112268.839        2723.441           0.500  
G 8  20629092.010      -17788.249        -633.216           4.500  
> 2023  5 18  0  0 58.4688020  0  4                     
G 1  24288784.604      206149.304        3898.165          59.750  
G 4  23625200.470     -118784.885       -2851.085          61.000  
G 7  22515327.832      112541.188        2724.171           0.500  
G 8  20629104.008      -17851.657        -635.051           4.500  
> 2023  5 18  0  0 58.5688020  0  4                     
G 1  24288710.352      206539.096        3898.663          59.750  
G 4  23625254.216     -119070.036       -2851.326          61.000  
G 7  22515275.501      112813.522        2723.686           0.500  
G 8  20629115.635      -17915.043        -634.272           4.500  
> 2023  5 18  0  0 58.6688020  0  4                     
G 1  24288636.227      206928.885        3898.382          59.750  
G 4  23625308.579     -119355.186       -2851.560          61.000  
G 7  22515223.499      113085.856        2723.325           0.500  
G 8  20629127.669      -17978.440        -632.345           4.500  
> 2023  5 18  0  0 58.7688020  0  4                     
G 1  24288562.133      207318.671        3897.739          59.750  
G 4  23625362.692     -119640.335       -2851.770          61.000  
G 7  22515171.738      113358.195        2723.771           0.500  
G 8  20629140.370      -18041.863        -634.234           4.500  
> 2023  5 18  0  0 58.8688020  0  4                     
G 1  24288488.035      207708.462        3898.351          59.750  
G 4  23625416.771     -119925.494       -2851.698          61.000  
G 7  22515119.937      113630.527        2723.432           0.500  
G 8  20629152.271      -18105.281        -635.237           4.500  
> 2023  5 18  0  0 58.9688020  0  4                     
G 1  24288413.454      208098.250        3898.142          59.750  
G 4  23625471.280     -120210.647       -2851.891          61.000  
G 7  22515067.726      113902.852        2722.988           0.500  
G 8  20629163.639      -18168.694        -634.322           4.500  
> 2023  5 18  0  0 59.0688020  0  4                     
G 1  24288339.283      208488.040        3898.104          59.750  
G 4  23625525.339     -120495.801       -2852.064          61.000  
G 7  22515015.777      114175.183        2723.239           0.500  
G 8  20629176.130      -18232.112        -633.247           4.500  
> 2023  5 18  0  0 59.1688020  0  4                     
G 1  24288265.498      208877.829        3897.501          59.750  
G 4  23625579.692     -120780.953       -2850.816          61.000  
G 7  22514964.475      114447.507        2723.392           0.500  
G 8  20629188.665      -18295.545        -634.454           4.500  
> 2023  5 18  0  0 59.2688020  0  4                     
G 1  24288191.118      209267.618        3897.760          59.750  
G 4  23625633.951     -121066.117       -2851.033          61.000  
G 7  22514912.659      114719.822        2723.031           0.500  
G 8  20629200.411      -18358.979        -635.674           4.500  
> 2023  5 18  0  0 59.3688020  0  4                     
G 1  24288116.978      209657.406        3897.434          59.750  
G 4  23625687.922     -121351.280       -2851.113          61.000  
G 7  22514861.215      114992.137        2723.483           0.500  
G 8  20629211.870      -18422.409        -634.687           4.500  
> 2023  5 18  0  0 59.4688020  0  4                     
G 1  24288043.101      210047.194        3897.408          59.750  
G 4  23625742.241     -121636.444       -2851.328          61.000  
G 7  22514809.480      115264.454        2722.986           0.500  
G 8  20629224.500      -18485.850        -633.530           4.500  
> 2023  5 18  0  0 59.5688020  0  4                     
G 1  24287968.857      210436.984        3897.572          59.750  
G 4  23625796.323     -121921.611       -2851.896          61.000  
G 7  22514757.459      115536.761        2723.489           0.500  
G 8  20629237.064      -18549.301        -634.448           4.500  
> 2023  5 18  0  0 59.6688020  0  4                     
G 1  24287894.645      210826.776        3898.133          59.750  
G 4  23625851.206     -122206.770       -2852.313          61.000  
G 7  22514705.593      115809.068        2723.140           0.500  
G 8  20629248.931      -18612.753        -635.415           4.500  
> 2023  5 18  0  0 59.7688020  0  4                     
G 1  24287820.117      211216.565        3898.188          59.750  
G 4  23625905.603     -122491.937       -2852.266          61.000  
G 7  22514653.938      116081.378        2723.278           0.500  
G 8  20629260.570      -18676.193        -634.257           4.500  
> 2023  5 18  0  0 59.8688020  0  4                     
G 1  24287746.485      211606.364        3898.784          59.750  
G 4  23625959.781     -122777.105       -2851.928          61.000  
G 7  22514602.162      116353.679        2723.058           0.500  
G 8  20629272.575      -18739.659        -633.876           4.500  
> 2023  5 18  0  0 59.9688020  0  4                     
G 1  24287671.870      211996.149        3898.196          59.750  
G 4  23626013.952     -123062.273       -2851.619          61.000  
G 7  22514550.309      116625.967        2722.762           0.500  
G 8  20629285.330      -18803.130        -635.063           4.500  
> 2023  5 18  0  1  0.0688020  0  4                     
G 1  24287598.233      212385.943        3898.405          59.750  
G 4  23626068.223     -123347.864       -2902.920          61.000  
G 7  22514498.496      116898.272        2723.242           0.500  
G 8  20629297.464      -18866.588        -633.847           4.500  
> 2023  5 18  0  1  0.1688020  0  4                     
G 1  24287523.775      212775.726        3897.422          60.000  
G 4  23626122.776     -123632.615       -2850.794          61.000  
G 7  22514447.058      117170.557        2722.784           0.500  
G 8  20629309.409      -18930.063        -634.515           4.500  
> 2023  5 18  0  1  0.2688020  0  4                     
G 1  24287449.658      213165.521        3898.488          59.750  
G 4  23626177.367     -123917.791       -2851.690          61.000  
G 7  22514394.722      117442.849        2722.652           0.500  
G 8  20629321.039      -18993.541        -634.746           4.500  
> 2023  5 18  0  1  0.3688020  0  4                     
G 1  24287375.128      213555.283        3897.591          59.750  
G 4  23626230.895     -124202.963       -2851.678          61.000  
G 7  22514343.193      117715.131        2722.874           0.500  
G 8  20629333.480      -19057.033        -635.093           4.500  
> 2023  5 18  0  1  0.4688020  0  4                     
G 1  24287301.209      213945.068        3897.735          59.750  
G 4  23626285.014     -124488.135       -2851.502          61.000  
G 7  22514291.247      117987.420        2723.167           0.500  
G 8  20629345.248      -19120.520        -636.049           4.500  
> 2023  5 18  0  1  0.5688020  0  4                     
G 1  24287226.632      214334.856        3898.123          59.750  
G 4  23626339.356     -124773.316       -2851.621          61.000  
G 7  22514239.511      118259.689        2723.076           0.500  
G 8  20629356.924      -19184.009        -635.441           4.500  
> 2023  5 18  0  1  0.6688020  0  4                     
G 1  24287153.234      214724.641        3898.046          59.750  
G 4  23626394.101     -125058.501       -2851.807          61.000  
G 7  22514187.303      118531.962        2722.686           0.500  
G 8  20629369.120      -19247.509        -635.091           4.500  
> 2023  5 18  0  1  0.7688020  0  4                     
G 1  24287078.547      215114.423        3897.744          59.750  
G 4  23626448.101     -125343.677       -2852.114          61.000  
G 7  22514135.098      118804.246        2723.049           0.500  
G 8  20629381.744      -19311.018        -635.022           4.500  
> 2023  5 18  0  1  0.8688020  0  4                     
G 1  24287004.521      215504.203        3897.466          59.750  
G 4  23626502.568     -125628.855       -2851.618          61.000  
G 7  22514083.747      119076.518        2722.107           0.500  
G 8  20629393.547      -19374.523        -635.545           4.500  
> 2023  5 18  0  1  0.9688020  0  4                     
G 1  24286931.562      215893.989        3898.484          59.750  
G 4  23626557.228     -125914.046       -2851.981          61.000  
G 7  22514031.325      119348.786        2722.527           0.500  
G 8  20629405.736      -19438.026        -635.854           4.500  
> 2023  5 18  0  1  1.0688020  0  4                     
G 1  24286856.361      216283.772        3897.419          59.750  
G 4  23626611.314     -126199.235       -2852.588          61.000  
G 7  22513979.835      119621.053        2723.230           0.500  
G 8  20629417.735      -19501.542        -635.265           4.750  
> 2023  5 18  0  1  1.1688020  0  4                     
G 1  24286781.811      216673.541        3898.177          59.750  
G 4  23626664.669     -126484.417       -2852.106          61.000  
G 7  22513928.148      119893.320        2722.881           0.500  
G 8  20629430.332      -19565.065        -634.981           4.500  
> 2023  5 18  0  1  1.2688020  0  4                     
G 1  24286707.681      217063.323        3898.236          59.750  
G 4  23626719.135     -126769.599       -2852.115          61.000  
G 7  22513876.872      120165.578        2721.905           0.500  
G 8  20629442.369      -19628.589        -634.918           4.500  
> 2023  5 18  0  1  1.3688020  0  4                     
G 1  24286633.777      217453.103        3897.446          59.750  
G 4  23626772.993     -127054.785       -2851.513          61.000  
G 7  22513824.807      120437.836        2722.261           0.500  
G 8  20629454.414      -19692.122        -635.724           4.500  
> 2023  5 18  0  1  1.4688020  0  4                     
G 1  24286560.646      217842.886        3898.214          59.750  
G 4  23626827.593     -127339.985       -2852.095          61.000  
G 7  22513772.809      120710.092        2722.948           0.500  
G 8  20629466.967      -19755.657        -636.228           4.500  
> 2023  5 18  0  1  1.5688020  0  4                     
G 1  24286485.822      218232.671        3897.982          59.750  
G 4  23626882.226     -127625.177       -2852.090          61.000  
G 7  22513721.112      120982.347        2723.158           0.500  
G 8  20629478.584      -19819.201        -635.466           4.500  
> 2023  5 18  0  1  1.6688020  0  4                     
G 1  24286411.310      218622.455        3898.097          59.750  
G 4  23626936.240     -127910.368       -2851.872          61.000  
G 7  22513669.622      121254.587        2721.781           0.500  
G 8  20629490.665      -19882.744        -635.596           4.500  
> 2023  5 18  0  1  1.7688020  0  4                     
G 1  24286337.167      219012.237        3897.573          59.750  
G 4  23626991.113     -128195.562       -2851.864          61.000  
G 7  22513617.236      121526.831        2721.860           0.500  
G 8  20629502.075      -19946.289        -636.038           4.500  
> 2023  5 18  0  1  1.8688020  0  4                     
G 1  24286261.759      219402.023        3897.737          59.750  
G 4  23627044.964     -128480.761       -2852.243          61.000  
G 7  22513565.798      121799.082        2722.887           0.500  
G 8  20629514.261      -20009.835        -635.918           4.500  
> 2023  5 18  0  1  1.9688020  0  4                     
G 1  24286188.142      219791.810        3897.934          59.750  
G 4  23627099.255     -128765.960       -2851.569          61.000  
G 7  22513513.970      122071.324        2722.554           0.500  
G 8  20629526.617      -20073.390        -635.833           4.500  
> 2023  5 18  0  1  2.0688020  0  4                     
G 1  24286114.176      220181.589        3897.654          59.750  
G 4  23627153.399     -129051.162       -2852.365          61.000  
G 7  22513462.009      122343.553        2721.980           0.500  
G 8  20629538.829      -20136.958        -635.409           4.500  
> 2023  5 18  0  1  2.1688020  0  4                     
G 1  24286039.983      220571.379        3898.493          59.750  
G 4  23627207.953     -129336.282       -2843.683          61.000  
G 7  22513409.811      122615.787        2722.488           0.500  
G 8  20629551.077      -20200.534        -636.451           4.500  
> 2023  5 18  0  1  2.2688020  0  4                     
G 1  24285965.785      220961.162        3897.962          59.750  
G 4  23627262.248     -129621.561       -2852.146          61.000  
G 7  22513358.232      122888.019        2722.112           0.500  
G 8  20629562.987      -20264.093        -635.946           4.500  
> 2023  5 18  0  1  2.3688020  0  4                     
G 1  24285891.825      221350.944        3897.976          59.750  
G 4  23627316.136     -129906.761       -2852.382          61.000  
G 7  22513306.478      123160.255        2722.456           0.500  
G 8  20629575.309      -20327.659        -634.963           4.500  
> 2023  5 18  0  1  2.4688020  0  4                     
G 1  24285817.273      221740.723        3897.658          59.750  
G 4  23627370.377     -130191.977       -2853.825          61.000  
G 7  22513254.610      123432.480        2722.515           0.500  
G 8  20629588.325      -20391.250        -635.955           4.500  
> 2023  5 18  0  1  2.5688020  0  4                     
G 1  24285743.225      222130.487        3897.580          59.750  
G 4  23627425.075     -130477.175       -2852.116          61.000  
G 7  22513202.935      123704.694        2721.503           0.500  
G 8  20629599.940      -20454.840        -635.946           4.500  
> 2023  5 18  0  1  2.6688020  0  4                     
G 1  24285669.196      222520.271        3897.475          59.750  
G 4  23627479.189     -130762.387       -2852.207          61.000  
G 7  22513151.676      123976.912        2721.888           0.500  
G 8  20629611.582      -20518.427        -636.459           4.500  
> 2023  5 18  0  1  2.7688020  0  4                     
G 1  24285594.920      222910.054        3897.718          59.750  
G 4  23627533.771     -131047.595       -2852.817          61.000  
G 7  22513099.736      124249.129        2722.254           0.500  
G 8  20629623.419      -20582.013        -636.096           4.500  
> 2023  5 18  0  1  2.8688020  0  4                     
G 1  24285520.799      223299.843        3897.980          59.750  
G 4  23627587.604     -131332.802       -2852.239          61.000  
G 7  22513047.623      124521.329        2722.228           0.500  
G 8  20629635.019      -20645.607        -635.637           4.500  
> 2023  5 18  0  1  2.9688020  0  4                     
G 1  24285446.679      223689.625        3897.510          59.750  
G 4  23627642.130     -131618.018       -2852.296          61.000  
G 7  22512995.736      124793.541        2722.127           0.500  
G 8  20629647.553      -20709.212        -635.599           4.750  
> 2023  5 18  0  1  3.0688020  0  4                     
G 1  24285372.524      224079.408        3897.802          59.750  
G 4  23627695.342     -131903.230       -2852.118          61.000  
G 7  22512944.163      125065.742        2721.848           0.500  
G 8  20629659.310      -20772.825        -636.074           4.500  
> 2023  5 18  0  1  3.1688020  0  4                     
G 1  24285298.278      224469.190        3897.283          59.750  
G 4  23627750.225     -132188.438       -2851.845          61.000  
G 7  22512891.973      125337.948        2721.752           0.500  
G 8  20629671.863      -20836.442        -636.857           4.500  
> 2023  5 18  0  1  3.2688020  0  4                     
G 1  24285224.393      224858.979        3898.708          59.750  
G 4  23627804.513     -132473.626       -2837.955          61.000  
G 7  22512840.508      125610.147        2733.119           0.500  
G 8  20629683.822      -20900.058        -636.777           4.500  
> 2023  5 18  0  1  3.3688020  0  4                     
G 1  24285150.217      225248.746        3898.486          59.750  
G 4  23627859.013     -132758.880       -2852.392          61.000  
G 7  22512788.556      125882.350        2722.393           0.500  
G 8  20629695.653      -20963.675        -635.175           4.500  
> 2023  5 18  0  1  3.4688020  0  4                     
G 1  24285075.454      225638.524        3898.463          59.750  
G 4  23627913.368     -133044.108       -2852.245          61.000  
G 7  22512736.844      126154.542        2721.904           0.500  
G 8  20629707.967      -21027.298        -635.085           4.500  
> 2023  5 18  0  1  3.5688020  0  4                     
G 1  24285001.761      226028.309        3898.399          59.750  
G 4  23627967.577     -133329.330       -2852.142          61.000  
G 7  22512684.664      126426.730        2721.886           0.500  
G 8  20629720.808      -21090.926        -635.313           4.500  
> 2023  5 18  0  1  3.6688020  0  4                     
G 1  24284927.823      226418.087        3897.016          59.750  
G 4  23628021.268     -133614.571       -2852.147          61.000  
G 7  22512632.918      126698.924        2722.151           0.500  
G 8  20629732.214      -21154.548        -634.206           4.500  
> 2023  5 18  0  1  3.7688020  0  4                     
G 1  24284853.100      226807.867        3897.519          59.750  
G 4  23628075.888     -133899.799       -2852.714          61.000  
G 7  22512581.351      126971.113        2722.326           0.500  
G 8  20629744.353      -21218.199        -636.158           4.500  
> 2023  5 18  0  1  3.8688020  0  4                     
G 1  24284778.716      227197.662        3898.138          59.750  
G 4  23628130.448     -134185.017       -2852.521          61.000  
G 7  22512529.779      127243.299        2722.240           0.500  
G 8  20629756.285      -21281.841        -636.471           4.500  
> 2023  5 18  0  1  3.9688020  0  4                     
G 1  24284704.982      227587.446        3897.917          59.750  
G 4  23628185.034     -134470.256       -2852.400          61.000  
G 7  22512477.574      127515.475        2714.787           0.500  
G 8  20629768.355      -21345.492        -636.057           4.500  
> 2023  5 18  0  1  4.0688020  0  4                     
G 1  24284630.544      227977.231        3898.274          59.750  
G 4  23628239.292     -134755.490       -2852.473          61.000  
G 7  22512426.291      127787.645        2721.440           0.500  
G 8  20629781.795      -21409.157        -636.643           4.500  
> 2023  5 18  0  1  4.1688020  0  4                     
G 1  24284557.244      228367.007        3897.508          59.750  
G 4  23628293.347     -135040.712       -2851.791          61.000  
G 7  22512373.351      128059.717        2710.142           0.500  
G 8  20629792.858      -21472.815        -636.745           4.500  
> 2023  5 18  0  1  4.2688020  0  4                     
G 1  24284482.294      228756.791        3897.600          60.000  
G 4  23628347.865     -135325.961       -2851.892          61.000  
G 7  22512322.431      128331.990        2721.569           0.500  
G 8  20629806.818      -21536.469        -635.973           4.750  
> 2023  5 18  0  1  4.3688020  0  4                     
G 1  24284407.823      229146.575        3897.749          59.750  
G 4  23628401.846     -135611.191       -2852.348          61.000  
G 7  22512270.670      128604.159        2721.837           0.500  
G 8  20629817.993      -21600.139        -635.667           4.500  
> 2023  5 18  0  1  4.4688020  0  4                     
G 1  24284334.469      229536.353        3896.763          59.750  
G 4  23628455.118     -135896.424       -2851.888          61.000  
G 7  22512219.090      128876.330        2721.829           0.500  
G 8  20629828.098      -21663.803        -636.513           4.500  
> 2023  5 18  0  1  4.6688020  0  4                     
G 1  24284185.081      230315.939        3897.779          59.750  
G 4  23628564.640     -136466.895       -2852.459          61.000  
G 7  22512115.754      129420.649        2721.577           0.500  
G 8  20629853.761      -21791.157        -637.009           4.500  
> 2023  5 18  0  1  4.7688020  0  4                     
G 1  24284110.922      230705.686        3897.038          59.750  
G 4  23628619.783     -136752.129       -2851.894          61.000  
G 7  22512064.107      129692.705        2715.634           0.500  
G 8  20629866.445      -21854.845        -636.651           4.750  
> 2023  5 18  0  1  4.8688020  0  4                     
G 1  24284037.686      231095.478        3898.620          59.750  
G 4  23628673.469     -137037.366       -2852.110          61.000  
G 7  22512012.066      129964.965        2721.486           0.500  
G 8  20629876.521      -21918.542        -637.704           4.500  
> 2023  5 18  0  1  4.9688020  0  4                     
G 1  24283963.739      231485.259        3897.850          59.750  
G 4  23628727.775     -137322.614       -2852.044          61.000  
G 7  22511960.405      130237.109        2717.970           0.500  
G 8  20629889.625      -21982.240        -637.230           4.500  
> 2023  5 18  0  1  5.0688020  0  4                     
G 1  24283889.660      231875.040        3898.045          59.750  
G 4  23628782.115     -137607.855       -2852.458          61.000  
G 7  22511907.859      130509.271        2721.330           0.500  
G 8  20629901.870      -22045.934        -637.437           4.500  
> 2023  5 18  0  1  5.1688020  0  4                     
G 1  24283815.188      232264.835        3898.279          59.750  
G 4  23628836.153     -137893.094       -2852.428          61.000  
G 7  22511855.885      130781.410        2721.022           0.500  
G 8  20629914.033      -22109.636        -636.372           4.500  
> 2023  5 18  0  1  5.2688020  0  4                     
G 1  24283741.747      232654.609        3897.221          59.750  
G 4  23628889.946     -138178.346       -2853.286          61.000  
G 7  22511804.142      131053.555        2721.436           0.500  
G 8  20629925.057      -22173.348        -637.159           4.500  
> 2023  5 18  0  1  5.3688020  0  4                     
G 1  24283667.108      233044.394        3898.725          59.750  
G 4  23628943.836     -138463.579       -2852.472          61.000  
G 7  22511752.961      131325.688        2720.786           0.500  
G 8  20629937.283      -22237.052        -636.438           4.500  
> 2023  5 18  0  1  5.4688020  0  4                     
G 1  24283592.723      233434.178        3898.455          59.750  
G 4  23628998.519     -138748.832       -2851.451          61.000  
G 7  22511701.111      131597.827        2721.238           0.500  
G 8  20629951.355      -22300.770        -637.357           4.500  
> 2023  5 18  0  1  5.5688020  0  4                     
G 1  24283517.772      233823.961        3897.448          59.750  
G 4  23629053.140     -139034.082       -2852.667          61.000  
G 7  22511649.460      131869.828        2708.739           0.500  
G 8  20629963.789      -22364.496        -637.865           4.750  
> 2023  5 18  0  1  5.6688020  0  4                     
G 1  24283444.318      234213.743        3898.196          59.750  
G 4  23629107.978     -139319.341       -2852.926          61.000  
G 7  22511596.846      132142.096        2721.660           0.500  
G 8  20629974.948      -22428.228        -637.737           4.500  
> 2023  5 18  0  1  5.7688020  0  4                     
G 1  24283370.103      234603.517        3897.412          59.750  
G 4  23629162.439     -139604.595       -2852.563          61.000  
G 7  22511545.254      132414.221        2721.827           0.500  
G 8  20629986.003      -22491.960        -636.993           4.500  
> 2023  5 18  0  1  5.8688020  0  4                     
G 1  24283296.254      234993.288        3896.805          59.750  
G 4  23629217.225     -139889.847       -2852.748          61.000  
G 7  22511493.644      132686.345        2721.131           0.500  
G 8  20629997.257      -22555.691        -637.382           4.500  
> 2023  5 18  0  1  5.9688020  0  4                     
G 1  24283221.244      235383.072        3897.283          60.000  
G 4  23629271.461     -140175.102       -2852.848          61.000  
G 7  22511442.580      132958.463        2720.757           0.500  
G 8  20630010.586      -22619.436        -637.893           4.500  
> 2023  5 18  0  1  6.0688020  0  8                     
G 1  24283147.583      235772.848        3898.140          59.750  
G 4  23629324.169     -140460.346       -2851.887          61.000  
G 7  22511390.682      133230.579        2720.512           0.500  
G 8  20630022.039      -22683.182        -637.663           4.500  
G 9  23413038.511      -57014.397       -1765.084          62.000  
G16  23110637.972      -60468.666       -1922.819          62.750  
G21  21710211.219       82967.082        2629.746           0.750  
G27  21753269.768      -50773.479       -2557.781           1.500  
> 2023  5 18  0  1  6.0688020  0  9                     
G 1  24283147.583      235772.848        3898.140          59.750  
G 4  23629324.169     -140460.346       -2851.887          61.000  
G 7  22511390.682      133230.579        2720.512           0.500  
G 8  20630022.039      -22683.182        -637.663           4.500  
G 9  23413038.511      -57014.397       -1765.084          62.000  
G16  23110637.972      -60468.666       -1922.819          62.750  
G21  21710211.219       82967.082        2629.746           0.750  
G26  25252588.868      -50048.317       -2359.528          57.750  
G27  21753269.768      -50773.479       -2557.781           1.500  
> 2023  5 18  0  1  6.0688020  0 10                     
G 1  24283147.583      235772.848        3898.140          59.750  
G 4  23629324.169     -140460.346       -2851.887          61.000  
G 7  22511390.682      133230.579        2720.512           0.500  
G 8  20630022.039      -22683.182        -637.663           4.500  
G 9  23413038.511      -57014.397       -1765.084          62.000  
G16  23110637.972      -60468.666       -1922.819          62.750  
G21  21710211.219       82967.082        2629.746           0.750  
G26  25252588.868      -50048.317       -2359.528          57.750  
G27  21753269.768      -50773.479       -2557.781           1.500  
G30  25314056.559       63417.518        3445.895          59.000  
> 2023  5 18  0  1  6.1688020  0 10                     
G 1  24283073.969      236162.663        3903.249          59.750  
G 4  23629378.052     -140745.642       -2878.387          61.000  
G 7  22511338.355      133502.576        2693.478           0.500  
G 8  20630035.123      -22746.923        -637.554           4.500  
G 9  23413073.161      -57190.964       -1761.607          62.000  
G16  23110674.421      -60660.975       -1948.033          62.750  
G21  21710162.438       83230.064        2629.655           0.750  
G26  25252632.954      -50284.437       -2356.805          58.000  
G27  21753320.633      -51029.288       -2557.506           1.500  
G30  25313981.855       63762.986        3543.057          58.250  
> 2023  5 18  0  1  6.2688020  0 10                     
G 1  24282998.702      236552.409        3898.014          59.750  
G 4  23629432.826     -141030.869       -2852.961          61.000  
G 7  22511286.916      133774.806        2720.969           0.500  
G 8  20630046.222      -22810.675        -637.451           4.500  
G 9  23413105.641      -57367.382       -1764.336          62.000  
G16  23110711.119      -60853.351       -1924.223          62.750  
G21  21710112.348       83493.040        2629.483           0.750  
G26  25252678.426      -50520.287       -2361.463          58.000  
G27  21753369.052      -51285.118       -2558.785           1.500  
G30  25313920.214       64106.612        3447.592          58.750  
> 2023  5 18  0  1  6.3688020  0 10                     
G 1  24282924.802      236942.189        3897.583          59.750  
G 4  23629487.629     -141316.129       -2852.234          61.000  
G 7  22511235.370      134046.990        2737.888           0.500  
G 8  20630059.176      -22874.430        -637.014           4.500  
G 9  23413138.939      -57543.871       -1764.427          62.000  
G16  23110747.858      -61045.701       -1923.819          62.750  
G21  21710061.506       83756.018        2630.385           0.750  
G26  25252726.496      -50756.116       -2332.046          57.750  
G27  21753418.104      -51540.940       -2558.568           1.250  
G30  25313848.588       64451.508        3481.327          58.250  
> 2023  5 18  0  1  6.4688020  0 10                     
G 1  24282850.445      237331.937        3897.681          59.750  
G 4  23629541.850     -141601.391       -2852.910          61.000  
G 7  22511183.150      134319.023        2721.139           0.500  
G 8  20630071.867      -22938.196        -637.063           4.500  
G 9  23413173.118      -57720.375       -1764.637          62.000  
G16  23110784.442      -61238.043       -1923.224          63.000  
G21  21710011.780       84018.987        2630.158           0.750  
G26  25252767.975      -50992.218       -2358.127          58.000  
G27  21753467.226      -51796.779       -2558.624           1.750  
G30  25313782.684       64795.658        3445.133          59.250  
> 2023  5 18  0  1  6.5688020  0 10                     
G 1  24282776.330      237721.715        3897.181          59.750  
G 4  23629596.046     -141886.659       -2852.375          61.000  
G 7  22511131.383      134591.126        2721.464           0.500  
G 8  20630084.500      -23001.968        -637.746           4.500  
G 9  23413206.907      -57896.889       -1765.278          62.000  
G16  23110820.627      -61430.392       -1923.635          63.000  
G21  21709962.088       84281.947        2629.411           0.750  
G26  25252812.112      -51228.190       -2358.764          58.000  
G27  21753515.364      -52052.603       -2559.221           1.500  
G30  25313717.763       65140.173        3446.360          58.500  
> 2023  5 18  0  1  6.6688020  0 10                     
G 1  24282702.388      238111.501        3898.835          59.750  
G 4  23629650.387     -142171.924       -2853.419          61.000  
G 7  22511079.646      134863.228        2721.474           0.500  
G 8  20630096.991      -23065.728        -636.996           4.500  
G 9  23413239.622      -58073.237       -1731.696          62.000  
G16  23110857.653      -61622.738       -1922.818          63.000  
G21  21709911.184       84544.909        2628.982           0.750  
G26  25252855.464      -51464.184       -2359.615          58.000  
G27  21753563.685      -52308.317       -2582.729           1.250  
G30  25313654.938       65484.692        3444.493          58.500  
> 2023  5 18  0  1  6.7688020  0 10                     
G 1  24282628.320      238501.269        3897.933          59.750  
G 4  23629704.920     -142457.189       -2853.254          61.000  
G 7  22511027.853      135135.325        2721.200           0.500  
G 8  20630108.565      -23129.504        -637.242           4.500  
G 9  23413273.864      -58249.900       -1764.903          62.000  
G16  23110893.981      -61815.077       -1922.894          63.000  
G21  21709860.596       84807.863        2630.104           0.750  
G26  25252900.996      -51700.160       -2359.478          58.000  
G27  21753611.011      -52564.293       -2559.296           1.500  
G30  25313589.699       65829.242        3443.345          59.000  
> 2023  5 18  0  1  6.8688020  0 10                     
G 1  24282553.888      238891.049        3897.743          59.750  
G 4  23629759.926     -142742.451       -2852.378          61.000  
G 7  22510975.514      135407.425        2720.912           0.500  
G 8  20630120.128      -23193.295        -638.413           4.500  
G 9  23413308.402      -58426.425       -1764.740          62.000  
G16  23110930.679      -62007.437       -1923.454          62.750  
G21  21709810.826       85070.816        2629.773           0.750  
G26  25252948.232      -51936.148       -2360.630          57.750  
G27  21753659.811      -52820.121       -2560.617           1.500  
G30  25313524.509       66173.764        3447.528          58.500  
> 2023  5 18  0  1  6.9688020  0 10                     
G 1  24282480.235      239280.829        3897.902          59.750  
G 4  23629813.690     -143027.725       -2852.926          61.000  
G 7  22510923.776      135679.515        2720.445           0.500  
G 8  20630131.585      -23257.080        -638.331           4.500  
G 9  23413341.686      -58602.948       -1764.929          62.000  
G16  23110967.452      -62199.789       -1923.590          63.000  
G21  21709761.057       85333.761        2630.143           0.750  
G26  25252992.757      -52172.119       -2359.127          58.000  
G27  21753710.892      -53075.968       -2559.379           1.500  
G30  25313455.507       66518.329        3444.443          58.750  
> 2023  5 18  0  1  7.0688020  0 10                     
G 1  24282405.449      239670.605        3897.414          59.750  
G 4  23629867.835     -143312.995       -2852.348          61.000  
G 7  22510872.098      135951.602        2720.487           0.500  
G 8  20630143.805      -23320.870        -637.843           4.500  
G 9  23413374.936      -58779.471       -1764.607          62.000  
G16  23111003.688      -62392.140       -1923.648          63.000  
G21  21709711.279       85596.674        2628.093           0.750  
G26  25253037.487      -52408.082       -2358.126          58.000  
G27  21753759.948      -53331.801       -2559.072           1.500  
G30  25313387.381       66862.852        3446.088          58.750  
> 2023  5 18  0  1  7.1688020  0 10                     
G 1  24282332.054      240060.520        3908.025          59.750  
G 4  23629921.560     -143598.268       -2852.812          61.000  
G 7  22510820.603      136223.693        2720.864           0.500  
G 8  20630155.937      -23384.672        -638.090           4.500  
G 9  23413409.160      -58956.011       -1765.737          62.000  
G16  23111040.343      -62584.450       -1901.160          63.000  
G21  21709662.080       85859.615        2628.021           0.750  
G26  25253080.381      -52644.075       -2358.358          58.000  
G27  21753807.450      -53588.044       -2585.628           1.500  
G30  25313327.033       67207.375        3445.084          58.750  
> 2023  5 18  0  1  7.2688020  0 10                     
G 1  24282257.520      240450.142        3897.502          59.750  
G 4  23629976.043     -143883.540       -2852.986          61.000  
G 7  22510769.256      136495.770        2720.370           0.500  
G 8  20630169.822      -23448.474        -638.724           4.500  
G 9  23413442.095      -59132.540       -1765.504          62.000  
G16  23111076.920      -62776.845       -1923.771          62.750  
G21  21709611.215       86122.559        2629.524           0.750  
G26  25253128.573      -52880.073       -2360.468          58.000  
G27  21753854.879      -53843.500       -2558.883           1.500  
G30  25313263.067       67551.915        3446.164          58.500  
> 2023  5 18  0  1  7.3688020  0 10                     
G 1  24282183.195      240839.921        3897.216          59.750  
G 4  23630030.606     -144168.815       -2853.039          61.000  
G 7  22510717.298      136767.867        2711.420           0.500  
G 8  20630180.336      -23512.282        -639.218           4.500  
G 9  23413475.725      -59309.078       -1765.161          62.000  
G16  23111113.706      -62969.196       -1923.561          62.750  
G21  21709561.598       86385.487        2629.686           0.750  
G26  25253171.767      -53116.068       -2360.134          58.250  
G27  21753904.894      -54099.346       -2557.876           1.500  
G30  25313195.266       67896.432        3444.108          58.750  
> 2023  5 18  0  1  7.4688020  0 10                     
G 1  24282109.112      241229.691        3897.007          59.750  
G 4  23630084.919     -144454.095       -2853.126          61.000  
G 7  22510665.735      137039.937        2720.501           0.500  
G 8  20630191.873      -23576.086        -638.201           4.500  
G 9  23413508.864      -59485.860       -1783.944          62.000  
G16  23111150.168      -63161.556       -1924.024          62.750  
G21  21709510.665       86648.399        2629.051           0.750  
G26  25253221.451      -53352.011       -2358.392          58.000  
G27  21753953.252      -54355.200       -2558.508           1.500  
G30  25313128.515       68240.967        3444.082          58.750  
> 2023  5 18  0  1  7.5688020  0 10                     
G 1  24282035.344      241619.476        3897.941          59.750  
G 4  23630139.218     -144739.371       -2852.115          61.000  
G 7  22510613.891      137312.012        2721.163           0.500  
G 8  20630205.595      -23639.888        -638.328           4.500  
G 9  23413542.483      -59662.159       -1765.453          62.000  
G16  23111187.098      -63353.911       -1923.298          63.000  
G21  21709459.010       86911.309        2629.394           0.750  
G26  25253268.985      -53588.015       -2361.240          57.750  
G27  21754003.029      -54611.055       -2558.363           1.500  
G30  25313060.433       68585.512        3445.815          58.500  
> 2023  5 18  0  1  7.6688020  0 10                     
G 1  24281960.763      242009.249        3897.319          59.750  
G 4  23630192.911     -145024.650       -2852.386          61.000  
G 7  22510561.756      137584.086        2721.198           0.500  
G 8  20630218.417      -23703.715        -637.646           4.500  
G 9  23413576.247      -59838.710       -1766.119          62.000  
G16  23111223.661      -63546.266       -1923.258          62.750  
G21  21709410.517       87174.226        2629.098           0.750  
G26  25253307.613      -53824.004       -2360.541          57.750  
G27  21754050.981      -54866.905       -2558.382           1.500  
G30  25312999.216       68930.042        3444.467          58.750  
> 2023  5 18  0  1  7.7688020  0 10                     
G 1  24281887.026      242399.030        3897.460          59.750  
G 4  23630247.126     -145309.930       -2852.224          61.000  
G 7  22510509.924      137856.153        2720.512           0.500  
G 8  20630231.436      -23767.533        -637.849           4.500  
G 9  23413609.436      -60015.259       -1764.721          62.000  
G16  23111260.199      -63738.632       -1923.830          62.750  
G21  21709360.621       87437.142        2628.307           0.750  
G26  25253353.493      -54059.988       -2357.914          58.000  
G27  21754099.450      -55122.754       -2557.877           1.500  
G30  25312935.514       69274.535        3443.802          58.750  
> 2023  5 18  0  1  7.8688020  0 10                     
G 1  24281812.253      242788.783        3896.626          59.750  
G 4  23630301.864     -145595.213       -2852.272          61.000  
G 7  22510458.082      138128.219        2720.820           0.500  
G 8  20630240.558      -23831.356        -637.997           4.500  
G 9  23413641.920      -60191.817       -1765.390          62.000  
G16  23111297.028      -63930.992       -1924.295          63.000  
G21  21709311.837       87700.126        2651.228           0.750  
G26  25253397.421      -54295.975       -2361.088          58.000  
G27  21754148.032      -55378.638       -2558.244           1.500  
G30  25312867.725       69619.054        3441.764          58.500  
> 2023  5 18  0  1  7.9688020  0 10                     
G 1  24281738.503      243178.561        3897.132          59.750  
G 4  23630356.225     -145880.499       -2853.452          61.000  
G 7  22510406.082      138400.370        2720.823           0.500  
G 8  20630254.435      -23895.190        -638.273           4.500  
G 9  23413676.387      -60368.377       -1765.428          62.000  
G16  23111333.209      -64123.345       -1923.336          63.000  
G21  21709261.287       87962.922        2628.853           0.750  
G26  25253441.970      -54531.937       -2359.108          57.750  
G27  21754197.479      -55634.505       -2558.584           1.500  
G30  25312798.931       69963.633        3446.728          58.500  
> 2023  5 18  0  1  8.0688020  0 10                     
G 1  24281664.599      243568.348        3898.344          59.750  
G 4  23630410.935     -146165.782       -2852.605          61.000  
G 7  22510354.553      138672.343        2720.516           0.500  
G 8  20630265.276      -23959.032        -638.495           4.500  
G 9  23413710.200      -60544.944       -1766.103          62.000  
G16  23111369.799      -64315.710       -1923.696          63.000  
G21  21709210.140       88225.818        2629.227           0.750  
G26  25253491.206      -54767.936       -2359.964          58.000  
G27  21754246.679      -55890.376       -2558.889           1.500  
G30  25312732.385       70308.148        3444.396          58.500  
> 2023  5 18  0  1  8.1688020  0 10                     
G 1  24281590.016      243958.121        3897.466          59.750  
G 4  23630465.572     -146451.069       -2853.572          61.000  
G 7  22510302.894      138944.385        2720.166           0.500  
G 8  20630277.870      -24022.874        -638.289           4.500  
G 9  23413743.024      -60721.508       -1765.685          62.000  
G16  23111406.591      -64508.071       -1922.777          63.000  
G21  21709159.605       88488.629        2606.587           0.750  
G26  25253535.204      -55003.915       -2358.644          58.000  
G27  21754294.737      -56146.245       -2559.325           1.500  
G30  25312670.226       70652.673        3445.869          58.750  
> 2023  5 18  0  1  8.2688020  0 10                     
G 1  24281515.395      244347.894        3897.285          59.750  
G 4  23630518.874     -146736.354       -2853.351          61.000  
G 7  22510251.245      139216.442        2720.241           0.500  
G 8  20630293.086      -24086.717        -638.600           4.750  
G 9  23413777.971      -60898.075       -1765.384          62.000  
G16  23111443.443      -64700.439       -1923.077          62.750  
G21  21709110.127       88751.587        2628.953           0.750  
G26  25253577.568      -55239.892       -2357.483          57.750  
G27  21754343.051      -56402.115       -2559.000           1.500  
G30  25312605.226       70997.192        3445.490          58.500  
> 2023  5 18  0  1  8.3688020  0 10                     
G 1  24281441.094      244737.683        3898.508          59.750  
G 4  23630573.483     -147021.652       -2853.154          61.000  
G 7  22510199.991      139488.489        2720.178           0.500  
G 8  20630302.731      -24150.566        -637.514           4.500  
G 9  23413810.792      -61074.662       -1765.241          62.000  
G16  23111479.848      -64892.800       -1923.584          63.000  
G21  21709059.913       89014.463        2629.061           0.750  
G26  25253622.685      -55475.893       -2361.674          57.750  
G27  21754391.215      -56657.988       -2558.965           1.500  
G30  25312539.312       71341.707        3445.317          59.000  
> 2023  5 18  0  1  8.4688020  0 10                     
G 1  24281367.872      245127.462        3897.535          59.750  
G 4  23630628.529     -147306.942       -2853.083          61.000  
G 7  22510147.744      139760.536        2720.310           0.500  
G 8  20630315.124      -24214.418        -637.734           4.500  
G 9  23413845.025      -61251.243       -1765.784          62.000  
G16  23111516.208      -65085.164       -1923.701          63.000  
G21  21709009.418       89277.338        2628.683           0.750  
G26  25253672.004      -55711.881       -2359.249          58.000  
G27  21754439.480      -56913.872       -2558.594           1.500  
G30  25312476.198       71686.240        3445.395          58.750  
> 2023  5 18  0  1  8.5688020  0 10                     
G 1  24281294.091      245517.243        3898.392          59.750  
G 4  23630681.915     -147592.224       -2852.539          61.000  
G 7  22510096.003      140032.580        2720.472           0.500  
G 8  20630325.116      -24278.293        -639.098           4.500  
G 9  23413879.290      -61427.740       -1770.873          62.000  
G16  23111553.091      -65277.609       -1933.695          63.000  
G21  21708959.298       89540.213        2628.567           0.750  
G26  25253717.497      -55947.882       -2359.073          57.750  
G27  21754488.326      -57169.751       -2558.432           1.500  
G30  25312409.767       72030.759        3445.681          59.000  
> 2023  5 18  0  1  8.6688020  0 10                     
G 1  24281219.345      245906.989        3897.609          59.750  
G 4  23630735.578     -147877.524       -2852.761          61.000  
G 7  22510044.166      140304.616        2719.802           0.500  
G 8  20630340.581      -24342.163        -638.805           4.750  
G 9  23413912.650      -61604.174       -1731.943          62.000  
G16  23111589.776      -65469.944       -1908.773          62.750  
G21  21708910.357       89802.927        2602.287           0.750  
G26  25253759.492      -56183.875       -2360.978          58.000  
G27  21754536.400      -57425.534       -2563.813           1.500  
G30  25312346.535       72375.317        3430.628          58.750  
> 2023  5 18  0  1  8.7688020  0 10                     
G 1  24281145.398      246296.767        3897.403          59.750  
G 4  23630790.171     -148162.816       -2853.002          61.000  
G 7  22509992.585      140576.659        2719.652           0.500  
G 8  20630351.014      -24406.022        -638.657           4.500  
G 9  23413946.513      -61781.002       -1765.681          62.000  
G16  23111626.509      -65662.271       -1923.980          63.000  
G21  21708860.293       90065.937        2628.279           0.750  
G26  25253804.913      -56419.860       -2358.792          57.750  
G27  21754587.825      -57681.392       -2533.249           1.500  
G30  25312271.684       72719.810        3444.785          58.750  
> 2023  5 18  0  1  8.8688020  0 10                     
G 1  24281070.815      246686.547        3898.127          59.750  
G 4  23630843.979     -148448.116       -2854.031          61.000  
G 7  22509940.941      140848.695        2719.910           0.500  
G 8  20630362.959      -24469.897        -638.691           4.500  
G 9  23413979.140      -61957.599       -1766.414          62.000  
G16  23111663.045      -65854.638       -1923.272          62.750  
G21  21708811.318       90328.789        2627.782           0.750  
G26  25253847.041      -56655.840       -2359.122          57.750  
G27  21754634.597      -57937.425       -2558.796           1.500  
G30  25312209.423       73064.317        3444.052          58.500  
> 2023  5 18  0  1  8.9688020  0 10                     
G 1  24280996.383      247076.313        3896.928          59.750  
G 4  23630898.129     -148733.405       -2852.213          61.000  
G 7  22509888.674      141120.728        2720.135           0.500  
G 8  20630375.882      -24533.775        -638.909           4.500  
G 9  23414013.764      -62134.198       -1765.760          62.000  
G16  23111700.041      -66047.008       -1923.396          62.750  
G21  21708761.298       90591.645        2628.440           0.750  
G26  25253891.926      -56891.862       -2361.215          58.000  
G27  21754684.113      -58193.308       -2558.085           1.500  
G30  25312146.173       73408.824        3445.665          59.000  
> 2023  5 18  0  1  9.0688020  0 10                     
G 1  24280922.971      247466.093        3897.677          59.750  
G 4  23630953.100     -149018.700       -2852.102          61.000  
G 7  22509837.144      141392.758        2720.016           0.500  
G 8  20630387.951      -24597.666        -639.814           4.500  
G 9  23414046.334      -62310.808       -1765.041          62.000  
G16  23111736.351      -66239.387       -1923.684          62.750  
G21  21708711.695       90854.491        2628.534           0.750  
G26  25253937.031      -57127.852       -2360.334          58.000  
G27  21754732.980      -58449.226       -2533.607           1.250  
G30  25312082.849       73753.356        3444.353          58.250  
> 2023  5 18  0  1  9.1688020  0 10                     
G 1  24280848.160      247855.873        3896.890          59.750  
G 4  23631007.286     -149304.004       -2852.691          61.000  
G 7  22509785.548      141664.780        2720.031           0.500  
G 8  20630399.790      -24661.551        -638.838           4.500  
G 9  23414079.791      -62487.415       -1766.427          62.000  
G16  23111773.321      -66431.761       -1923.545          63.000  
G21  21708661.366       91117.337        2628.297           0.750  
G26  25253981.675      -57363.836       -2360.230          58.000  
G27  21754782.681      -58705.102       -2558.091           1.500  
G30  25312011.325       74097.875        3443.977          58.250  
> 2023  5 18  0  1  9.2688020  0 10                     
G 1  24280773.854      248245.634        3894.994          59.750  
G 4  23631061.518     -149589.314       -2853.427          61.000  
G 7  22509733.120      141936.593        2708.905           0.500  
G 8  20630411.814      -24725.437        -638.867           4.500  
G 9  23414113.526      -62663.966       -1752.973          62.000  
G16  23111809.768      -66624.188       -1936.497          63.000  
G21  21708610.655       91380.174        2627.764           0.750  
G26  25254026.296      -57599.727       -2309.631          58.000  
G27  21754830.411      -58961.151       -2533.053           1.500  
G30  25311951.477       74442.238        3494.974          58.750  
> 2023  5 18  0  1  9.3688020  0 10                     
G 1  24280700.595      248635.432        3897.798          59.750  
G 4  23631115.648     -149874.618       -2853.654          61.000  
G 7  22509681.758      142208.640        2706.401           0.500  
G 8  20630424.396      -24789.334        -638.781           4.500  
G 9  23414147.206      -62840.632       -1764.911          62.000  
G16  23111846.176      -66816.504       -1923.746          63.000  
G21  21708559.390       91642.999        2628.389           0.750  
G26  25254072.890      -57835.824       -2359.244          58.000  
G27  21754877.941      -59216.721       -2547.902           1.500  
G30  25311883.964       74786.906        3444.893          58.500  
> 2023  5 18  0  1  9.4688020  0 10                     
G 1  24280625.587      249025.188        3897.006          59.750  
G 4  23631170.167     -150159.921       -2852.970          61.000  
G 7  22509630.501      142480.644        2710.474           0.500  
G 8  20630435.335      -24853.246        -639.008           4.500  
G 9  23414181.080      -63017.336       -1780.056          62.000  
G16  23111882.649      -67008.908       -1929.013          62.750  
G21  21708509.709       91905.825        2627.823           0.750  
G26  25254117.673      -58071.822       -2358.950          58.000  
G27  21754927.488      -59472.815       -2559.229           1.500  
G30  25311818.687       75131.427        3443.289          58.750  
> 2023  5 18  0  1  9.5688020  0 10                     
G 1  24280550.653      249414.999        3890.175          59.750  
G 4  23631224.890     -150445.225       -2853.084          61.000  
G 7  22509578.586      142752.829        2719.865           0.500  
G 8  20630448.736      -24917.138        -637.960           4.750  
G 9  23414214.835      -63193.782       -1763.178          62.000  
G16  23111919.239      -67201.256       -1923.578          62.750  
G21  21708460.001       92168.602        2609.980           0.750  
G26  25254162.596      -58307.847       -2360.216          57.750  
G27  21754976.807      -59728.734       -2559.889           1.500  
G30  25311753.746       75475.708        3414.219          59.000  
> 2023  5 18  0  1  9.6688020  0 10                     
G 1  24280476.839      249804.753        3898.018          59.750  
G 4  23631280.157     -150730.537       -2853.479          61.000  
G 7  22509526.698      143024.865        2719.677           0.500  
G 8  20630462.242      -24981.061        -638.458           4.500  
G 9  23414247.554      -63370.511       -1765.771          62.000  
G16  23111955.504      -67393.689       -1912.157          62.750  
G21  21708410.901       92431.469        2628.516           0.750  
G26  25254204.421      -58543.823       -2359.018          57.750  
G27  21755025.508      -59984.706       -2565.332           1.500  
G30  25311686.662       75820.459        3445.646          58.750  
> 2023  5 18  0  1  9.7688020  0 10                     
G 1  24280403.097      250194.532        3898.294          60.000  
G 4  23631333.506     -151015.840       -2853.279          61.000  
G 7  22509474.804      143296.872        2719.457           0.500  
G 8  20630472.799      -25044.977        -639.653           4.500  
G 9  23414281.384      -63547.143       -1766.809          62.000  
G16  23111992.203      -67586.013       -1923.461          62.750  
G21  21708360.364       92694.275        2627.536           0.750  
G26  25254251.885      -58779.805       -2355.887          57.750  
G27  21755073.637      -60240.550       -2559.065           1.500  
G30  25311620.963       76164.977        3445.150          58.750  
> 2023  5 18  0  1  9.8688020  0 10                     
G 1  24280330.029      250584.295        3897.718          60.000  
G 4  23631387.494     -151301.151       -2853.027          61.000  
G 7  22509423.230      143568.887        2719.815           0.500  
G 8  20630483.633      -25108.891        -638.791           4.500  
G 9  23414315.487      -63723.780       -1766.778          62.000  
G16  23112028.637      -67778.391       -1923.826          63.000  
G21  21708311.234       92957.075        2627.509           0.750  
G26  25254292.640      -59015.793       -2357.878          58.000  
G27  21755122.185      -60496.145       -2539.792           1.500  
G30  25311558.322       76509.491        3445.369          58.750  
> 2023  5 18  0  1  9.9688020  0 10                     
G 1  24280255.561      250974.075        3896.817          59.750  
G 4  23631441.046     -151586.464       -2853.307          61.000  
G 7  22509371.540      143840.894        2720.220           0.500  
G 8  20630496.155      -25172.822        -639.040           4.500  
G 9  23414350.147      -63900.416       -1766.815          62.000  
G16  23112065.221      -67970.769       -1923.194          62.750  
G21  21708260.324       93219.895        2628.797           0.750  
G26  25254343.016      -59251.836       -2362.077          58.000  
G27  21755170.896      -60752.387       -2560.238           1.500  
G30  25311492.221       76854.007        3446.478          58.750  
> 2023  5 18  0  1 10.0688020  0 10                     
G 1  24280181.598      251363.861        3898.014          59.750  
G 4  23631495.567     -151871.781       -2853.501          61.000  
G 7  22509319.194      144112.895        2720.367           0.500  
G 8  20630507.968      -25236.748        -639.288           4.500  
G 9  23414383.016      -64077.057       -1766.468          62.000  
G16  23112102.362      -68163.157       -1924.024          62.750  
G21  21708210.437       93482.690        2627.991           0.750  
G26  25254386.824      -59487.821       -2359.571          57.500  
G27  21755219.813      -61008.301       -2558.549           1.500  
G30  25311424.959       77198.506        3446.245          58.500  
> 2023  5 18  0  1 10.1688020  0 10                     
G 1  24280106.893      251753.642        3898.145          59.750  
G 4  23631550.529     -152157.096       -2853.327          61.000  
G 7  22509267.254      144384.895        2720.402           0.500  
G 8  20630522.911      -25300.679        -639.139           4.500  
G 9  23414416.032      -64253.700       -1766.001          62.000  
G16  23112139.038      -68355.540       -1924.395          62.750  
G21  21708160.732       93745.483        2628.343           0.750  
G26  25254432.761      -59723.817       -2358.547          58.000  
G27  21755268.119      -61264.230       -2558.964           1.500  
G30  25311359.374       77543.044        3446.263          58.750  
> 2023  5 18  0  1 10.2688020  0 10                     
G 1  24280032.471      252143.417        3897.546          59.750  
G 4  23631604.914     -152442.410       -2853.968          61.000  
G 7  22509215.863      144656.891        2720.371           0.500  
G 8  20630535.817      -25364.619        -638.868           4.500  
G 9  23414449.933      -64430.347       -1765.535          62.000  
G16  23112175.188      -68547.916       -1923.766          62.750  
G21  21708109.773       94008.266        2627.002           0.750  
G26  25254476.205      -59959.817       -2358.820          58.000  
G27  21755316.729      -61520.158       -2559.100           1.500  
G30  25311294.801       77887.554        3444.701          58.750  
> 2023  5 18  0  1 10.3688020  0 10                     
G 1  24279958.446      252533.192        3897.758          59.750  
G 4  23631659.815     -152727.736       -2853.951          61.000  
G 7  22509163.953      144928.913        2732.176           0.500  
G 8  20630546.617      -25428.560        -638.849           4.500  
G 9  23414483.734      -64607.057       -1767.295          62.000  
G16  23112210.972      -68740.279       -1908.167          62.750  
G21  21708060.546       94271.057        2627.860           0.750  
G26  25254518.848      -60195.836       -2360.484          57.750  
G27  21755365.433      -61776.077       -2559.903           1.500  
G30  25311230.583       78232.060        3444.243          59.000  
> 2023  5 18  0  1 10.4688020  0 10                     
G 1  24279883.645      252922.968        3897.338          59.750  
G 4  23631714.027     -153013.064       -2853.460          61.000  
G 7  22509112.288      145200.872        2720.080           0.500  
G 8  20630557.368      -25492.512        -639.779           4.500  
G 9  23414517.548      -64783.809       -1804.589          62.000  
G16  23112247.858      -68932.722       -1930.020          62.750  
G21  21708010.037       94533.819        2644.229           0.750  
G26  25254564.304      -60431.833       -2360.975          58.000  
G27  21755414.942      -62032.009       -2560.174           1.500  
G30  25311163.263       78576.578        3446.046          58.750  
> 2023  5 18  0  1 10.5688020  0 10                     
G 1  24279808.849      253312.743        3897.606          59.750  
G 4  23631767.853     -153298.384       -2853.341          61.000  
G 7  22509060.382      145472.857        2720.098           0.500  
G 8  20630570.869      -25556.462        -639.049           4.500  
G 9  23414550.757      -64960.327       -1766.871          62.000  
G16  23112284.151      -69125.074       -1924.222          62.750  
G21  21707958.884       94796.616        2627.643           0.750  
G26  25254611.411      -60667.843       -2359.048          58.000  
G27  21755463.462      -62287.945       -2560.262           1.500  
G30  25311099.596       78921.084        3444.554          59.000  
> 2023  5 18  0  1 10.6688020  0 10                     
G 1  24279735.842      253702.527        3897.629          59.750  
G 4  23631822.214     -153583.707       -2853.669          61.000  
G 7  22509009.009      145744.837        2719.313           0.500  
G 8  20630582.246      -25620.427        -638.960           4.500  
G 9  23414585.416      -65136.992       -1766.513          62.000  
G16  23112321.808      -69317.462       -1924.246          63.000  
G21  21707909.522       95059.390        2627.876           0.750  
G26  25254655.339      -60903.846       -2360.583          58.000  
G27  21755511.198      -62543.881       -2559.125           1.500  
G30  25311032.088       79265.592        3444.934          58.750  
> 2023  5 18  0  1 10.7688020  0 10                     
G 1  24279661.879      254092.301        3898.828          59.750  
G 4  23631876.458     -153869.023       -2852.981          61.000  
G 7  22508957.032      146016.812        2719.275           0.500  
G 8  20630594.900      -25684.391        -639.509           4.500  
G 9  23414617.799      -65313.661       -1766.635          62.000  
G16  23112359.035      -69509.848       -1923.888          63.000  
G21  21707860.213       95322.153        2628.260           0.750  
G26  25254699.078      -61139.859       -2360.865          58.000  
G27  21755561.008      -62799.824       -2560.483           1.500  
G30  25310967.774       79610.096        3444.671          58.750  
> 2023  5 18  0  1 10.8688020  0 10                     
G 1  24279587.023      254482.074        3897.826          59.750  
G 4  23631931.187     -154154.355       -2853.388          61.000  
G 7  22508905.741      146288.795        2720.044           0.500  
G 8  20630606.292      -25748.338        -638.753           4.500  
G 9  23414651.223      -65490.340       -1767.425          62.000  
G16  23112394.794      -69702.237       -1924.107          62.750  
G21  21707810.196       95584.911        2627.051           0.750  
G26  25254744.385      -61375.858       -2359.765          58.000  
G27  21755610.031      -63055.763       -2560.098           1.500  
G30  25310900.012       79954.606        3445.078          58.750  
> 2023  5 18  0  1 10.9688020  0 10                     
G 1  24279513.526      254871.841        3897.728          59.750  
G 4  23631985.030     -154439.679       -2853.081          61.000  
G 7  22508854.212      146560.769        2719.583           0.500  
G 8  20630619.536      -25812.318        -639.978           4.500  
G 9  23414685.660      -65667.022       -1767.519          62.000  
G16  23112430.702      -69894.629       -1924.280          63.000  
G21  21707760.466       95847.666        2627.157           0.750  
G26  25254790.147      -61611.859       -2360.459          58.000  
G27  21755659.094      -63311.703       -2560.035           1.500  
G30  25310831.187       80299.126        3446.604          58.750  
> 2023  5 18  0  1 11.0688020  0 10                     
G 1  24279438.379      255261.617        3897.789          59.750  
G 4  23632039.473     -154725.005       -2853.052          61.000  
G 7  22508802.792      146832.740        2719.437           0.500  
G 8  20630631.314      -25876.295        -640.287           4.500  
G 9  23414719.033      -65843.703       -1766.880          62.000  
G16  23112467.624      -70087.020       -1924.699          62.750  
G21  21707710.136       96110.426        2627.739           0.750  
G26  25254834.339      -61847.859       -2359.264          58.000  
G27  21755706.331      -63567.643       -2559.918           1.500  
G30  25310769.712       80643.605        3446.341          58.750  
> 2023  5 18  0  1 11.1688020  0 10                     
G 1  24279363.870      255651.680        3925.875          59.750  
G 4  23632094.265     -155010.337       -2853.235          61.000  
G 7  22508750.517      147104.711        2719.485           0.500  
G 8  20630643.881      -25940.269        -640.039           4.500  
G 9  23414753.077      -66020.457       -1781.111          62.000  
G16  23112503.739      -70279.488       -1926.906          62.750  
G21  21707661.479       96373.162        2627.609           0.750  
G26  25254877.188      -62083.860       -2283.890          58.000  
G27  21755755.213      -63823.666       -2591.982           1.500  
G30  25310704.678       80988.123        3445.396          58.750  
> 2023  5 18  0  1 11.2688020  0 10                     
G 1  24279289.922      256041.152        3897.324          59.750  
G 4  23632148.274     -155295.665       -2853.226          61.000  
G 7  22508698.534      147376.678        2719.188           0.500  
G 8  20630656.277      -26004.256        -639.474           4.500  
G 9  23414787.658      -66197.086       -1767.329          62.000  
G16  23112540.590      -70471.803       -1924.311          63.000  
G21  21707610.730       96635.902        2626.878           0.750  
G26  25254926.114      -62319.877       -2357.904          58.000  
G27  21755804.274      -64079.549       -2560.514           1.500  
G30  25310641.210       81332.635        3448.987          59.000  
> 2023  5 18  0  1 11.3688020  0 10                     
G 1  24279215.880      256430.924        3897.595          59.750  
G 4  23632201.620     -155581.002       -2853.842          61.000  
G 7  22508646.589      147648.639        2719.686           0.500  
G 8  20630667.951      -26068.254        -640.394           4.500  
G 9  23414820.369      -66373.768       -1767.021          62.000  
G16  23112577.951      -70664.192       -1924.116          62.750  
G21  21707560.914       96898.640        2626.232           0.750  
G26  25254970.394      -62555.897       -2359.637          58.000  
G27  21755852.252      -64335.507       -2560.194           1.500  
G30  25310574.265       81677.141        3447.728          58.750  
> 2023  5 18  0  1 11.4688020  0 10                     
G 1  24279141.897      256820.694        3898.120          59.750  
G 4  23632256.782     -155866.324       -2852.361          61.000  
G 7  22508594.427      147920.854        2735.850           0.500  
G 8  20630678.907      -26132.246        -640.153           4.500  
G 9  23414853.569      -66550.461       -1767.035          62.000  
G16  23112615.152      -70856.598       -1924.469          63.000  
G21  21707510.328       97161.379        2627.404           1.000  
G26  25255013.678      -62791.885       -2358.913          58.250  
G27  21755900.476      -64591.454       -2558.997           1.500  
G30  25310510.470       82021.606        3441.609          58.500  
> 2023  5 18  0  1 11.5688020  0 10                     
G 1  24279067.310      257210.474        3898.857          59.750  
G 4  23632311.162     -156151.681       -2853.897          61.000  
G 7  22508543.271      148192.559        2719.173           0.500  
G 8  20630691.580      -26196.236        -639.770           4.500  
G 9  23414888.352      -66727.169       -1766.795          62.000  
G16  23112651.205      -71048.985       -1924.345          62.750  
G21  21707460.289       97424.107        2626.484           0.750  
G26  25255058.254      -63027.912       -2356.854          58.250  
G27  21755949.248      -64847.413       -2558.556           1.500  
G30  25310442.097       82366.125        3441.501          58.500  
> 2023  5 18  0  1 11.6688020  0 10                     
G 1  24278993.803      257600.242        3898.564          59.750  
G 4  23632365.347     -156437.015       -2853.691          61.000  
G 7  22508491.662      148464.513        2719.328           0.500  
G 8  20630704.307      -26260.235        -638.985           4.500  
G 9  23414920.971      -66903.878       -1766.963          62.000  
G16  23112688.385      -71241.374       -1923.755          62.750  
G21  21707410.192       97686.830        2627.582           1.000  
G26  25255104.940      -63263.930       -2359.716          58.000  
G27  21755998.217      -65103.378       -2560.112           1.500  
G30  25310374.487       82710.635        3443.981          58.750  
> 2023  5 18  0  1 11.7688020  0 10                     
G 1  24278920.204      257990.003        3896.651          59.750  
G 4  23632419.197     -156722.355       -2853.467          61.000  
G 7  22508439.710      148736.463        2719.518           0.500  
G 8  20630716.384      -26324.246        -638.926           4.500  
G 9  23414953.635      -67080.573       -1766.332          62.000  
G16  23112724.575      -71433.776       -1924.096          63.000  
G21  21707360.322       97949.549        2627.809           0.750  
G26  25255148.943      -63499.942       -2361.238          58.250  
G27  21756047.221      -65359.339       -2560.485           1.500  
G30  25310313.896       83055.137        3444.811          58.750  
> 2023  5 18  0  1 11.8688020  0 10                     
G 1  24278845.683      258379.779        3897.711          59.750  
G 4  23632473.489     -157007.697       -2853.444          61.000  
G 7  22508387.668      149008.413        2719.249           0.500  
G 8  20630728.424      -26388.259        -639.325           4.500  
G 9  23414987.729      -67257.296       -1766.748          62.000  
G16  23112761.244      -71626.179       -1923.683          63.000  
G21  21707310.383       98212.266        2627.098           0.750  
G26  25255194.583      -63735.973       -2360.613          58.000  
G27  21756094.978      -65615.301       -2559.060           1.500  
G30  25310249.430       83399.629        3445.198          58.500  
> 2023  5 18  0  1 11.9688020  0 10                     
G 1  24278770.943      258769.553        3898.142          59.750  
G 4  23632528.216     -157293.032       -2853.252          61.000  
G 7  22508336.106      149280.353        2719.821           0.500  
G 8  20630740.319      -26452.277        -639.588           4.500  
G 9  23415021.906      -67434.022       -1767.054          62.000  
G16  23112797.929      -71818.585       -1923.753          63.000  
G21  21707260.278       98474.967        2626.694           0.750  
G26  25255239.241      -63971.961       -2357.998          57.750  
G27  21756144.211      -65871.273       -2558.657           1.500  
G30  25310182.269       83744.138        3445.094          59.000  
> 2023  5 18  0  1 12.0688020  0 10                     
G 1  24278698.034      259159.325        3897.943          59.750  
G 4  23632582.179     -157578.373       -2853.606          61.000  
G 7  22508283.975      149552.291        2719.212           0.500  
G 8  20630752.963      -26516.296        -639.603           4.500  
G 9  23415056.051      -67610.875       -1762.036          62.000  
G16  23112834.759      -72010.985       -1924.266          62.750  
G21  21707209.671       98737.670        2627.050           0.750  
G26  25255285.178      -64207.983       -2361.154          57.750  
G27  21756193.878      -66127.267       -2560.744           1.500  
G30  25310113.710       84088.664        3448.071          58.500  
> 2023  5 18  0  1 12.1688020  0 10                     
G 1  24278623.599      259549.097        3898.191          59.750  
G 4  23632636.289     -157863.720       -2854.227          61.000  
G 7  22508232.432      149824.234        2720.176           0.500  
G 8  20630765.207      -26580.313        -639.509           4.500  
G 9  23415088.788      -67787.468       -1766.199          62.000  
G16  23112871.064      -72203.393       -1924.787          62.750  
G21  21707158.778       99000.377        2626.709           0.750  
G26  25255331.895      -64444.010       -2358.788          57.750  
G27  21756242.755      -66383.248       -2560.031           1.500  
G30  25310045.904       84433.154        3444.650          58.500  
> 2023  5 18  0  1 12.2688020  0 10                     
G 1  24278549.699      259938.864        3897.530          59.750  
G 4  23632690.511     -158149.072       -2854.305          61.000  
G 7  22508181.114      150096.167        2719.516           0.500  
G 8  20630777.572      -26644.346        -639.120           4.500  
G 9  23415122.886      -67964.191       -1767.070          62.000  
G16  23112907.372      -72395.796       -1924.339          63.000  
G21  21707109.610       99263.068        2627.348           0.750  
G26  25255374.383      -64680.004       -2360.105          57.750  
G27  21756290.978      -66639.218       -2560.256           1.500  
G30  25309986.799       84777.646        3444.697          58.750  
> 2023  5 18  0  1 12.3688020  0 10                     
G 1  24278474.979      260328.637        3897.849          59.750  
G 4  23632744.894     -158434.408       -2853.914          61.000  
G 7  22508129.270      150368.100        2719.656           0.500  
G 8  20630789.647      -26708.382        -640.280           4.500  
G 9  23415156.328      -68140.927       -1767.137          62.000  
G16  23112943.956      -72588.197       -1923.904          62.750  
G21  21707060.144       99525.753        2626.342           0.750  
G26  25255417.766      -64916.020       -2358.505          58.000  
G27  21756341.351      -66895.190       -2560.592           1.500  
G30  25309913.176       85122.133        3444.663          58.750  
> 2023  5 18  0  1 12.4688020  0 10                     
G 1  24278400.035      260718.392        3897.918          59.750  
G 4  23632799.506     -158719.752       -2853.407          61.000  
G 7  22508076.992      150640.026        2719.507           0.500  
G 8  20630801.631      -26772.423        -640.429           4.500  
G 9  23415189.945      -68317.659       -1766.953          62.000  
G16  23112980.790      -72780.557       -1922.636          62.750  
G21  21707010.810       99788.439        2627.312           0.750  
G26  25255462.883      -65152.028       -2360.225          58.000  
G27  21756387.637      -67151.168       -2560.158           1.500  
G30  25309855.445       85466.619        3444.547          58.500  
> 2023  5 18  0  1 12.5688020  0 10                     
G 1  24278326.292      261108.167        3897.919          59.750  
G 4  23632853.349     -159005.100       -2853.031          61.000  
G 7  22508025.504      150911.948        2719.449           0.500  
G 8  20630813.636      -26836.468        -640.301           4.500  
G 9  23415223.423      -68494.406       -1767.542          62.000  
G16  23113017.843      -72973.010       -1923.688          63.000  
G21  21706960.557      100051.130        2626.874           0.750  
G26  25255509.214      -65388.073       -2360.754          58.250  
G27  21756438.618      -67407.161       -2560.052           1.500  
G30  25309783.640       85811.138        3444.541          58.750  
> 2023  5 18  0  1 12.6688020  0 10                     
G 1  24278251.761      261497.927        3896.518          59.750  
G 4  23632907.797     -159290.457       -2853.720          61.000  
G 7  22507973.439      151183.868        2718.920           0.500  
G 8  20630824.962      -26900.524        -640.424           4.500  
G 9  23415256.955      -68671.152       -1749.073          62.000  
G16  23113054.730      -73165.306       -1884.034          63.000  
G21  21706910.105      100313.893        2652.185           0.750  
G26  25255554.134      -65624.068       -2360.139          58.000  
G27  21756487.234      -67663.139       -2559.327           1.500  
G30  25309721.461       86155.639        3444.835          58.750  
> 2023  5 18  0  1 12.7688020  0 10                     
G 1  24278177.807      261887.718        3914.640          59.750  
G 4  23632961.817     -159575.812       -2852.969          61.000  
G 7  22507921.902      151455.789        2719.226           0.500  
G 8  20630837.534      -26964.570        -640.285           4.500  
G 9  23415290.208      -68847.886       -1766.638          62.000  
G16  23113090.572      -73357.831       -1924.290          62.750  
G21  21706860.832      100576.330        2643.040           0.750  
G26  25255597.532      -65860.081       -2376.484          57.750  
G27  21756534.629      -67918.895       -2547.421           1.500  
G30  25309659.543       86499.856        3446.519          59.000  
> 2023  5 18  0  1 12.8688020  0 10                     
G 1  24278104.030      262277.476        3897.650          59.750  
G 4  23633016.119     -159861.156       -2853.056          61.000  
G 7  22507869.987      151727.710        2719.044           0.500  
G 8  20630849.361      -27028.629        -640.316           4.500  
G 9  23415323.773      -69024.549       -1741.972          62.000  
G16  23113127.795      -73550.232       -1923.815          62.750  
G21  21706811.195      100839.143        2628.106           0.750  
G26  25255640.467      -66096.138       -2361.989          58.000  
G27  21756583.153      -68175.130       -2559.985           1.500  
G30  25309592.633       86844.600        3444.596          58.750  
> 2023  5 18  0  1 12.9688020  0 10                     
G 1  24278030.309      262667.244        3897.683          59.750  
G 4  23633070.958     -160146.517       -2853.145          61.000  
G 7  22507818.472      151999.621        2719.031           0.500  
G 8  20630861.270      -27092.691        -640.046           4.500  
G 9  23415358.263      -69201.411       -1758.833          62.000  
G16  23113163.108      -73742.644       -1924.434          63.000  
G21  21706760.821      101101.791        2626.588           0.750  
G26  25255689.043      -66332.155       -2359.516          58.000  
G27  21756631.039      -68431.122       -2559.910           1.500  
G30  25309526.232       87189.088        3444.692          58.750  
> 2023  5 18  0  1 13.0688020  0 10                     
G 1  24277956.166      263057.021        3897.819          59.750  
G 4  23633124.571     -160431.866       -2852.178          61.000  
G 7  22507766.755      152271.534        2718.980           0.500  
G 8  20630873.998      -27156.768        -641.165           4.500  
G 9  23415391.876      -69378.158       -1766.984          62.000  
G16  23113200.385      -73935.062       -1924.896          62.750  
G21  21706710.456      101364.456        2627.308           0.750  
G26  25255733.592      -66568.176       -2361.773          57.750  
G27  21756679.942      -68687.130       -2559.994           1.500  
G30  25309464.312       87533.592        3445.503          58.750  
> 2023  5 18  0  1 13.1688020  0 10                     
G 1  24277881.915      263446.786        3897.605          59.750  
G 4  23633178.771     -160717.228       -2852.771          61.000  
G 7  22507714.796      152543.447        2719.016           0.500  
G 8  20630885.868      -27220.831        -640.622           4.500  
G 9  23415424.955      -69554.930       -1768.257          62.000  
G16  23113237.645      -74127.473       -1925.095          62.750  
G21  21706660.040      101627.110        2626.785           0.750  
G26  25255779.815      -66804.204       -2359.407          58.000  
G27  21756728.759      -68943.131       -2560.057           1.500  
G30  25309393.611       87878.095        3444.285          58.750  
> 2023  5 18  0  1 13.2688020  0 10                     
G 1  24277807.092      263836.569        3898.174          59.750  
G 4  23633233.626     -161002.585       -2852.244          61.000  
G 7  22507663.671      152815.338        2718.636           0.500  
G 8  20630898.470      -27284.910        -640.701           4.500  
G 9  23415458.973      -69731.704       -1768.909          62.000  
G16  23113273.574      -74319.884       -1924.779          63.000  
G21  21706610.142      101889.752        2625.692           0.750  
G26  25255822.174      -67040.220       -2358.690          58.000  
G27  21756778.361      -69199.141       -2560.245           1.500  
G30  25309328.630       88222.585        3445.290          59.000  
> 2023  5 18  0  1 13.3688020  0 10                     
G 1  24277733.305      264226.334        3898.368          59.750  
G 4  23633288.241     -161287.950       -2853.842          61.000  
G 7  22507611.743      153087.247        2719.627           0.500  
G 8  20630911.098      -27348.991        -640.703           4.500  
G 9  23415492.358      -69908.462       -1767.001          62.000  
G16  23113310.204      -74512.294       -1923.813          63.000  
G21  21706560.403      102152.395        2626.060           0.750  
G26  25255866.853      -67276.240       -2360.349          58.000  
G27  21756827.242      -69455.138       -2559.618           1.500  
G30  25309262.819       88567.089        3443.866          58.750  
> 2023  5 18  0  1 13.4688020  0 10                     
G 1  24277658.430      264616.108        3898.048          59.750  
G 4  23633342.429     -161573.306       -2853.406          61.000  
G 7  22507560.225      153359.149        2719.526           0.500  
G 8  20630922.210      -27413.079        -640.542           4.500  
G 9  23415525.783      -70085.245       -1767.676          62.000  
G16  23113346.529      -74704.721       -1924.082          63.000  
G21  21706511.403      102415.032        2626.565           0.750  
G26  25255908.741      -67512.245       -2356.751          58.000  
G27  21756876.181      -69711.144       -2559.619           1.500  
G30  25309196.133       88911.584        3445.305          58.750  
> 2023  5 18  0  1 13.5688020  0 10                     
G 1  24277584.698      265005.878        3897.574          59.750  
G 4  23633396.308     -161858.682       -2854.302          61.000  
G 7  22507508.167      153631.046        2719.538           0.500  
G 8  20630933.307      -27477.161        -640.722           4.500  
G 9  23415561.231      -70262.024       -1766.865          62.000  
G16  23113383.787      -74897.059       -1935.033          62.750  
G21  21706460.685      102677.647        2625.356           0.750  
G26  25255956.805      -67748.383       -2310.842          58.000  
G27  21756925.565      -69967.160       -2573.269           1.500  
G30  25309126.465       89256.103        3468.714          58.750  
> 2023  5 18  0  1 13.6688020  0 10                     
G 1  24277510.557      265395.648        3898.308          59.750  
G 4  23633450.030     -162144.044       -2854.084          61.000  
G 7  22507456.549      153902.935        2719.573           0.500  
G 8  20630947.264      -27541.254        -640.815           4.500  
G 9  23415593.756      -70438.806       -1767.948          62.000  
G16  23113420.671      -75089.526       -1915.867          62.750  
G21  21706410.221      102940.300        2626.450           0.750  
G26  25256004.952      -67984.333       -2361.400          58.000  
G27  21756973.877      -70223.168       -2579.752           1.500  
G30  25309063.866       89600.568        3446.206          58.750  
> 2023  5 18  0  1 13.7688020  0 10                     
G 1  24277436.145      265785.414        3897.214          59.750  
G 4  23633505.324     -162429.401       -2853.187          61.000  
G 7  22507405.793      154174.825        2719.027           0.500  
G 8  20630960.346      -27605.354        -640.948           4.500  
G 9  23415627.005      -70615.600       -1768.280          62.000  
G16  23113456.749      -75281.970       -1920.801          63.000  
G21  21706360.024      103202.913        2626.003           0.750  
G26  25256048.980      -68220.349       -2360.574          58.000  
G27  21757021.809      -70479.176       -2559.228           1.500  
G30  25308996.282       89945.042        3442.067          58.750  
> 2023  5 18  0  1 13.8688020  0 10                     
G 1  24277361.417      266175.192        3898.605          59.750  
G 4  23633560.079     -162714.765       -2853.058          61.000  
G 7  22507353.442      154446.715        2718.738           0.500  
G 8  20630972.240      -27669.462        -640.981           4.500  
G 9  23415661.035      -70792.383       -1767.376          62.000  
G16  23113492.685      -75474.358       -1907.127          62.750  
G21  21706310.961      103465.524        2624.920           0.750  
G26  25256091.717      -68456.362       -2358.686          58.000  
G27  21757070.168      -70735.203       -2560.407           1.500  
G30  25308933.721       90289.550        3444.305          58.500  
> 2023  5 18  0  1 13.9688020  0 10                     
G 1  24277287.471      266564.961        3897.399          59.750  
G 4  23633614.007     -163000.139       -2853.425          61.000  
G 7  22507301.123      154718.600        2718.291           0.500  
G 8  20630983.486      -27733.567        -641.006           4.500  
G 9  23415693.961      -70969.172       -1766.679          62.000  
G16  23113529.650      -75666.801       -1923.867          62.750  
G21  21706260.795      103728.140        2625.554           0.750  
G26  25256137.014      -68692.380       -2358.086          57.750  
G27  21757119.335      -70991.220       -2560.253           1.500  
G30  25308867.715       90634.012        3444.249          58.750  
> 2023  5 18  0  1 14.0688020  0 10                     
G 1  24277213.752      266954.731        3897.638          59.750  
G 4  23633668.321     -163285.512       -2853.973          61.000  
G 7  22507249.300      154990.488        2719.024           0.500  
G 8  20630995.100      -27797.681        -641.148           4.500  
G 9  23415728.280      -71145.984       -1768.090          62.000  
G16  23113566.707      -75859.216       -1924.043          63.000  
G21  21706210.841      103990.756        2625.293           0.750  
G26  25256181.494      -68928.426       -2358.408          58.000  
G27  21757167.868      -71247.247       -2560.877           1.500  
G30  25308802.340       90978.517        3446.016          58.750  
> 2023  5 18  0  1 14.1688020  0 10                     
G 1  24277139.657      267344.499        3897.790          59.750  
G 4  23633723.078     -163570.881       -2853.715          61.000  
G 7  22507197.729      155262.356        2718.669           0.500  
G 8  20631008.597      -27861.797        -641.296           4.500  
G 9  23415762.085      -71322.610       -1735.114          62.000  
G16  23113602.930      -76051.643       -1924.301          62.750  
G21  21706160.995      104253.369        2626.251           1.000  
G26  25256224.427      -69164.452       -2358.938          58.250  
G27  21757216.725      -71503.274       -2560.151           1.500  
G30  25308735.631       91323.026        3446.703          58.750  
> 2023  5 18  0  1 14.2688020  0 10                     
G 1  24277065.681      267734.281        3897.688          59.750  
G 4  23633776.689     -163856.252       -2853.876          61.000  
G 7  22507146.457      155534.232        2718.976           0.500  
G 8  20631019.030      -27925.923        -641.547           4.500  
G 9  23415795.148      -71499.586       -1767.894          62.000  
G16  23113639.979      -76244.060       -1924.221          62.750  
G21  21706109.585      104515.964        2626.137           0.750  
G26  25256273.203      -69400.494       -2360.704          58.000  
G27  21757265.861      -71759.303       -2560.086           1.500  
G30  25308670.876       91667.482        3444.031          58.750  
> 2023  5 18  0  1 14.3688020  0 10                     
G 1  24276991.902      268124.046        3898.259          59.750  
G 4  23633830.695     -164141.634       -2853.944          61.000  
G 7  22507094.623      155805.899        2701.448           0.500  
G 8  20631033.314      -27990.045        -640.524           4.500  
G 9  23415829.284      -71676.397       -1767.851          62.000  
G16  23113676.636      -76436.440       -1909.064          63.000  
G21  21706060.405      104778.555        2625.225           0.750  
G26  25256318.668      -69636.495       -2359.998          57.750  
G27  21757314.916      -72015.337       -2560.674           1.500  
G30  25308606.985       92011.981        3445.164          58.750  
> 2023  5 18  0  1 14.4688020  0 10                     
G 1  24276918.237      268513.823        3898.173          59.750  
G 4  23633885.692     -164427.015       -2854.369          61.000  
G 7  22507042.018      156077.971        2719.015           0.500  
G 8  20631046.149      -28054.169        -640.717           4.750  
G 9  23415862.883      -71853.214       -1768.418          62.000  
G16  23113712.870      -76628.911       -1923.973          62.750  
G21  21706010.621      105041.148        2625.400           0.750  
G26  25256362.184      -69872.548       -2359.635          58.000  
G27  21757362.569      -72271.362       -2559.562           1.500  
G30  25308542.375       92356.447        3442.349          58.750  
> 2023  5 18  0  1 14.5688020  0 10                     
G 1  24276843.235      268903.592        3898.026          59.750  
G 4  23633939.510     -164712.383       -2853.349          61.000  
G 7  22506990.439      156349.793        2711.195           0.500  
G 8  20631057.575      -28118.298        -640.491           4.500  
G 9  23415896.178      -72030.037       -1769.228          62.000  
G16  23113749.783      -76821.341       -1924.097          63.000  
G21  21705960.785      105303.883        2646.788           0.750  
G26  25256409.482      -70108.571       -2358.357          58.000  
G27  21757410.709      -72527.400       -2560.012           1.500  
G30  25308479.083       92700.925        3443.571          58.750  
> 2023  5 18  0  1 14.6688020  0 10                     
G 1  24276768.616      269293.358        3897.345          59.750  
G 4  23633993.929     -164997.766       -2853.188          61.000  
G 7  22506938.943      156621.700        2718.540           0.500  
G 8  20631071.005      -28182.447        -641.247           4.500  
G 9  23415929.751      -72206.855       -1768.337          62.000  
G16  23113786.325      -77013.767       -1924.432          63.000  
G21  21705910.826      105566.319        2625.896           0.750  
G26  25256454.056      -70344.607       -2358.708          58.000  
G27  21757459.120      -72783.444       -2560.254           1.500  
G30  25308412.845       93045.425        3445.017          58.250  
> 2023  5 18  0  1 14.7688020  0 10                     
G 1  24276694.389      269683.128        3897.411          59.750  
G 4  23634048.397     -165283.141       -2852.601          61.000  
G 7  22506887.099      156893.568        2718.642           0.500  
G 8  20631084.279      -28246.593        -641.017           4.500  
G 9  23415964.199      -72383.680       -1768.038          62.000  
G16  23113822.889      -77206.193       -1924.733          62.750  
G21  21705860.767      105828.891        2624.836           0.750  
G26  25256496.765      -70580.653       -2358.939          58.000  
G27  21757508.784      -73039.499       -2561.029           1.500  
G30  25308345.234       93389.933        3445.641          58.750  
> 2023  5 18  0  1 14.8688020  0 10                     
G 1  24276620.396      270072.908        3898.042          59.750  
G 4  23634102.442     -165568.530       -2853.681          61.000  
G 7  22506835.610      157165.427        2718.178           0.500  
G 8  20631095.148      -28310.744        -641.695           4.500  
G 9  23415997.466      -72560.509       -1767.613          62.000  
G16  23113859.908      -77398.616       -1924.394          62.750  
G21  21705811.307      106091.481        2626.731           0.750  
G26  25256541.707      -70816.717       -2361.988          58.000  
G27  21757557.759      -73295.529       -2559.893           1.500  
G30  25308277.976       93734.395        3444.632          59.000  
> 2023  5 18  0  1 14.9688020  0 10                     
G 1  24276546.036      270462.674        3897.952          59.750  
G 4  23634156.084     -165853.914       -2853.240          61.000  
G 7  22506783.846      157437.282        2718.449           0.500  
G 8  20631106.122      -28374.901        -641.629           4.500  
G 9  23416031.253      -72737.379       -1746.776          62.000  
G16  23113896.421      -77591.044       -1924.415          62.750  
G21  21705762.477      106354.040        2627.266           0.750  
G26  25256583.941      -71052.733       -2362.365          57.500  
G27  21757607.337      -73551.571       -2560.740           1.500  
G30  25308212.531       94078.880        3447.337          58.500  
> 2023  5 18  0  1 15.0688020  0 10                     
G 1  24276471.519      270852.447        3897.623          59.750  
G 4  23634211.363     -166139.291       -2854.181          61.000  
G 7  22506733.037      157709.132        2718.337           0.500  
G 8  20631118.420      -28439.052        -640.872           4.500  
G 9  23416064.271      -72914.372       -1783.848          62.000  
G16  23113933.004      -77783.479       -1924.587          62.750  
G21  21705711.626      106616.595        2625.470           0.750  
G26  25256629.367      -71288.743       -2358.669          58.000  
G27  21757654.533      -73807.634       -2559.485           1.500  
G30  25308150.492       94423.338        3442.321          58.750  
> 2023  5 18  0  1 15.1688020  0 10                     
G 1  24276397.738      271242.294        3902.557          59.750  
G 4  23634265.081     -166424.587       -2847.724          61.000  
G 7  22506680.812      157980.865        2704.520           0.500  
G 8  20631129.922      -28503.218        -641.488           4.500  
G 9  23416098.477      -73090.803       -1744.773          62.000  
G16  23113968.750      -77975.984       -1950.662          62.750  
G21  21705661.421      106879.145        2624.687           0.750  
G26  25256677.483      -71524.808       -2328.383          57.750  
G27  21757703.949      -74063.453       -2552.704           1.500  
G30  25308084.746       94767.467        3441.261          58.750  
> 2023  5 18  0  1 15.2688020  0 10                     
G 1  24276322.623      271631.989        3897.170          59.750  
G 4  23634319.638     -166710.066       -2854.140          61.000  
G 7  22506629.068      158252.826        2718.245           0.500  
G 8  20631143.049      -28567.385        -641.363           4.500  
G 9  23416132.740      -73267.873       -1769.597          62.000  
G16  23114005.551      -78168.339       -1924.105          62.750  
G21  21705610.859      107141.709        2625.386           0.750  
G26  25256724.609      -71760.823       -2358.548          58.000  
G27  21757752.938      -74319.745       -2561.717           1.500  
G30  25308019.019       95112.318        3447.110          58.500  
> 2023  5 18  0  1 15.3688020  0 10                     
G 1  24276249.270      272021.758        3897.139          59.750  
G 4  23634373.398     -166995.453       -2853.221          61.000  
G 7  22506577.100      158524.672        2717.882           0.500  
G 8  20631153.626      -28631.555        -641.080           4.500  
G 9  23416165.729      -73444.724       -1769.165          62.000  
G16  23114043.380      -78360.763       -1923.761          62.750  
G21  21705560.603      107404.258        2625.838           0.750  
G26  25256769.461      -71996.885       -2362.669          58.000  
G27  21757800.242      -74575.808       -2561.306           1.500  
G30  25307957.357       95456.798        3443.794          58.750  
> 2023  5 18  0  1 15.4688020  0 10                     
G 1  24276174.282      272411.525        3897.344          59.750  
G 4  23634428.248     -167280.849       -2853.569          61.000  
G 7  22506525.783      158796.511        2717.809           0.500  
G 8  20631167.445      -28695.734        -641.631           4.500  
G 9  23416199.117      -73621.584       -1768.718          62.000  
G16  23114079.060      -78553.202       -1923.667          63.000  
G21  21705510.727      107666.787        2625.401           0.750  
G26  25256811.175      -72232.877       -2358.602          57.750  
G27  21757850.813      -74831.865       -2560.609           1.500  
G30  25307885.076       95801.275        3445.066          58.750  
> 2023  5 18  0  1 15.5688020  0 10                     
G 1  24276100.235      272801.289        3897.310          59.750  
G 4  23634483.600     -167566.241       -2853.720          61.000  
G 7  22506473.183      159068.350        2717.901           0.500  
G 8  20631179.155      -28759.915        -641.529           4.500  
G 9  23416233.403      -73798.440       -1768.812          62.000  
G16  23114116.140      -78745.630       -1924.272          62.750  
G21  21705460.985      107929.322        2625.792           0.750  
G26  25256857.265      -72468.935       -2360.217          58.000  
G27  21757899.469      -75087.922       -2560.662           1.500  
G30  25307818.969       96145.755        3445.215          58.750  
> 2023  5 18  0  1 15.6688020  0 10                     
G 1  24276026.313      273191.054        3897.279          59.750  
G 4  23634536.305     -167851.636       -2853.761          61.000  
G 7  22506421.532      159340.179        2718.324           0.500  
G 8  20631190.493      -28824.105        -642.085           4.500  
G 9  23416267.551      -73975.298       -1768.851          62.000  
G16  23114152.369      -78938.064       -1923.899          62.750  
G21  21705410.989      108191.855        2624.259           0.750  
G26  25256902.805      -72704.990       -2359.993          58.000  
G27  21757946.870      -75343.985       -2560.376           1.500  
G30  25307758.655       96490.220        3443.770          58.750  
> 2023  5 18  0  1 15.7688020  0 10                     
G 1  24275952.689      273580.824        3897.503          59.750  
G 4  23634591.461     -168137.018       -2853.233          61.000  
G 7  22506369.573      159612.013        2718.217           0.500  
G 8  20631203.027      -28888.302        -642.859           4.500  
G 9  23416300.736      -74152.173       -1769.016          62.000  
G16  23114189.136      -79130.508       -1924.380          62.750  
G21  21705362.206      108454.386        2625.658           0.750  
G26  25256944.470      -72941.045       -2360.407          58.000  
G27  21757994.694      -75600.053       -2560.220           1.500  
G30  25307692.013       96834.708        3444.483          58.500  
> 2023  5 18  0  1 15.8688020  0 10                     
G 1  24275878.885      273970.592        3898.019          59.750  
G 4  23634645.225     -168422.419       -2853.932          61.000  
G 7  22506318.027      159883.839        2718.134           0.500  
G 8  20631215.299      -28952.493        -642.897           4.500  
G 9  23416333.349      -74329.032       -1768.830          62.000  
G16  23114226.050      -79322.943       -1924.017          63.000  
G21  21705312.191      108716.909        2625.222           0.750  
G26  25256991.561      -73177.062       -2359.439          58.000  
G27  21758044.481      -75856.128       -2560.544           1.500  
G30  25307623.940       97179.194        3446.242          58.750  
> 2023  5 18  0  1 15.9688020  0 10                     
G 1  24275804.490      274360.467        3900.032          59.750  
G 4  23634699.298     -168707.815       -2853.635          61.000  
G 7  22506266.449      160155.664        2717.778           0.500  
G 8  20631227.483      -29016.691        -642.565           4.500  
G 9  23416367.524      -74505.903       -1768.426          62.000  
G16  23114262.502      -79515.431       -1931.190          63.000  
G21  21705261.674      108979.429        2625.197           0.750  
G26  25257036.143      -73413.107       -2359.430          58.000  
G27  21758094.047      -76112.252       -2534.023           1.500  
G30  25307558.108       97523.665        3443.888          58.750  
> 2023  5 18  0  1 16.0688020  0 10                     
G 1  24275730.411      274750.120        3898.348          59.750  
G 4  23634754.375     -168993.217       -2853.182          61.000  
G 7  22506214.799      160427.488        2718.047           0.500  
G 8  20631240.711      -29080.894        -642.720           4.500  
G 9  23416401.371      -74682.785       -1768.544          62.000  
G16  23114298.713      -79707.822       -1924.370          63.000  
G21  21705211.527      109241.945        2624.426           0.750  
G26  25257081.416      -73649.154       -2358.949          58.000  
G27  21758142.689      -76368.282       -2560.424           1.500  
G30  25307493.622       97868.137        3442.997          58.750  
> 2023  5 18  0  1 16.1688020  0 10                     
G 1  24275656.282      275139.880        3897.282          59.750  
G 4  23634808.847     -169278.614       -2853.493          61.000  
G 7  22506163.368      160699.298        2718.428           0.500  
G 8  20631252.860      -29145.099        -642.030           4.500  
G 9  23416435.208      -74859.664       -1768.440          62.000  
G16  23114335.263      -79900.302       -1909.868          62.750  
G21  21705162.112      109504.462        2624.753           0.750  
G26  25257124.537      -73885.219       -2361.870          58.000  
G27  21758192.532      -76624.354       -2560.729           1.500  
G30  25307426.545       98212.613        3445.708          58.750  
> 2023  5 18  0  1 16.2688020  0 10                     
G 1  24275581.983      275529.646        3897.466          59.750  
G 4  23634862.524     -169564.019       -2853.722          61.000  
G 7  22506111.795      160970.948        2715.745           0.500  
G 8  20631265.942      -29209.314        -642.121           4.500  
G 9  23416468.932      -75036.458       -1761.104          62.000  
G16  23114372.164      -80092.717       -1924.365          63.000  
G21  21705112.333      109766.963        2624.574           0.750  
G26  25257169.300      -74121.262       -2362.225          58.000  
G27  21758239.715      -76880.431       -2560.278           1.500  
G30  25307359.265       98557.075        3445.713          58.750  
> 2023  5 18  0  1 16.3688020  0 10                     
G 1  24275507.387      275919.417        3897.464          59.750  
G 4  23634916.841     -169849.420       -2853.529          61.000  
G 7  22506059.730      161242.926        2718.429           0.500  
G 8  20631278.189      -29273.529        -642.075           4.500  
G 9  23416503.017      -75213.447       -1768.931          62.000  
G16  23114408.855      -80285.157       -1924.302          62.750  
G21  21705063.267      110029.460        2624.593           1.000  
G26  25257210.278      -74357.289       -2362.071          58.000  
G27  21758287.467      -77136.519       -2560.642           1.500  
G30  25307300.212       98901.542        3444.054          58.500  
> 2023  5 18  0  1 16.4688020  0 10                     
G 1  24275433.308      276309.184        3898.177          59.750  
G 4  23634971.854     -170134.833       -2854.727          61.000  
G 7  22506008.350      161514.732        2718.903           0.500  
G 8  20631289.309      -29337.753        -642.687           4.500  
G 9  23416535.611      -75390.340       -1768.448          62.000  
G16  23114445.519      -80477.598       -1924.131          63.000  
G21  21705012.090      110291.960        2624.409           0.750  
G26  25257256.615      -74593.346       -2360.313          58.000  
G27  21758337.050      -77392.603       -2560.899           1.500  
G30  25307231.268       99246.022        3443.194          58.750  
> 2023  5 18  0  1 16.5688020  0 10                     
G 1  24275358.594      276698.948        3897.811          59.750  
G 4  23635026.954     -170420.235       -2854.379          61.000  
G 7  22505956.479      161786.537        2717.609           0.500  
G 8  20631301.732      -29401.977        -642.087           4.500  
G 9  23416569.292      -75567.245       -1768.920          62.000  
G16  23114481.925      -80670.044       -1924.306          62.750  
G21  21704960.580      110554.456        2625.636           1.000  
G26  25257310.136      -74829.418       -2362.806          58.000  
G27  21758386.161      -77648.693       -2560.978           1.500  
G30  25307165.999       99590.501        3445.467          58.750  
> 2023  5 18  0  1 16.6688020  0 10                     
G 1  24275284.727      277088.718        3897.524          59.750  
G 4  23635080.286     -170705.638       -2854.323          61.000  
G 7  22505904.744      162058.353        2718.093           0.500  
G 8  20631313.340      -29466.217        -643.299           4.500  
G 9  23416602.451      -75744.141       -1768.807          62.000  
G16  23114519.453      -80862.490       -1924.659          62.750  
G21  21704911.411      110816.945        2625.353           0.750  
G26  25257352.862      -75065.448       -2358.496          58.000  
G27  21758434.921      -77904.792       -2560.734           1.500  
G30  25307100.264       99934.966        3443.662          58.500  
> 2023  5 18  0  1 16.7688020  0 10                     
G 1  24275210.423      277478.468        3898.290          59.750  
G 4  23635134.082     -170991.038       -2853.778          61.000  
G 7  22505852.550      162330.151        2717.732           0.500  
G 8  20631324.627      -29530.441        -641.700           4.500  
G 9  23416636.624      -75921.045       -1769.445          62.000  
G16  23114555.625      -81054.931       -1924.669          63.000  
G21  21704862.224      111079.417        2624.361           0.750  
G26  25257394.680      -75301.467       -2356.239          58.000  
G27  21758483.555      -78160.885       -2561.099           1.500  
G30  25307034.894      100279.429        3444.333          58.750  
> 2023  5 18  0  1 16.8688020  0 10                     
G 1  24275136.262      277868.227        3898.728          59.750  
G 4  23635189.209     -171276.457       -2854.326          61.000  
G 7  22505801.476      162602.310        2724.513           0.500  
G 8  20631337.692      -29594.687        -641.984           4.500  
G 9  23416670.545      -76097.953       -1769.180          62.000  
G16  23114591.770      -81247.380       -1924.078          62.750  
G21  21704812.490      111341.895        2624.959           0.750  
G26  25257440.280      -75537.556       -2361.726          57.750  
G27  21758531.242      -78416.978       -2560.717           1.500  
G30  25306968.206      100623.891        3443.710          58.750  
> 2023  5 18  0  1 16.9688020  0 10                     
G 1  24275063.020      278257.987        3897.642          59.750  
G 4  23635243.333     -171561.886       -2854.576          61.000  
G 7  22505749.483      162873.734        2718.000           0.500  
G 8  20631350.145      -29658.931        -642.249           4.500  
G 9  23416703.569      -76274.862       -1768.803          62.000  
G16  23114628.605      -81439.830       -1924.268          63.000  
G21  21704762.451      111604.365        2625.042           0.750  
G26  25257483.873      -75773.574       -2360.067          58.000  
G27  21758580.429      -78673.080       -2561.359           1.500  
G30  25306902.544      100968.380        3445.147          59.000  
> 2023  5 18  0  1 17.0688020  0 10                     
G 1  24274989.404      278647.755        3898.167          59.750  
G 4  23635297.115     -171847.292       -2854.069          61.000  
G 7  22505697.745      163145.524        2717.313           0.500  
G 8  20631363.733      -29723.182        -642.312           4.500  
G 9  23416737.266      -76451.784       -1769.321          62.000  
G16  23114664.857      -81632.279       -1924.817          63.000  
G21  21704711.819      111866.834        2624.611           0.750  
G26  25257529.901      -76009.642       -2360.723          58.000  
G27  21758628.790      -78929.178       -2561.571           1.500  
G30  25306837.464      101312.839        3445.648          58.500  
> 2023  5 18  0  1 17.1688020  0 10                     
G 1  24274916.149      279037.525        3897.384          59.750  
G 4  23635351.770     -172132.708       -2854.117          61.000  
G 7  22505646.239      163417.321        2717.921           0.500  
G 8  20631375.659      -29787.436        -642.342           4.500  
G 9  23416771.472      -76628.699       -1768.742          62.000  
G16  23114701.842      -81824.731       -1925.358          63.000  
G21  21704661.828      112129.297        2625.146           0.750  
G26  25257573.948      -76245.691       -2359.722          58.000  
G27  21758678.089      -79185.281       -2561.241           1.500  
G30  25306770.239      101657.332        3445.729          58.750  
> 2023  5 18  0  1 17.2688020  0 10                     
G 1  24274841.118      279427.286        3897.360          59.750  
G 4  23635406.114     -172418.121       -2854.180          61.000  
G 7  22505594.441      163689.109        2718.029           0.500  
G 8  20631387.266      -29851.691        -642.194           4.500  
G 9  23416805.616      -76805.635       -1768.616          62.000  
G16  23114738.346      -82017.182       -1924.636          63.000  
G21  21704612.380      112391.758        2624.563           0.750  
G26  25257620.079      -76481.764       -2361.102          57.750  
G27  21758726.802      -79441.390       -2560.890           1.500  
G30  25306706.460      102001.795        3445.018          58.750  
> 2023  5 18  0  1 17.3688020  0 10                     
G 1  24274766.575      279816.945        3866.210          59.750  
G 4  23635460.799     -172703.546       -2854.339          61.000  
G 7  22505543.171      163960.712        2716.295           0.500  
G 8  20631399.380      -29915.956        -642.347           4.500  
G 9  23416839.115      -76982.918       -1794.845          62.000  
G16  23114774.760      -82209.650       -1914.543          62.750  
G21  21704562.470      112654.167        2628.115           0.750  
G26  25257663.048      -76717.859       -2383.236          58.000  
G27  21758776.070      -79697.365       -2585.928           1.500  
G30  25306642.157      102346.555        3466.384          58.750  
> 2023  5 18  0  1 17.4688020  0 10                     
G 1  24274691.434      280206.819        3897.754          59.750  
G 4  23635514.895     -172988.965       -2854.548          61.000  
G 7  22505491.012      164232.672        2717.744           0.500  
G 8  20631411.594      -29980.229        -642.732           4.500  
G 9  23416871.954      -77159.489       -1769.474          62.000  
G16  23114811.657      -82402.087       -1925.018          62.750  
G21  21704512.726      112916.657        2624.303           0.750  
G26  25257709.043      -76953.851       -2359.849          58.000  
G27  21758824.530      -79953.605       -2561.408           1.500  
G30  25306576.113      102690.713        3445.349          58.500  
> 2023  5 18  0  1 17.5688020  0 10                     
G 1  24274617.687      280596.583        3897.775          59.750  
G 4  23635568.876     -173274.372       -2853.828          61.000  
G 7  22505439.505      164504.455        2717.997           0.500  
G 8  20631424.236      -30044.494        -642.006           4.500  
G 9  23416904.828      -77336.684       -1787.929          62.000  
G16  23114848.318      -82594.462       -1912.421          63.000  
G21  21704462.874      113179.108        2625.002           0.750  
G26  25257752.992      -77189.927       -2361.437          58.000  
G27  21758873.241      -80209.724       -2560.605           1.500  
G30  25306510.696      103035.163        3444.121          58.750  
> 2023  5 18  0  1 17.6688020  0 10                     
G 1  24274543.230      280986.350        3897.973          59.750  
G 4  23635623.171     -173559.805       -2854.338          61.000  
G 7  22505387.674      164776.227        2717.023           0.500  
G 8  20631436.982      -30108.778        -642.728           4.500  
G 9  23416939.854      -77513.368       -1769.060          62.000  
G16  23114884.854      -82786.993       -1924.239          62.750  
G21  21704411.532      113441.543        2624.529           0.750  
G26  25257800.142      -77425.984       -2362.875          57.750  
G27  21758922.953      -80465.843       -2561.436           1.500  
G30  25306445.508      103379.625        3444.889          58.750  
> 2023  5 18  0  1 17.7688020  0 10                     
G 1  24274469.072      281376.112        3897.580          59.750  
G 4  23635676.996     -173845.240       -2854.223          61.000  
G 7  22505335.609      165048.002        2718.040           0.500  
G 8  20631449.922      -30173.060        -642.970           4.750  
G 9  23416973.580      -77690.313       -1769.800          62.000  
G16  23114921.597      -82979.450       -1924.398          63.000  
G21  21704362.100      113703.972        2624.763           0.750  
G26  25257844.745      -77662.008       -2361.759          57.750  
G27  21758970.660      -80721.963       -2561.313           1.500  
G30  25306379.579      103724.094        3444.807          58.750  
> 2023  5 18  0  1 17.8688020  0 10                     
G 1  24274394.999      281765.878        3897.355          59.750  
G 4  23635731.107     -174130.665       -2854.049          61.000  
G 7  22505284.457      165319.774        2717.811           0.500  
G 8  20631460.048      -30237.343        -642.554           4.500  
G 9  23417007.841      -77867.366       -1774.643          62.000  
G16  23114958.178      -83171.907       -1924.496          63.000  
G21  21704312.666      113966.401        2624.463           0.750  
G26  25257889.187      -77898.060       -2358.479          58.000  
G27  21759020.019      -80978.085       -2561.403           1.500  
G30  25306308.198      104068.569        3446.161          59.000  
> 2023  5 18  0  1 17.9688020  0 10                     
G 1  24274320.648      282155.644        3897.932          59.750  
G 4  23635785.845     -174416.103       -2854.463          61.000  
G 7  22505232.152      165591.533        2717.342           0.500  
G 8  20631473.382      -30301.637        -642.915           4.500  
G 9  23417040.753      -78044.209       -1769.084          62.000  
G16  23114995.086      -83364.363       -1924.290          63.000  
G21  21704263.371      114228.822        2623.789           0.750  
G26  25257931.943      -78134.100       -2359.428          57.750  
G27  21759067.908      -81234.213       -2561.344           1.500  
G30  25306244.958      104413.025        3444.978          58.750  
> 2023  5 18  0  1 18.0688020  0 10                     
G 1  24274246.606      282545.405        3896.683          59.750  
G 4  23635839.981     -174701.525       -2853.356          61.000  
G 7  22505180.403      165863.306        2718.008           0.500  
G 8  20631486.123      -30365.929        -642.957           4.500  
G 9  23417074.718      -78221.160       -1769.396          62.000  
G16  23115031.259      -83556.957       -1946.215          62.750  
G21  21704213.215      114491.255        2624.808           0.750  
G26  25257977.042      -78370.187       -2360.417          58.000  
G27  21759115.651      -81490.341       -2560.667           1.500  
G30  25306181.184      104757.484        3442.405          58.500  
> 2023  5 18  0  1 18.1688020  0 10                     
G 1  24274173.126      282935.171        3897.208          59.750  
G 4  23635894.450     -174986.962       -2854.434          61.000  
G 7  22505128.928      166135.068        2717.442           0.500  
G 8  20631497.548      -30430.239        -643.711           4.500  
G 9  23417107.020      -78398.120       -1769.217          62.000  
G16  23115068.194      -83749.284       -1924.418          62.750  
G21  21704163.655      114753.651        2624.306           0.750  
G26  25258021.327      -78606.237       -2360.850          58.000  
G27  21759164.988      -81746.461       -2561.118           1.500  
G30  25306117.080      105101.944        3445.123          58.750  
> 2023  5 18  0  1 18.2688020  0 10                     
G 1  24274099.359      283324.940        3897.490          59.750  
G 4  23635949.279     -175272.387       -2854.539          61.000  
G 7  22505077.656      166406.818        2717.194           0.500  
G 8  20631509.312      -30494.539        -643.400           4.500  
G 9  23417141.578      -78575.090       -1769.635          62.000  
G16  23115104.626      -83941.739       -1923.678          62.750  
G21  21704113.519      115016.063        2625.104           0.750  
G26  25258067.219      -78842.307       -2359.764          58.000  
G27  21759213.666      -82002.606       -2561.308           1.500  
G30  25306052.808      105446.409        3444.946          58.750  
> 2023  5 18  0  1 18.3688020  0 10                     
G 1  24274024.806      283714.703        3897.022          59.750  
G 4  23636003.439     -175557.820       -2854.572          61.000  
G 7  22505025.573      166678.579        2718.017           0.500  
G 8  20631522.023      -30558.845        -643.052           4.500  
G 9  23417174.708      -78752.055       -1769.572          62.000  
G16  23115141.231      -84134.208       -1924.649          63.000  
G21  21704063.203      115278.471        2624.285           0.750  
G26  25258113.418      -79078.376       -2361.178          57.750  
G27  21759263.708      -82258.730       -2561.611           1.500  
G30  25305984.511      105790.879        3444.618          58.750  
> 2023  5 18  0  1 18.4688020  0 10                     
G 1  24273950.302      284104.472        3897.270          59.750  
G 4  23636057.633     -175843.253       -2855.140          61.000  
G 7  22504973.691      166950.335        2717.673           0.500  
G 8  20631534.077      -30623.159        -643.077           4.500  
G 9  23417209.366      -78929.029       -1769.431          62.000  
G16  23115178.022      -84326.673       -1925.102          63.000  
G21  21704013.308      115540.862        2623.556           0.750  
G26  25258158.089      -79314.403       -2358.756          57.750  
G27  21759311.795      -82514.870       -2560.947           1.500  
G30  25305919.350      106135.344        3444.689          58.500  
> 2023  5 18  0  1 18.5688020  0 10                     
G 1  24273875.766      284494.236        3896.959          59.750  
G 4  23636112.219     -176128.687       -2854.774          61.000  
G 7  22504922.025      167222.076        2717.226           0.500  
G 8  20631546.470      -30687.480        -643.432           4.500  
G 9  23417242.688      -79105.997       -1770.051          62.000  
G16  23115214.818      -84519.134       -1925.029          63.000  
G21  21703963.036      115803.207        2624.634           0.750  
G26  25258204.697      -79550.512       -2362.871          58.000  
G27  21759361.121      -82771.012       -2560.908           1.500  
G30  25305851.371      106479.799        3445.352          59.000  
> 2023  5 18  0  1 18.6688020  0 10                     
G 1  24273801.460      284883.994        3896.336          59.750  
G 4  23636166.758     -176414.121       -2854.103          61.000  
G 7  22504870.292      167493.821        2717.232           0.500  
G 8  20631559.146      -30751.800        -642.956           4.500  
G 9  23417277.099      -79282.977       -1769.619          62.000  
G16  23115250.854      -84711.597       -1925.765          63.000  
G21  21703913.018      116065.658        2625.024           0.750  
G26  25258249.377      -79786.546       -2364.216          58.000  
G27  21759408.528      -83027.168       -2561.939           1.500  
G30  25305787.378      106824.238        3443.415          58.500  
> 2023  5 18  0  1 18.7688020  0 10                     
G 1  24273727.335      285273.766        3897.076          59.750  
G 4  23636221.022     -176699.562       -2854.409          61.000  
G 7  22504819.270      167765.562        2717.520           0.500  
G 8  20631571.255      -30816.127        -642.848           4.500  
G 9  23417310.275      -79459.954       -1769.564          62.000  
G16  23115288.454      -84904.058       -1924.661          63.000  
G21  21703862.606      116328.038        2624.350           0.750  
G26  25258292.767      -80022.587       -2360.574          58.250  
G27  21759458.406      -83283.321       -2563.025           1.500  
G30  25305718.092      107168.702        3445.313          58.500  
> 2023  5 18  0  1 18.8688020  0 10                     
G 1  24273653.168      285663.527        3897.585          59.750  
G 4  23636275.155     -176984.996       -2854.245          61.000  
G 7  22504767.855      168037.306        2717.528           0.500  
G 8  20631583.462      -30880.463        -642.833           4.500  
G 9  23417344.223      -79636.943       -1769.710          62.000  
G16  23115324.581      -85096.527       -1924.286          63.000  
G21  21703812.734      116590.417        2623.393           0.750  
G26  25258336.446      -80258.617       -2357.832          57.750  
G27  21759506.519      -83539.460       -2561.690           1.500  
G30  25305657.896      107513.176        3445.532          58.500  
> 2023  5 18  0  1 18.9688020  0 10                     
G 1  24273579.438      286053.304        3897.256          59.750  
G 4  23636329.179     -177270.439       -2853.891          61.000  
G 7  22504714.884      168309.042        2734.696           0.500  
G 8  20631595.919      -30944.810        -643.923           4.500  
G 9  23417377.548      -79813.929       -1769.861          62.000  
G16  23115360.807      -85288.998       -1924.583          63.000  
G21  21703763.974      116852.800        2623.664           0.750  
G26  25258385.456      -80494.738       -2361.634          58.000  
G27  21759555.214      -83795.615       -2560.656           1.500  
G30  25305592.993      107857.633        3442.506          58.500  
> 2023  5 18  0  1 19.0688020  0 10                     
G 1  24273505.277      286443.067        3897.651          59.750  
G 4  23636383.017     -177555.877       -2853.693          61.000  
G 7  22504663.396      168580.774        2717.404           0.500  
G 8  20631606.346      -31009.150        -644.169           4.500  
G 9  23417411.151      -79990.927       -1769.577          62.000  
G16  23115398.214      -85481.466       -1924.468          63.000  
G21  21703713.584      117115.173        2624.552           0.750  
G26  25258430.065      -80730.786       -2362.664          57.750  
G27  21759604.977      -84051.787       -2560.518           1.500  
G30  25305526.379      108202.104        3444.620          58.750  
> 2023  5 18  0  1 19.1688020  0 10                     
G 1  24273431.248      286832.828        3897.385          59.750  
G 4  23636438.025     -177841.328       -2853.481          61.000  
G 7  22504611.885      168852.465        2695.844           0.500  
G 8  20631619.457      -31073.500        -644.527           4.500  
G 9  23417444.769      -80168.083       -1779.496          62.000  
G16  23115434.877      -85673.790       -1882.745          62.750  
G21  21703662.348      117377.534        2623.930           0.750  
G26  25258475.898      -80966.858       -2361.396          57.750  
G27  21759652.870      -84307.955       -2562.364           1.500  
G30  25305460.667      108546.547        3444.264          58.750  
> 2023  5 18  0  1 19.2688020  0 10                     
G 1  24273357.218      287222.597        3898.278          59.750  
G 4  23636492.035     -178126.766       -2853.668          61.000  
G 7  22504559.825      169124.233        2717.137           0.500  
G 8  20631632.034      -31137.835        -643.259           4.500  
G 9  23417478.691      -80344.930       -1770.016          62.000  
G16  23115471.343      -85866.407       -1924.979          62.750  
G21  21703611.946      117639.909        2624.143           0.750  
G26  25258520.079      -81202.917       -2361.405          58.000  
G27  21759702.846      -84564.103       -2562.594           1.500  
G30  25305392.511      108891.005        3444.611          58.750  
> 2023  5 18  0  1 19.3688020  0 10                     
G 1  24273282.997      287612.366        3897.998          59.750  
G 4  23636546.369     -178412.211       -2854.202          61.000  
G 7  22504508.516      169395.953        2717.676           0.500  
G 8  20631644.212      -31202.200        -643.487           4.500  
G 9  23417512.047      -80521.895       -1771.885          62.000  
G16  23115507.694      -86058.885       -1925.310          62.750  
G21  21703563.141      117902.253        2623.396           0.750  
G26  25258564.319      -81438.979       -2359.171          57.750  
G27  21759751.032      -84820.242       -2561.303           1.500  
G30  25305329.793      109235.451        3443.079          58.750  
> 2023  5 18  0  1 19.4688020  0 10                     
G 1  24273208.638      288002.119        3897.384          59.750  
G 4  23636601.111     -178697.663       -2854.555          61.000  
G 7  22504456.468      169667.671        2717.315           0.500  
G 8  20631657.219      -31266.567        -643.922           4.500  
G 9  23417545.630      -80698.940       -1769.989          62.000  
G16  23115544.258      -86251.355       -1925.801          63.000  
G21  21703513.858      118164.615        2623.685           0.750  
G26  25258608.963      -81675.083       -2360.984          57.750  
G27  21759799.040      -85076.416       -2561.017           1.500  
G30  25305264.833      109579.931        3445.809          59.000  
> 2023  5 18  0  1 19.5688020  0 10                     
G 1  24273134.089      288391.894        3898.505          59.750  
G 4  23636654.634     -178983.104       -2853.867          61.000  
G 7  22504404.594      169939.391        2717.229           0.500  
G 8  20631669.132      -31330.931        -643.738           4.500  
G 9  23417579.900      -80875.961       -1770.254          62.000  
G16  23115580.067      -86443.822       -1924.966          62.750  
G21  21703462.766      118426.951        2624.160           0.750  
G26  25258658.079      -81911.111       -2362.208          57.750  
G27  21759847.527      -85332.595       -2561.538           1.500  
G30  25305198.366      109924.378        3443.881          58.500  
> 2023  5 18  0  1 19.6688020  0 10                     
G 1  24273060.241      288781.652        3897.645          59.750  
G 4  23636709.490     -179268.560       -2854.370          61.000  
G 7  22504353.082      170211.111        2717.558           0.500  
G 8  20631681.387      -31395.295        -643.247           4.500  
G 9  23417613.101      -81053.047       -1772.582          62.000  
G16  23115617.128      -86636.097       -1886.717          62.750  
G21  21703414.282      118689.295        2623.432           0.750  
G26  25258698.006      -82147.177       -2360.914          57.750  
G27  21759897.582      -85588.769       -2563.416           1.500  
G30  25305129.991      110268.851        3447.338          58.750  
> 2023  5 18  0  1 19.7688020  0 10                     
G 1  24272986.595      289171.401        3920.875          59.750  
G 4  23636763.478     -179554.006       -2854.261          61.000  
G 7  22504301.238      170482.484        2674.287           0.500  
G 8  20631693.621      -31459.671        -643.365           4.500  
G 9  23417647.351      -81229.999       -1770.072          62.000  
G16  23115653.733      -86828.772       -1924.740          63.000  
G21  21703364.560      118951.633        2622.298           0.750  
G26  25258740.268      -82383.245       -2357.149          57.500  
G27  21759945.830      -85844.922       -2561.821           1.500  
G30  25305066.531      110613.292        3444.522          58.750  
> 2023  5 18  0  1 19.8688020  0 10                     
G 1  24272911.998      289561.184        3897.956          59.750  
G 4  23636817.858     -179839.460       -2854.656          61.000  
G 7  22504249.914      170754.514        2716.818           0.500  
G 8  20631706.125      -31524.057        -644.136           4.500  
G 9  23417680.506      -81407.022       -1781.367          62.000  
G16  23115691.063      -87021.239       -1911.745          62.750  
G21  21703314.200      119213.893        2617.479           0.750  
G26  25258785.927      -82618.553       -2239.356          57.500  
G27  21759994.837      -86101.093       -2560.319           1.500  
G30  25305000.451      110958.349        3550.856          58.750  
> 2023  5 18  0  1 19.9688020  0 10                     
G 1  24272837.783      289950.949        3897.744          59.750  
G 4  23636872.370     -180124.911       -2854.486          61.000  
G 7  22504198.327      171026.218        2716.217           0.500  
G 8  20631718.003      -31588.446        -644.384           4.500  
G 9  23417714.411      -81584.051       -1770.321          62.000  
G16  23115727.353      -87213.722       -1924.782          63.000  
G21  21703264.341      119476.298        2623.170           0.750  
G26  25258830.823      -82855.367       -2359.306          58.000  
G27  21760042.801      -86357.275       -2560.818           1.500  
G30  25304937.934      111302.193        3445.065          58.750  
> 2023  5 18  0  1 20.0688020  0 10                     
G 1  24272763.434      290340.699        3896.851          59.750  
G 4  23636927.571     -180410.374       -2854.350          61.000  
G 7  22504146.292      171297.930        2717.034           0.500  
G 8  20631729.875      -31652.829        -643.853           4.500  
G 9  23417747.781      -81761.081       -1770.197          62.000  
G16  23115764.084      -87406.204       -1924.837          63.000  
G21  21703214.916      119738.624        2622.853           0.750  
G26  25258876.883      -83091.486       -2361.094          57.750  
G27  21760092.580      -86613.460       -2562.003           1.500  
G30  25304869.642      111646.658        3444.928          58.500  
> 2023  5 18  0  1 20.1688020  0 10                     
G 1  24272689.465      290730.466        3897.253          59.750  
G 4  23636981.323     -180695.826       -2854.763          61.000  
G 7  22504094.877      171569.630        2716.622           0.500  
G 8  20631741.922      -31717.219        -643.629           4.500  
G 9  23417781.456      -81938.125       -1770.114          62.000  
G16  23115800.800      -87598.686       -1924.897          63.000  
G21  21703164.329      120000.942        2623.692           0.750  
G26  25258922.993      -83327.528       -2361.981          57.750  
G27  21760140.580      -86869.640       -2562.706           1.500  
G30  25304809.314      111991.100        3446.722          58.750  
> 2023  5 18  0  1 20.2688020  0 10                     
G 1  24272615.770      291120.224        3897.518          59.750  
G 4  23637035.884     -180981.286       -2853.860          61.000  
G 7  22504042.992      171841.333        2716.432           0.500  
G 8  20631754.106      -31781.617        -643.356           4.500  
G 9  23417815.351      -82115.240       -1793.758          62.000  
G16  23115836.899      -87791.139       -1908.572          62.750  
G21  21703114.850      120263.259        2623.309           0.750  
G26  25258967.909      -83563.600       -2360.489          58.000  
G27  21760188.295      -87125.834       -2562.467           1.500  
G30  25304741.110      112335.551        3446.500          58.750  
> 2023  5 18  0  1 20.3688020  0 10                     
G 1  24272541.122      291509.995        3897.599          59.750  
G 4  23637089.319     -181266.756       -2855.249          61.000  
G 7  22503991.208      172113.037        2717.320           0.500  
G 8  20631766.670      -31846.026        -643.576           4.500  
G 9  23417848.520      -82292.203       -1770.057          62.000  
G16  23115874.318      -87983.651       -1925.369          62.750  
G21  21703063.868      120525.575        2623.140           0.750  
G26  25259014.855      -83799.691       -2361.067          58.000  
G27  21760237.440      -87382.017       -2561.620           1.500  
G30  25304676.217      112679.986        3443.491          58.750  
> 2023  5 18  0  1 20.4688020  0 10                     
G 1  24272467.428      291899.742        3896.972          59.750  
G 4  23637144.393     -181552.210       -2854.575          61.000  
G 7  22503939.252      172384.723        2716.979           0.500  
G 8  20631779.004      -31910.429        -643.390           4.500  
G 9  23417881.869      -82469.261       -1770.851          62.000  
G16  23115910.984      -88176.123       -1924.972          62.750  
G21  21703013.733      120787.868        2622.959           0.750  
G26  25259058.029      -84035.734       -2359.796          57.750  
G27  21760286.410      -87638.206       -2561.268           1.500  
G30  25304612.163      113024.417        3443.518          58.750  
> 2023  5 18  0  1 20.5688020  0 10                     
G 1  24272393.036      292289.512        3897.769          59.750  
G 4  23637199.090     -181837.674       -2854.730          61.000  
G 7  22503887.762      172656.416        2717.193           0.500  
G 8  20631791.489      -31974.841        -644.235           4.500  
G 9  23417915.281      -82646.302       -1770.815          62.000  
G16  23115947.763      -88368.603       -1925.117          62.750  
G21  21702964.461      121050.180        2623.038           0.750  
G26  25259102.072      -84271.854       -2360.750          58.250  
G27  21760335.884      -87894.421       -2561.204           1.500  
G30  25304544.408      113368.845        3443.270          58.750  
> 2023  5 18  0  1 20.6688020  0 10                     
G 1  24272318.263      292679.289        3879.657          59.750  
G 4  23637252.845     -182123.130       -2855.178          61.000  
G 7  22503836.266      172928.088        2717.761           0.500  
G 8  20631803.338      -32039.257        -644.284           4.500  
G 9  23417950.438      -82823.331       -1771.254          62.000  
G16  23115983.486      -88561.088       -1925.238          63.000  
G21  21702915.065      121312.483        2622.939           0.750  
G26  25259144.826      -84507.928       -2361.573          58.000  
G27  21760384.983      -88150.808       -2593.506           1.500  
G30  25304477.412      113713.914        3507.583          59.000  
> 2023  5 18  0  1 20.7688020  0 10                     
G 1  24272244.040      293069.026        3897.813          59.750  
G 4  23637307.058     -182408.600       -2854.757          61.000  
G 7  22503784.555      173199.767        2716.254           0.500  
G 8  20631816.008      -32103.676        -644.071           4.500  
G 9  23417983.810      -83000.429       -1770.812          62.000  
G16  23116020.397      -88753.576       -1925.072          63.000  
G21  21702865.015      121574.757        2621.674           0.750  
G26  25259192.264      -84743.969       -2356.809          58.000  
G27  21760433.322      -88406.812       -2562.767           1.500  
G30  25304413.230      114057.771        3445.429          58.500  
> 2023  5 18  0  1 20.8688020  0 10                     
G 1  24272169.886      293458.786        3897.648          59.750  
G 4  23637360.194     -182694.064       -2854.683          61.000  
G 7  22503733.328      173471.451        2716.457           0.500  
G 8  20631828.438      -32168.102        -644.145           4.500  
G 9  23418017.445      -83177.492       -1770.314          62.000  
G16  23116057.023      -88946.061       -1925.197          63.000  
G21  21702815.197      121837.053        2621.384           0.750  
G26  25259239.270      -84980.088       -2360.094          58.000  
G27  21760483.132      -88662.998       -2562.199           1.500  
G30  25304342.973      114402.204        3445.394          58.750  
> 2023  5 18  0  1 20.9688020  0 10                     
G 1  24272095.380      293848.546        3897.856          59.750  
G 4  23637415.247     -182979.532       -2854.435          61.000  
G 7  22503681.218      173743.137        2717.183           0.500  
G 8  20631840.427      -32232.531        -644.264           4.500  
G 9  23418051.165      -83354.566       -1771.157          62.000  
G16  23116093.368      -89138.550       -1924.928          62.750  
G21  21702765.154      122099.344        2623.125           0.750  
G26  25259283.201      -85216.160       -2362.986          58.000  
G27  21760531.336      -88919.213       -2561.990           1.500  
G30  25304280.911      114746.664        3445.201          58.500  
> 2023  5 18  0  1 21.0688020  0 10                     
G 1  24272021.720      294238.296        3897.752          59.750  
G 4  23637470.703     -183265.002       -2855.096          61.000  
G 7  22503629.515      174014.799        2716.598           0.500  
G 8  20631852.761      -32296.965        -644.499           4.500  
G 9  23418084.361      -83531.624       -1770.348          62.000  
G16  23116130.437      -89331.032       -1924.545          63.000  
G21  21702714.169      122361.606        2623.012           0.750  
G26  25259328.599      -85452.228       -2363.144          58.000  
G27  21760580.021      -89175.425       -2562.914           1.500  
G30  25304214.693      115091.120        3447.246          59.000  
> 2023  5 18  0  1 21.1688020  0 10                     
G 1  24271947.688      294628.060        3897.805          59.750  
G 4  23637523.773     -183550.469       -2854.730          61.000  
G 7  22503577.401      174286.470        2715.747           0.500  
G 8  20631865.277      -32361.404        -644.222           4.500  
G 9  23418118.915      -83708.707       -1770.433          62.000  
G16  23116166.890      -89523.520       -1925.098          63.000  
G21  21702664.872      122623.884        2622.358           0.750  
G26  25259372.962      -85688.322       -2361.358          58.000  
G27  21760628.335      -89431.630       -2563.193           1.500  
G30  25304151.046      115435.560        3446.368          59.000  
> 2023  5 18  0  1 21.2688020  0 10                     
G 1  24271873.482      295017.815        3897.752          59.750  
G 4  23637578.596     -183835.947       -2854.633          61.000  
G 7  22503525.767      174558.149        2716.434           0.500  
G 8  20631877.577      -32425.850        -644.386           4.500  
G 9  23418152.880      -83885.785       -1771.013          62.000  
G16  23116203.501      -89715.994       -1912.618          63.000  
G21  21702615.143      122886.155        2622.703           0.750  
G26  25259416.618      -85924.404       -2361.777          58.000  
G27  21760677.328      -89687.838       -2561.973           1.500  
G30  25304085.869      115779.988        3445.152          58.500  
> 2023  5 18  0  1 21.3688020  0 10                     
G 1  24271799.461      295407.557        3897.506          59.750  
G 4  23637632.966     -184121.413       -2854.741          61.000  
G 7  22503474.313      174829.810        2716.801           0.500  
G 8  20631889.999      -32490.303        -645.389           4.500  
G 9  23418186.557      -84062.867       -1770.182          62.000  
G16  23116240.131      -89908.506       -1924.705          63.000  
G21  21702565.422      123148.421        2622.559           0.750  
G26  25259460.636      -86160.479       -2363.112          58.000  
G27  21760726.417      -89944.055       -2561.931           1.500  
G30  25304016.157      116124.422        3443.626          59.000  
> 2023  5 18  0  1 21.4688020  0 10                     
G 1  24271725.296      295797.317        3897.913          59.750  
G 4  23637687.341     -184406.892       -2854.603          61.000  
G 7  22503422.860      175101.472        2716.107           0.500  
G 8  20631902.284      -32554.751        -645.208           4.500  
G 9  23418219.562      -84239.958       -1771.201          62.000  
G16  23116276.659      -90100.900       -1904.520          63.000  
G21  21702515.555      123410.671        2621.533           0.750  
G26  25259507.109      -86396.533       -2359.871          58.000  
G27  21760773.977      -90200.275       -2562.319           1.500  
G30  25303954.430      116469.048        3472.974          58.750  
> 2023  5 18  0  1 21.5688020  0 10                     
G 1  24271650.800      296187.074        3897.224          59.750  
G 4  23637741.925     -184692.377       -2855.687          61.000  
G 7  22503370.730      175373.215        2744.082           0.500  
G 8  20631914.396      -32619.208        -644.506           4.500  
G 9  23418252.497      -84417.042       -1770.602          62.000  
G16  23116313.209      -90293.579       -1919.730          63.000  
G21  21702466.403      123672.981        2655.436           0.750  
G26  25259549.368      -86632.280       -2412.470          58.000  
G27  21760823.525      -90456.342       -2547.827           1.500  
G30  25303887.016      116813.311        3446.316          58.750  
> 2023  5 18  0  1 21.6688020  0 10                     
G 1  24271576.748      296576.835        3897.842          59.750  
G 4  23637796.293     -184977.849       -2854.915          61.000  
G 7  22503319.378      175644.787        2716.384           0.500  
G 8  20631926.286      -32683.672        -644.736           4.500  
G 9  23418287.356      -84594.146       -1771.060          62.000  
G16  23116349.753      -90485.987       -1924.986          63.000  
G21  21702415.609      123935.178        2621.892           0.750  
G26  25259595.337      -86868.706       -2360.773          57.750  
G27  21760872.389      -90712.720       -2562.528           1.500  
G30  25303824.519      117157.760        3445.710          58.750  
> 2023  5 18  0  1 21.7688020  0 10                     
G 1  24271502.592      296966.595        3897.404          59.750  
G 4  23637850.511     -185263.334       -2855.005          61.000  
G 7  22503267.371      175916.446        2716.363           0.500  
G 8  20631938.441      -32748.135        -644.694           4.500  
G 9  23418321.132      -84771.209       -1750.332          62.000  
G16  23116386.941      -90678.477       -1925.102          62.750  
G21  21702365.877      124197.434        2622.483           0.750  
G26  25259639.804      -87104.817       -2362.776          58.000  
G27  21760919.881      -90968.935       -2561.641           1.500  
G30  25303760.637      117502.151        3442.933          58.500  
> 2023  5 18  0  1 21.8688020  0 10                     
G 1  24271428.623      297356.351        3896.896          59.750  
G 4  23637904.664     -185548.809       -2855.521          61.000  
G 7  22503215.742      176187.881        2698.249           0.500  
G 8  20631950.868      -32812.605        -644.846           4.500  
G 9  23418354.516      -84948.344       -1770.469          62.000  
G16  23116423.192      -90871.089       -1949.484          63.000  
G21  21702316.008      124459.655        2621.405           0.750  
G26  25259685.143      -87340.855       -2359.734          58.000  
G27  21760969.926      -91225.166       -2562.499           1.500  
G30  25303689.270      117846.582        3442.486          58.750  
> 2023  5 18  0  1 21.9688020  0 10                     
G 1  24271354.296      297746.117        3898.090          59.750  
G 4  23637958.754     -185834.290       -2854.809          61.000  
G 7  22503164.096      176459.743        2716.523           0.500  
G 8  20631962.989      -32877.081        -644.557           4.500  
G 9  23418388.612      -85125.461       -1770.749          62.000  
G16  23116459.984      -91063.471       -1924.873          62.750  
G21  21702265.592      124721.897        2621.538           0.750  
G26  25259733.387      -87576.970       -2361.170          58.000  
G27  21761018.447      -91481.389       -2562.521           1.500  
G30  25303625.377      118191.039        3444.167          58.500  
> 2023  5 18  0  1 22.0688020  0 10                     
G 1  24271279.968      298135.877        3897.544          59.750  
G 4  23638013.164     -186119.782       -2855.949          61.000  
G 7  22503112.384      176731.394        2717.106           0.500  
G 8  20631975.144      -32941.562        -644.475           4.500  
G 9  23418421.769      -85302.568       -1770.908          62.000  
G16  23116496.527      -91255.968       -1924.867          63.000  
G21  21702216.381      124984.127        2622.452           0.750  
G26  25259776.019      -87813.043       -2360.876          58.000  
G27  21761066.842      -91737.618       -2561.756           1.500  
G30  25303558.983      118535.459        3444.830          59.000  
> 2023  5 18  0  1 22.1688020  0 10                     
G 1  24271205.901      298525.619        3897.784          59.750  
G 4  23638067.437     -186405.255       -2855.372          61.000  
G 7  22503060.965      177003.038        2716.917           0.500  
G 8  20631987.690      -33006.049        -645.101           4.500  
G 9  23418455.893      -85479.684       -1770.536          62.000  
G16  23116533.423      -91448.471       -1924.979          63.000  
G21  21702166.072      125246.363        2623.141           0.750  
G26  25259820.662      -88049.156       -2362.688          58.000  
G27  21761115.808      -91993.861       -2562.271           1.500  
G30  25303492.624      118879.918        3444.818          59.000  
> 2023  5 18  0  1 22.2688020  0 10                     
G 1  24271130.089      298915.373        3897.265          59.750  
G 4  23638122.534     -186690.762       -2855.484          61.000  
G 7  22503009.098      177274.672        2717.248           0.500  
G 8  20631999.939      -33070.532        -644.760           4.500  
G 9  23418486.483      -85656.802       -1771.242          62.000  
G16  23116570.519      -91641.126       -1954.954          62.750  
G21  21702116.400      125508.579        2622.749           0.750  
G26  25259864.629      -88285.220       -2361.991          57.750  
G27  21761165.696      -92250.098       -2562.670           1.500  
G30  25303427.002      119224.340        3444.569          58.750  
> 2023  5 18  0  1 22.3688020  0 10                     
G 1  24271056.969      299305.128        3897.276          59.750  
G 4  23638176.492     -186976.248       -2856.238          61.000  
G 7  22502957.599      177546.311        2716.102           0.500  
G 8  20632012.332      -33135.028        -644.265           4.500  
G 9  23418522.591      -85833.927       -1771.172          62.000  
G16  23116606.499      -91833.465       -1924.162          63.000  
G21  21702066.409      125770.794        2621.730           0.750  
G26  25259909.792      -88521.281       -2360.478          58.250  
G27  21761215.784      -92506.341       -2562.685           1.500  
G30  25303354.043      119568.772        3444.616          58.750  
> 2023  5 18  0  1 22.4688020  0 10                     
G 1  24270982.484      299694.893        3897.408          59.750  
G 4  23638231.074     -187261.738       -2855.349          61.000  
G 7  22502905.942      177817.937        2716.597           0.500  
G 8  20632024.989      -33199.527        -644.657           4.500  
G 9  23418555.950      -86011.055       -1770.928          62.000  
G16  23116643.164      -92025.965       -1924.718          62.750  
G21  21702016.559      126033.008        2621.900           0.750  
G26  25259956.811      -88757.401       -2360.270          57.750  
G27  21761262.530      -92762.580       -2562.249           1.500  
G30  25303295.584      119913.222        3445.912          58.250  
> 2023  5 18  0  1 22.5688020  0 10                     
G 1  24270909.114      300084.647        3896.919          59.750  
G 4  23638284.854     -187547.234       -2856.294          61.000  
G 7  22502853.991      178089.569        2716.137           0.500  
G 8  20632037.235      -33264.029        -645.434           4.500  
G 9  23418590.526      -86188.170       -1770.562          62.000  
G16  23116680.252      -92218.471       -1924.470          62.750  
G21  21701966.571      126295.218        2622.350           0.750  
G26  25260000.851      -88993.475       -2361.208          57.750  
G27  21761310.387      -93018.829       -2561.834           1.500  
G30  25303230.207      120257.651        3444.811          58.750  
> 2023  5 18  0  1 22.6688020  0 10                     
G 1  24270835.889      300474.412        3897.817          59.750  
G 4  23638338.249     -187832.727       -2856.241          61.000  
G 7  22502802.691      178361.193        2715.777           0.500  
G 8  20632048.550      -33328.533        -644.915           4.500  
G 9  23418624.549      -86365.329       -1771.915          61.750  
G16  23116716.205      -92410.971       -1924.320          63.000  
G21  21701916.621      126557.420        2622.516           0.750  
G26  25260045.755      -89229.558       -2361.068          58.000  
G27  21761359.777      -93275.073       -2561.712           1.500  
G30  25303166.359      120602.073        3442.635          58.750  
> 2023  5 18  0  1 22.7688020  0 10                     
G 1  24270761.694      300864.176        3898.247          59.750  
G 4  23638394.183     -188118.222       -2856.872          61.000  
G 7  22502750.703      178632.813        2716.154           0.500  
G 8  20632061.959      -33393.039        -644.015           4.500  
G 9  23418657.521      -86542.451       -1770.774          61.750  
G16  23116752.454      -92603.481       -1924.299          62.750  
G21  21701867.342      126819.609        2621.748           0.750  
G26  25260088.485      -89465.658       -2360.696          58.000  
G27  21761408.581      -93531.330       -2563.099           1.500  
G30  25303100.924      120946.496        3444.445          58.750  
> 2023  5 18  0  1 22.8688020  0 10                     
G 1  24270686.466      301253.912        3898.835          59.750  
G 4  23638448.038     -188403.726       -2856.200          61.000  
G 7  22502699.576      178904.437        2716.095           0.500  
G 8  20632073.647      -33457.564        -644.307           4.500  
G 9  23418692.003      -86719.602       -1771.659          62.000  
G16  23116789.242      -92795.985       -1924.361          63.000  
G21  21701817.402      127081.805        2622.351           0.750  
G26  25260134.243      -89701.745       -2361.345          57.750  
G27  21761458.021      -93787.570       -2563.273           1.500  
G30  25303032.903      121290.924        3444.306          58.750  
> 2023  5 18  0  1 22.9688020  0 10                     
G 1  24270613.317      301643.667        3897.280          59.750  
G 4  23638501.926     -188689.220       -2855.273          61.000  
G 7  22502647.242      179176.057        2715.777           0.500  
G 8  20632085.511      -33522.093        -645.150           4.500  
G 9  23418725.862      -86896.573       -1736.265          62.000  
G16  23116825.604      -92988.657       -1965.743          63.000  
G21  21701767.319      127343.931        2627.946           0.750  
G26  25260177.928      -89937.833       -2358.993          58.000  
G27  21761507.637      -94043.840       -2562.691           1.500  
G30  25302966.402      121635.370        3445.509          58.500  
> 2023  5 18  0  1 23.0688020  0 10                     
G 1  24270538.181      302033.424        3897.630          59.750  
G 4  23638557.374     -188974.721       -2855.604          61.000  
G 7  22502595.296      179447.670        2716.155           0.500  
G 8  20632098.233      -33586.615        -645.623           4.500  
G 9  23418760.102      -87073.896       -1770.672          62.000  
G16  23116862.180      -93180.993       -1924.383          62.750  
G21  21701717.537      127606.184        2621.664           0.750  
G26  25260224.875      -90173.925       -2360.360          58.000  
G27  21761554.382      -94300.106       -2562.279           1.500  
G30  25302903.388      121979.789        3443.480          58.750  
> 2023  5 18  0  1 23.1688020  0 10                     
G 1  24270463.383      302423.186        3897.246          59.750  
G 4  23638611.088     -189259.965       -2799.783          61.000  
G 7  22502543.743      179719.289        2716.018           0.500  
G 8  20632110.059      -33651.145        -645.366           4.500  
G 9  23418792.745      -87251.489       -1829.853          62.000  
G16  23116899.036      -93373.501       -1923.857          63.000  
G21  21701667.367      127868.416        2626.335           0.750  
G26  25260270.509      -90410.405       -2444.421          58.000  
G27  21761603.314      -94556.362       -2563.722           1.500  
G30  25302838.457      122324.230        3445.268          58.500  
> 2023  5 18  0  1 23.2688020  0 10                     
G 1  24270389.670      302812.949        3896.698          59.750  
G 4  23638665.285     -189545.716       -2855.882          61.000  
G 7  22502491.790      179990.894        2716.501           0.500  
G 8  20632122.040      -33715.683        -645.330           4.500  
G 9  23418825.830      -87428.221       -1772.019          62.000  
G16  23116935.771      -93566.014       -1924.506          63.000  
G21  21701617.550      128130.519        2620.324           0.750  
G26  25260314.282      -90646.119       -2361.541          58.000  
G27  21761652.188      -94812.606       -2563.613           1.500  
G30  25302771.792      122668.668        3446.967          59.000  
> 2023  5 18  0  1 23.3688020  0 10                     
G 1  24270315.658      303202.714        3897.722          59.750  
G 4  23638720.525     -189831.221       -2856.174          61.000  
G 7  22502440.663      180262.492        2715.359           0.500  
G 8  20632134.986      -33780.226        -645.486           4.750  
G 9  23418860.361      -87605.369       -1741.992          62.000  
G16  23116972.589      -93758.475       -1929.498          63.000  
G21  21701567.212      128392.703        2621.735           0.750  
G26  25260357.904      -90882.193       -2360.016          58.000  
G27  21761700.464      -95068.880       -2561.441           1.500  
G30  25302709.400      123013.087        3443.333          58.500  
> 2023  5 18  0  1 23.4688020  0 10                     
G 1  24270242.094      303592.462        3897.309          59.750  
G 4  23638774.481     -190116.722       -2855.532          61.000  
G 7  22502388.578      180534.092        2715.810           0.500  
G 8  20632147.260      -33844.761        -645.461           4.500  
G 9  23418893.386      -87782.546       -1771.525          62.000  
G16  23117009.518      -93951.039       -1924.814          63.000  
G21  21701517.274      128654.858        2622.228           0.750  
G26  25260405.454      -91118.307       -2360.679          58.000  
G27  21761749.304      -95325.158       -2563.611           1.500  
G30  25302642.089      123357.529        3447.043          58.500  
> 2023  5 18  0  1 23.5688020  0 10                     
G 1  24270169.133      303982.224        3898.187          59.750  
G 4  23638829.555     -190402.227       -2855.286          61.000  
G 7  22502337.037      180805.701        2715.868           0.500  
G 8  20632159.453      -33909.311        -645.132           4.500  
G 9  23418927.930      -87959.715       -1771.570          62.000  
G16  23117046.493      -94143.549       -1924.622          63.000  
G21  21701466.987      128917.029        2621.753           0.750  
G26  25260449.688      -91354.410       -2359.693          58.000  
G27  21761798.736      -95581.410       -2562.580           1.750  
G30  25302575.081      123701.951        3443.865          59.000  
> 2023  5 18  0  1 23.6688020  0 10                     
G 1  24270093.108      304371.963        3896.743          59.750  
G 4  23638883.449     -190687.732       -2855.554          61.000  
G 7  22502285.416      181077.296        2715.641           0.500  
G 8  20632172.091      -33973.870        -645.556           4.500  
G 9  23418960.272      -88136.888       -1771.665          62.000  
G16  23117083.567      -94336.059       -1924.529          62.750  
G21  21701416.820      129179.187        2622.073           0.750  
G26  25260494.836      -91590.499       -2360.101          58.000  
G27  21761847.002      -95837.688       -2562.380           1.500  
G30  25302512.058      124046.372        3443.312          58.750  
> 2023  5 18  0  1 23.7688020  0 10                     
G 1  24270019.198      304761.720        3897.432          59.750  
G 4  23638937.361     -190973.235       -2854.938          61.000  
G 7  22502233.671      181348.889        2716.281           0.500  
G 8  20632184.492      -34038.429        -646.214           4.500  
G 9  23418994.701      -88314.008       -1757.536          62.000  
G16  23117119.656      -94528.554       -1926.157          62.750  
G21  21701367.523      129441.331        2621.649           0.750  
G26  25260537.698      -91826.596       -2361.741          58.000  
G27  21761895.843      -96093.980       -2575.033           1.500  
G30  25302449.438      124390.804        3445.026          58.750  
> 2023  5 18  0  1 23.8688020  0 10                     
G 1  24269945.175      305151.490        3897.616          59.750  
G 4  23638991.599     -191258.743       -2854.630          61.000  
G 7  22502182.490      181620.480        2715.965           0.500  
G 8  20632197.031      -34102.989        -646.164           4.500  
G 9  23419028.508      -88491.245       -1771.436          62.000  
G16  23117155.901      -94721.093       -1925.278          63.000  
G21  21701317.797      129703.475        2621.805           0.750  
G26  25260584.855      -92062.690       -2362.692          58.000  
G27  21761945.539      -96350.252       -2563.323           1.500  
G30  25302376.457      124735.212        3444.432          58.750  
> 2023  5 18  0  1 23.9688020  0 10                     
G 1  24269870.818      305541.244        3896.970          59.750  
G 4  23639045.301     -191544.252       -2855.221          61.000  
G 7  22502130.682      181892.066        2715.981           0.500  
G 8  20632208.107      -34167.556        -645.397           4.500  
G 9  23419063.008      -88668.433       -1772.598          62.000  
G16  23117192.354      -94913.614       -1925.282          63.000  
G21  21701268.989      129965.604        2620.936           0.750  
G26  25260628.295      -92298.769       -2360.235          58.000  
G27  21761994.171      -96606.520       -2562.449           1.500  
G30  25302315.691      125079.632        3443.590          58.750  
> 2023  5 18  0  1 24.0688020  0 10                     
G 1  24269796.622      305931.006        3897.871          59.750  
G 4  23639100.071     -191829.771       -2855.460          61.000  
G 7  22502078.711      182163.655        2715.660           0.500  
G 8  20632220.917      -34232.133        -645.827           4.750  
G 9  23419096.281      -88845.723       -1781.423          62.000  
G16  23117229.345      -95106.316       -1960.932          63.000  
G21  21701218.596      130227.740        2619.977           0.750  
G26  25260673.386      -92534.879       -2358.683          58.000  
G27  21762043.052      -96862.814       -2563.117           1.500  
G30  25302246.943      125424.090        3446.346          58.750  
> 2023  5 18  0  1 24.1688020  0 10                     
G 1  24269721.937      306320.758        3897.463          59.750  
G 4  23639154.848     -192115.285       -2855.664          61.000  
G 7  22502027.130      182435.056        2716.294           0.500  
G 8  20632232.932      -34296.701        -645.507           4.500  
G 9  23419130.890      -89022.814       -1771.507          62.000  
G16  23117265.627      -95298.668       -1947.862          63.000  
G21  21701169.091      130489.878        2620.405           0.750  
G26  25260718.738      -92770.982       -2359.104          58.000  
G27  21762091.238      -97119.108       -2564.007           1.500  
G30  25302185.803      125768.504        3444.874          58.500  
> 2023  5 18  0  1 24.2688020  0 10                     
G 1  24269648.045      306710.502        3897.384          59.750  
G 4  23639208.505     -192400.806       -2856.029          61.000  
G 7  22501975.518      182706.823        2716.241           0.500  
G 8  20632245.115      -34361.280        -645.194           4.500  
G 9  23419163.158      -89200.009       -1771.735          62.000  
G16  23117302.784      -95491.169       -1924.844          63.000  
G21  21701118.874      130752.014        2621.740           0.750  
G26  25260764.873      -93007.104       -2361.721          58.000  
G27  21762139.326      -97375.384       -2563.767           1.500  
G30  25302117.864      126112.906        3443.525          58.750  
> 2023  5 18  0  1 24.3688020  0 10                     
G 1  24269574.182      307100.258        3896.865          59.750  
G 4  23639263.095     -192686.321       -2855.767          61.000  
G 7  22501924.000      182978.402        2715.865           0.500  
G 8  20632257.657      -34425.872        -645.344           4.500  
G 9  23419197.148      -89377.044       -1763.356          62.000  
G16  23117339.173      -95683.695       -1924.469          63.000  
G21  21701068.321      131014.128        2621.190           0.750  
G26  25260809.272      -93243.179       -2359.824          58.000  
G27  21762187.727      -97631.673       -2562.679           1.500  
G30  25302055.319      126457.342        3444.761          58.500  
> 2023  5 18  0  1 24.4688020  0 10                     
G 1  24269500.482      307490.016        3896.910          59.750  
G 4  23639317.555     -192971.830       -2855.071          61.000  
G 7  22501872.073      183249.975        2715.887           0.500  
G 8  20632270.179      -34490.459        -645.796           4.500  
G 9  23419230.917      -89554.417       -1772.253          62.000  
G16  23117375.739      -95876.217       -1924.682          62.750  
G21  21701018.602      131276.246        2621.734           0.750  
G26  25260854.910      -93479.275       -2361.900          58.000  
G27  21762237.773      -97887.967       -2562.681           1.500  
G30  25301986.448      126801.764        3445.250          59.000  
> 2023  5 18  0  1 24.5688020  0 10                     
G 1  24269425.890      307879.777        3897.949          59.750  
G 4  23639371.682     -193257.347       -2855.479          61.000  
G 7  22501820.408      183521.543        2715.581           0.500  
G 8  20632282.579      -34555.053        -646.043           4.500  
G 9  23419264.540      -89731.623       -1771.896          62.000  
G16  23117412.233      -96068.744       -1925.154          63.000  
G21  21700968.752      131538.351        2620.958           0.750  
G26  25260899.824      -93715.376       -2359.752          58.000  
G27  21762285.798      -98144.262       -2563.168           1.500  
G30  25301922.986      127146.195        3444.727          58.500  
> 2023  5 18  0  1 24.6688020  0 10                     
G 1  24269351.254      308269.524        3897.277          59.750  
G 4  23639426.154     -193542.878       -2855.681          61.000  
G 7  22501767.849      183793.115        2714.970           0.500  
G 8  20632295.120      -34619.654        -645.829           4.500  
G 9  23419297.696      -89908.845       -1772.813          62.000  
G16  23117449.045      -96261.258       -1923.977          63.000  
G21  21700919.132      131800.470        2621.514           1.000  
G26  25260945.130      -93951.503       -2361.337          58.000  
G27  21762334.291      -98400.551       -2562.902           1.500  
G30  25301856.614      127490.608        3444.025          58.750  
> 2023  5 18  0  1 24.7688020  0 10                     
G 1  24269277.536      308659.275        3897.872          59.750  
G 4  23639480.612     -193828.394       -2855.680          61.000  
G 7  22501716.909      184064.680        2715.656           0.500  
G 8  20632307.330      -34684.265        -646.204           4.750  
G 9  23419331.797      -90086.047       -1771.523          62.000  
G16  23117485.037      -96453.785       -1924.702          62.750  
G21  21700869.612      132062.561        2620.905           0.750  
G26  25260986.047      -94187.618       -2362.673          58.000  
G27  21762383.052      -98656.850       -2562.155           1.500  
G30  25301790.493      127835.031        3444.391          58.750  
> 2023  5 18  0  1 24.8688020  0 10                     
G 1  24269202.998      309049.035        3897.112          59.750  
G 4  23639534.361     -194113.910       -2854.799          61.000  
G 7  22501665.737      184336.244        2715.610           0.500  
G 8  20632319.470      -34748.869        -646.462           4.500  
G 9  23419365.249      -90263.273       -1771.940          62.000  
G16  23117521.890      -96646.312       -1925.328          63.000  
G21  21700819.423      132324.668        2621.875           0.750  
G26  25261033.824      -94423.704       -2361.196          58.000  
G27  21762432.383      -98913.164       -2562.904           1.500  
G30  25301726.527      128179.459        3444.335          58.750  
> 2023  5 18  0  1 24.9688020  0 10                     
G 1  24269129.368      309438.776        3896.698          59.750  
G 4  23639588.981     -194399.434       -2854.946          61.000  
G 7  22501614.026      184607.797        2716.153           0.500  
G 8  20632331.481      -34813.476        -645.391           4.500  
G 9  23419399.765      -90440.498       -1772.306          62.000  
G16  23117558.957      -96838.831       -1924.571          63.000  
G21  21700769.598      132586.763        2626.706           0.750  
G26  25261077.645      -94659.833       -2364.201          58.000  
G27  21762481.357      -99169.260       -2524.079           1.250  
G30  25301661.036      128523.856        3446.702          58.250  
> 2023  5 18  0  1 25.0688020  0 10                     
G 1  24269054.591      309828.526        3898.259          59.750  
G 4  23639643.861     -194684.970       -2856.101          61.000  
G 7  22501561.643      184879.354        2715.373           0.500  
G 8  20632344.168      -34878.099        -645.629           4.500  
G 9  23419433.571      -90617.723       -1771.763          62.000  
G16  23117596.171      -97031.356       -1924.563          62.750  
G21  21700719.539      132848.848        2621.175           0.750  
G26  25261124.007      -94895.931       -2363.259          57.750  
G27  21762530.605      -99425.762       -2562.632           1.500  
G30  25301592.958      128868.252        3444.225          59.000  
> 2023  5 18  0  1 25.1688020  0 10                     
G 1  24268980.580      310218.273        3897.421          59.750  
G 4  23639697.817     -194970.494       -2854.722          61.000  
G 7  22501510.280      185150.900        2715.449           0.500  
G 8  20632356.074      -34942.726        -646.602           4.500  
G 9  23419466.333      -90794.956       -1771.988          62.000  
G16  23117632.628      -97223.892       -1925.354          62.750  
G21  21700669.590      133110.937        2621.615           0.750  
G26  25261169.097      -95132.021       -2360.447          58.250  
G27  21762579.606      -99682.088       -2562.565           1.500  
G30  25301526.519      129212.704        3442.915          58.500  
> 2023  5 18  0  1 25.2688020  0 10                     
G 1  24268906.684      310608.014        3896.367          59.750  
G 4  23639752.053     -195256.019       -2855.181          61.000  
G 7  22501458.510      185422.450        2715.044           0.500  
G 8  20632368.405      -35007.344        -646.074           4.500  
G 9  23419500.970      -90972.501       -1808.284          62.000  
G16  23117668.910      -97416.412       -1918.633          62.750  
G21  21700619.520      133372.997        2621.033           0.750  
G26  25261213.258      -95368.126       -2361.622          57.750  
G27  21762627.580      -99938.399       -2563.488           1.500  
G30  25301464.082      129557.116        3443.943          58.750  
> 2023  5 18  0  1 25.3688020  0 10                     
G 1  24268832.683      310997.772        3897.286          59.750  
G 4  23639806.956     -195541.544       -2854.873          61.000  
G 7  22501406.936      185693.993        2715.381           0.500  
G 8  20632380.683      -35071.974        -645.946           4.500  
G 9  23419535.233      -91149.430       -1771.822          62.000  
G16  23117704.794      -97608.945       -1924.561          63.000  
G21  21700569.520      133635.069        2620.892           0.750  
G26  25261258.086      -95604.230       -2360.241          58.000  
G27  21762677.119     -100194.709       -2562.893           1.500  
G30  25301395.427      129901.553        3443.693          58.750  
> 2023  5 18  0  1 25.4688020  0 10                     
G 1  24268758.228      311387.530        3896.752          59.750  
G 4  23639861.222     -195827.084       -2855.286          61.000  
G 7  22501355.404      185965.541        2715.456           0.500  
G 8  20632392.977      -35136.614        -646.285           4.500  
G 9  23419568.715      -91326.682       -1773.220          62.000  
G16  23117742.515      -97801.479       -1925.198          63.000  
G21  21700520.000      133897.140        2620.346           1.000  
G26  25261302.666      -95840.344       -2359.034          58.000  
G27  21762725.583     -100451.030       -2562.735           1.500  
G30  25301331.731      130245.955        3443.074          58.750  
> 2023  5 18  0  1 25.5688020  0 10                     
G 1  24268684.330      311777.288        3897.177          59.750  
G 4  23639915.735     -196112.616       -2855.051          61.000  
G 7  22501303.415      186237.081        2715.696           0.500  
G 8  20632405.617      -35201.255        -646.594           4.500  
G 9  23419601.831      -91503.920       -1772.685          62.000  
G16  23117778.997      -97994.011       -1925.700          62.750  
G21  21700470.520      134159.212        2620.689           0.750  
G26  25261346.217      -96076.445       -2359.834          58.000  
G27  21762774.110     -100707.360       -2563.327           1.500  
G30  25301264.821      130590.376        3443.320          58.750  
> 2023  5 18  0  1 25.6688020  0 10                     
G 1  24268609.998      312167.040        3898.589          59.750  
G 4  23639970.188     -196398.154       -2855.819          61.000  
G 7  22501251.959      186508.555        2703.715           0.500  
G 8  20632418.226      -35265.895        -646.395           4.500  
G 9  23419635.815      -91681.185       -1773.556          62.000  
G16  23117814.961      -98186.547       -1925.778          63.000  
G21  21700420.493      134421.260        2620.376           0.750  
G26  25261391.618      -96312.564       -2361.629          57.750  
G27  21762822.816     -100963.585       -2547.141           1.500  
G30  25301197.557      130934.782        3443.676          58.750  
> 2023  5 18  0  1 25.7688020  0 10                     
G 1  24268535.737      312556.790        3897.724          59.750  
G 4  23640023.732     -196683.686       -2855.117          61.000  
G 7  22501200.241      186780.158        2715.451           0.500  
G 8  20632430.780      -35330.547        -646.782           4.500  
G 9  23419668.964      -91858.430       -1772.884          62.000  
G16  23117852.312      -98379.081       -1925.279          62.750  
G21  21700369.894      134683.320        2620.138           0.750  
G26  25261439.948      -96548.668       -2361.356          57.750  
G27  21762870.861     -101220.008       -2563.481           1.500  
G30  25301134.635      131279.217        3445.117          58.500  
> 2023  5 18  0  1 25.8688020  0 10                     
G 1  24268461.570      312946.542        3896.908          59.750  
G 4  23640078.076     -196969.219       -2855.447          61.000  
G 7  22501148.800      187051.685        2715.281           0.500  
G 8  20632442.923      -35395.202        -646.715           4.500  
G 9  23419702.720      -92035.766       -1794.113          62.000  
G16  23117888.955      -98571.621       -1924.864          62.750  
G21  21700320.218      134945.371        2620.180           0.750  
G26  25261483.121      -96784.767       -2359.024          57.750  
G27  21762920.927     -101476.335       -2562.800           1.500  
G30  25301065.288      131623.624        3443.177          59.000  
> 2023  5 18  0  1 25.9688020  0 10                     
G 1  24268387.580      313336.299        3897.157          59.750  
G 4  23640132.407     -197254.764       -2855.276          61.000  
G 7  22501097.158      187323.210        2715.550           0.500  
G 8  20632454.504      -35459.862        -646.425           4.500  
G 9  23419736.602      -92212.956       -1773.444          62.000  
G16  23117925.421      -98764.159       -1924.986          62.750  
G21  21700270.569      135207.421        2619.559           0.750  
G26  25261527.546      -97020.902       -2357.947          57.750  
G27  21762968.261     -101732.665       -2562.893           1.500  
G30  25301005.547      131968.038        3442.510          58.750  
> 2023  5 18  0  1 26.0688020  0 10                     
G 1  24268313.347      313726.050        3897.579          59.750  
G 4  23640186.544     -197540.298       -2855.585          61.000  
G 7  22501045.428      187594.836        2732.326           0.500  
G 8  20632467.084      -35524.525        -646.900           4.500  
G 9  23419770.763      -92390.215       -1772.264          62.000  
G16  23117961.711      -98956.689       -1924.544          63.000  
G21  21700220.475      135469.462        2621.267           0.750  
G26  25261573.293      -97257.070       -2363.514          57.750  
G27  21763017.731     -101989.005       -2563.659           1.500  
G30  25300939.525      132312.458        3445.026          58.750  
> 2023  5 18  0  1 26.1688020  0 10                     
G 1  24268239.291      314115.807        3898.647          59.750  
G 4  23640240.875     -197825.843       -2856.063          61.000  
G 7  22500993.912      187866.260        2714.758           0.500  
G 8  20632479.384      -35589.189        -646.761           4.500  
G 9  23419803.949      -92567.491       -1773.184          62.000  
G16  23117998.502      -99149.226       -1925.015          63.000  
G21  21700170.861      135731.485        2621.089           0.750  
G26  25261618.727      -97493.139       -2363.377          57.750  
G27  21763066.495     -102245.337       -2563.449           1.500  
G30  25300873.076      132656.875        3444.554          58.750  
> 2023  5 18  0  1 26.2688020  0 10                     
G 1  24268165.288      314505.553        3897.045          59.750  
G 4  23640295.204     -198111.386       -2855.424          61.000  
G 7  22500941.997      188137.780        2715.226           0.500  
G 8  20632491.737      -35653.865        -647.099           4.500  
G 9  23419838.417      -92744.761       -1772.416          62.000  
G16  23118035.339      -99341.771       -1926.035          63.000  
G21  21700121.449      135993.505        2620.330           0.750  
G26  25261661.495      -97729.214       -2362.619          58.000  
G27  21763114.964     -102501.680       -2563.930           1.500  
G30  25300807.317      133001.272        3444.634          58.750  
> 2023  5 18  0  1 26.3688020  0 10                     
G 1  24268091.092      314895.310        3897.497          59.750  
G 4  23640350.044     -198396.930       -2855.426          61.000  
G 7  22500890.569      188409.297        2714.933           0.500  
G 8  20632504.215      -35718.542        -646.884           4.500  
G 9  23419871.662      -92922.038       -1772.796          62.000  
G16  23118071.694      -99534.313       -1925.664          63.000  
G21  21700071.011      136255.528        2619.282           0.750  
G26  25261707.205      -97965.316       -2358.305          57.750  
G27  21763164.339     -102758.017       -2563.648           1.500  
G30  25300740.957      133345.694        3445.196          58.750  
> 2023  5 18  0  1 26.4688020  0 10                     
G 1  24268017.059      315285.067        3897.464          59.750  
G 4  23640404.094     -198682.473       -2855.719          61.000  
G 7  22500838.630      188680.886        2730.910           0.500  
G 8  20632515.995      -35783.223        -646.763           4.500  
G 9  23419905.986      -93099.326       -1772.866          62.000  
G16  23118108.475      -99726.978       -1946.674          63.000  
G21  21700021.025      136517.738        2639.115           0.750  
G26  25261752.913      -98201.462       -2360.320          58.000  
G27  21763212.411     -103014.409       -2574.375           1.500  
G30  25300676.659      133690.115        3444.669          58.750  
> 2023  5 18  0  1 26.5688020  0 10                     
G 1  24267942.494      315674.820        3898.542          59.750  
G 4  23640458.464     -198968.027       -2855.831          61.000  
G 7  22500786.970      188952.324        2714.542           0.500  
G 8  20632528.280      -35847.906        -647.078           4.500  
G 9  23419939.313      -93276.617       -1773.001          62.000  
G16  23118145.213      -99919.396       -1925.423          62.750  
G21  21699971.606      136779.572        2619.530           0.750  
G26  25261797.272      -98437.582       -2360.342          58.000  
G27  21763261.713     -103270.709       -2563.606           1.500  
G30  25300607.121      134034.517        3444.322          58.750  
> 2023  5 18  0  1 26.6688020  0 10                     
G 1  24267868.645      316064.570        3897.315          59.750  
G 4  23640512.705     -199253.571       -2855.114          61.000  
G 7  22500735.051      189223.829        2714.466           0.500  
G 8  20632540.547      -35912.597        -646.601           4.500  
G 9  23419973.284      -93453.899       -1773.009          62.000  
G16  23118181.881     -100111.936       -1925.424          63.000  
G21  21699921.429      137041.589        2620.167           0.750  
G26  25261841.701      -98673.686       -2362.009          58.000  
G27  21763310.676     -103527.050       -2563.291           1.500  
G30  25300543.919      134378.927        3445.520          58.750  
> 2023  5 18  0  1 26.7688020  0 10                     
G 1  24267794.091      316454.322        3896.854          59.750  
G 4  23640567.088     -199539.119       -2855.875          61.000  
G 7  22500683.625      189495.330        2714.330           0.500  
G 8  20632552.923      -35977.299        -646.960           4.500  
G 9  23420007.044      -93631.194       -1772.345          62.000  
G16  23118218.277     -100304.475       -1924.977          63.000  
G21  21699871.447      137303.596        2620.358           0.750  
G26  25261886.461      -98909.797       -2361.739          58.000  
G27  21763359.743     -103783.415       -2563.200           1.500  
G30  25300477.924      134723.309        3443.988          58.750  
> 2023  5 18  0  1 26.8688020  0 10                     
G 1  24267719.902      316844.077        3897.521          59.750  
G 4  23640621.512     -199824.684       -2856.004          61.000  
G 7  22500631.922      189766.836        2715.254           0.500  
G 8  20632565.593      -36041.990        -646.866           4.500  
G 9  23420040.721      -93808.500       -1773.400          62.000  
G16  23118255.053     -100497.013       -1924.995          63.000  
G21  21699822.335      137565.593        2619.695           0.750  
G26  25261931.693      -99145.916       -2360.662          57.750  
G27  21763407.474     -104039.763       -2564.069           1.500  
G30  25300416.019      135067.734        3444.173          58.500  
> 2023  5 18  0  1 26.9688020  0 10                     
G 1  24267645.990      317233.832        3898.236          59.750  
G 4  23640675.444     -200110.245       -2855.350          61.000  
G 7  22500580.234      190038.332        2714.740           0.500  
G 8  20632577.951      -36106.695        -646.551           4.500  
G 9  23420074.378      -93985.788       -1772.401          62.000  
G16  23118291.722     -100689.565       -1925.750          63.000  
G21  21699772.204      137827.589        2618.479           0.750  
G26  25261977.035      -99382.025       -2358.405          58.000  
G27  21763457.185     -104296.110       -2562.308           1.500  
G30  25300347.855      135412.147        3444.841          58.500  
> 2023  5 18  0  1 27.0688020  0 10                     
G 1  24267571.723      317623.579        3896.947          59.750  
G 4  23640730.033     -200395.793       -2855.046          61.000  
G 7  22500528.394      190309.831        2715.028           0.500  
G 8  20632590.340      -36171.414        -647.597           4.500  
G 9  23420107.943      -94163.100       -1773.108          62.000  
G16  23118328.478     -100882.117       -1925.923          63.000  
G21  21699721.735      138089.589        2619.070           0.750  
G26  25262022.786      -99618.166       -2357.743          58.000  
G27  21763506.312     -104552.491       -2563.300           1.500  
G30  25300282.125      135756.546        3444.160          58.750  
> 2023  5 18  0  1 27.1688020  0 10                     
G 1  24267498.064      318013.330        3896.986          59.750  
G 4  23640784.133     -200681.360       -2856.195          61.000  
G 7  22500476.989      190581.323        2714.544           0.500  
G 8  20632602.012      -36236.122        -647.331           4.500  
G 9  23420141.978      -94340.599       -1775.690          62.000  
G16  23118365.016     -101074.661       -1925.323          63.000  
G21  21699672.297      138351.582        2619.161           0.750  
G26  25262068.071      -99854.301       -2357.181          57.750  
G27  21763555.520     -104808.765       -2547.137           1.500  
G30  25300214.125      136100.939        3443.561          58.750  
> 2023  5 18  0  1 27.2688020  0 10                     
G 1  24267423.065      318403.097        3898.036          59.750  
G 4  23640838.451     -200966.919       -2855.645          61.000  
G 7  22500425.487      190852.807        2714.858           0.500  
G 8  20632614.394      -36300.838        -646.711           4.500  
G 9  23420175.530      -94517.723       -1772.570          62.000  
G16  23118401.387     -101267.229       -1917.057          63.000  
G21  21699622.627      138613.570        2619.407           0.750  
G26  25262112.503     -100090.441       -2360.833          57.750  
G27  21763603.060     -105065.198       -2562.900           1.500  
G30  25300149.637      136445.347        3444.870          58.750  
> 2023  5 18  0  1 27.3688020  0 10                     
G 1  24267349.577      318792.844        3897.799          59.750  
G 4  23640893.267     -201252.477       -2855.093          61.000  
G 7  22500373.695      191124.294        2714.678           0.500  
G 8  20632627.076      -36365.563        -647.101           4.500  
G 9  23420209.230      -94695.044       -1773.478          62.000  
G16  23118438.022     -101459.756       -1925.610          63.000  
G21  21699572.881      138875.546        2619.646           0.750  
G26  25262156.440     -100326.576       -2363.289          57.750  
G27  21763652.422     -105321.578       -2563.519           1.500  
G30  25300085.025      136789.745        3443.250          58.750  
> 2023  5 18  0  1 27.4688020  0 10                     
G 1  24267275.168      319182.593        3897.419          59.750  
G 4  23640947.660     -201538.038       -2856.064          61.000  
G 7  22500322.065      191395.779        2714.766           0.500  
G 8  20632639.233      -36430.290        -647.390           4.500  
G 9  23420243.082      -94872.358       -1772.935          62.000  
G16  23118474.947     -101652.301       -1925.254          62.750  
G21  21699522.840      139137.521        2620.146           0.750  
G26  25262202.795     -100562.686       -2363.108          58.000  
G27  21763700.426     -105577.941       -2564.031           1.500  
G30  25300020.934      137134.146        3442.412          58.750  
> 2023  5 18  0  1 27.5688020  0 10                     
G 1  24267201.016      319572.351        3897.960          59.750  
G 4  23641002.107     -201823.600       -2856.581          61.000  
G 7  22500270.188      191667.260        2714.817           0.500  
G 8  20632651.883      -36495.023        -647.265           4.500  
G 9  23420276.803      -95049.686       -1773.274          62.000  
G16  23118511.656     -101844.855       -1925.780          63.000  
G21  21699472.736      139399.493        2620.506           0.750  
G26  25262246.761     -100798.799       -2364.715          58.000  
G27  21763749.674     -105834.319       -2563.057           1.500  
G30  25299955.087      137478.566        3442.719          59.000  
> 2023  5 18  0  1 27.6688020  0 10                     
G 1  24267126.757      319962.107        3897.277          59.750  
G 4  23641056.137     -202109.155       -2855.476          61.000  
G 7  22500218.745      191938.737        2714.729           0.500  
G 8  20632664.260      -36559.760        -647.199           4.500  
G 9  23420310.597      -95227.018       -1773.580          62.000  
G16  23118548.292     -102037.412       -1925.688          63.000  
G21  21699423.133      139661.460        2620.806           0.750  
G26  25262291.934     -101034.908       -2363.478          58.000  
G27  21763797.940     -106090.701       -2563.461           1.500  
G30  25299893.120      137822.990        3444.878          58.500  
> 2023  5 18  0  1 27.7688020  0 10                     
G 1  24267052.824      320351.850        3897.414          59.750  
G 4  23641110.169     -202394.717       -2855.574          61.000  
G 7  22500166.895      192210.217        2714.576           0.500  
G 8  20632676.147      -36624.500        -647.699           4.500  
G 9  23420344.130      -95404.355       -1773.378          62.000  
G16  23118584.736     -102229.967       -1925.903          63.000  
G21  21699373.431      139923.410        2619.305           0.750  
G26  25262336.160     -101271.008       -2362.606          58.000  
G27  21763846.761     -106347.075       -2563.833           1.500  
G30  25299826.190      138167.375        3444.164          58.750  
> 2023  5 18  0  1 27.8688020  0 10                     
G 1  24266978.634      320741.609        3897.583          59.750  
G 4  23641164.592     -202680.298       -2855.995          61.000  
G 7  22500114.913      192481.570        2702.205           0.500  
G 8  20632688.411      -36689.241        -647.033           4.500  
G 9  23420377.747      -95581.689       -1774.187          62.000  
G16  23118621.542     -102422.519       -1925.374          63.000  
G21  21699323.716      140185.360        2618.129           0.750  
G26  25262379.728     -101507.137       -2360.227          58.000  
G27  21763896.238     -106603.447       -2564.446           1.500  
G30  25299759.828      138511.772        3444.806          58.750  
> 2023  5 18  0  1 27.9688020  0 10                     
G 1  24266904.476      321131.361        3897.542          59.750  
G 4  23641219.111     -202965.858       -2856.172          61.000  
G 7  22500063.430      192753.163        2715.046           0.500  
G 8  20632700.828      -36753.998        -647.157           4.500  
G 9  23420411.745      -95759.019       -1772.957          62.000  
G16  23118658.247     -102615.068       -1925.323          63.000  
G21  21699273.556      140447.326        2619.939           0.750  
G26  25262426.037     -101743.290       -2360.888          58.000  
G27  21763945.249     -106859.837       -2563.263           1.500  
G30  25299692.750      138856.196        3444.211          58.500  
> 2023  5 18  0  1 28.0688020  0 10                     
G 1  24266830.195      321521.119        3898.203          59.750  
G 4  23641273.205     -203251.424       -2856.004          61.000  
G 7  22500011.349      193024.625        2714.783           0.500  
G 8  20632713.557      -36818.751        -647.859           4.500  
G 9  23420445.439      -95936.414       -1756.861          62.000  
G16  23118694.692     -102807.625       -1926.065          63.000  
G21  21699223.546      140709.275        2620.624           0.750  
G26  25262471.898     -101979.442       -2365.671          57.750  
G27  21763992.632     -107116.221       -2564.494           1.500  
G30  25299630.674      139200.562        3443.669          58.750  
> 2023  5 18  0  1 28.1688020  0 10                     
G 1  24266755.574      321910.872        3897.667          59.750  
G 4  23641327.839     -203536.996       -2855.864          61.000  
G 7  22499960.309      193296.094        2714.573           0.500  
G 8  20632725.654      -36883.507        -647.419           4.500  
G 9  23420479.018      -96113.800       -1795.494          62.000  
G16  23118731.437     -103000.190       -1926.016          63.000  
G21  21699173.988      140971.215        2621.683           0.750  
G26  25262518.114     -102215.567       -2368.859          57.750  
G27  21764043.904     -107372.600       -2563.458           1.500  
G30  25299557.776      139544.967        3443.674          59.250  
> 2023  5 18  0  1 28.2688020  0 10                     
G 1  24266681.895      322300.618        3896.929          59.750  
G 4  23641381.964     -203822.563       -2855.138          61.000  
G 7  22499908.813      193567.553        2714.690           0.500  
G 8  20632737.983      -36948.277        -647.801           4.500  
G 9  23420512.907      -96290.840       -1755.960          62.000  
G16  23118767.719     -103192.864       -1939.456          62.750  
G21  21699124.438      141233.142        2620.208           0.750  
G26  25262561.441     -102451.671       -2367.871          57.500  
G27  21764091.446     -107629.003       -2563.537           1.500  
G30  25299490.217      139889.381        3443.108          58.750  
> 2023  5 18  0  1 28.3688020  0 10                     
G 1  24266607.451      322690.368        3896.997          59.750  
G 4  23641436.352     -204108.142       -2856.316          61.000  
G 7  22499856.892      193839.015        2714.950           0.500  
G 8  20632750.293      -37013.043        -647.578           4.500  
G 9  23420546.654      -96468.419       -1773.654          62.000  
G16  23118804.560     -103385.305       -1925.695          63.000  
G21  21699074.449      141495.074        2619.844           0.750  
G26  25262606.238     -102687.762       -2362.790          57.500  
G27  21764140.284     -107885.389       -2564.334           1.500  
G30  25299427.729      140233.774        3444.878          58.500  
> 2023  5 18  0  1 28.4688020  0 10                     
G 1  24266533.500      323080.126        3897.726          59.750  
G 4  23641490.388     -204393.708       -2855.662          61.000  
G 7  22499805.176      194110.601        2741.974           0.500  
G 8  20632762.399      -37077.817        -647.446           4.500  
G 9  23420580.599      -96645.785       -1773.174          62.000  
G16  23118841.612     -103577.673       -1904.345          63.000  
G21  21699024.398      141756.993        2619.284           0.750  
G26  25262650.599     -102923.877       -2360.740          57.750  
G27  21764189.243     -108141.783       -2563.992           1.500  
G30  25299363.218      140578.164        3444.802          58.750  
> 2023  5 18  0  1 28.5688020  0 10                     
G 1  24266459.133      323469.884        3897.730          59.750  
G 4  23641545.051     -204679.282       -2856.114          61.000  
G 7  22499753.824      194381.928        2705.306           0.500  
G 8  20632774.948      -37142.592        -648.021           4.500  
G 9  23420614.157      -96823.151       -1773.514          62.000  
G16  23118878.029     -103770.274       -1917.805          62.750  
G21  21698974.235      142018.916        2619.453           0.750  
G26  25262696.220     -103160.025       -2361.224          58.000  
G27  21764237.998     -108398.188       -2564.392           1.500  
G30  25299298.754      140922.605        3405.825          58.750  
> 2023  5 18  0  1 28.6688020  0 10                     
G 1  24266385.158      323859.635        3897.354          59.750  
G 4  23641599.291     -204964.862       -2855.522          61.000  
G 7  22499702.291      194653.370        2714.186           0.500  
G 8  20632787.353      -37207.374        -647.542           4.500  
G 9  23420648.078      -97000.518       -1773.851          62.000  
G16  23118914.701     -103962.985       -1926.123          63.000  
G21  21698924.627      142280.833        2619.135           0.750  
G26  25262741.948     -103396.156       -2361.479          57.750  
G27  21764285.548     -108654.582       -2564.189           1.500  
G30  25299236.071      141266.951        3443.351          58.500  
> 2023  5 18  0  1 28.7688020  0 10                     
G 1  24266310.904      324249.381        3897.527          59.750  
G 4  23641653.702     -205250.433       -2854.891          61.000  
G 7  22499650.874      194924.779        2717.316           0.500  
G 8  20632799.688      -37272.168        -647.888           4.500  
G 9  23420681.909      -97177.647       -1745.299          62.000  
G16  23118951.127     -104155.551       -1925.685          62.750  
G21  21698874.748      142542.459        2559.823           0.750  
G26  25262786.363     -103632.283       -2363.744          57.750  
G27  21764335.310     -108910.989       -2563.796           1.500  
G30  25299168.856      141611.357        3445.167          58.750  
> 2023  5 18  0  1 28.8688020  0 10                     
G 1  24266236.842      324639.110        3897.555          59.750  
G 4  23641708.139     -205536.019       -2856.125          61.000  
G 7  22499598.921      195196.263        2714.450           0.500  
G 8  20632811.975      -37336.952        -647.799           4.500  
G 9  23420715.746      -97355.261       -1773.713          62.000  
G16  23118987.953     -104348.180       -1928.858          63.000  
G21  21698825.320      142804.654        2618.819           0.750  
G26  25262830.557     -103868.417       -2362.040          57.750  
G27  21764384.134     -109167.399       -2564.409           1.500  
G30  25299103.613      141955.746        3443.531          58.750  
> 2023  5 18  0  1 28.9688020  0 10                     
G 1  24266162.778      325028.855        3897.893          59.750  
G 4  23641762.506     -205821.601       -2855.847          61.000  
G 7  22499547.500      195467.699        2714.283           0.500  
G 8  20632823.975      -37401.749        -647.632           4.500  
G 9  23420749.485      -97532.641       -1773.257          62.000  
G16  23119024.865     -104540.678       -1925.344          63.000  
G21  21698775.306      143066.549        2617.289           0.750  
G26  25262876.641     -104104.523       -2355.832          57.750  
G27  21764432.680     -109423.805       -2563.992           1.500  
G30  25299037.055      142300.159        3445.627          58.750  
> 2023  5 18  0  1 29.0688020  0 10                     
G 1  24266088.222      325418.605        3897.587          59.750  
G 4  23641816.562     -206107.177       -2856.053          61.000  
G 7  22499495.640      195739.137        2714.320           0.500  
G 8  20632836.580      -37466.551        -648.132           4.500  
G 9  23420783.260      -97710.126       -1780.040          62.000  
G16  23119061.543     -104733.243       -1925.671          62.750  
G21  21698725.437      143328.925        2619.589           0.750  
G26  25262920.796     -104340.689       -2355.531          57.750  
G27  21764482.177     -109680.215       -2564.509           1.500  
G30  25298972.005      142644.538        3442.993          58.750  
> 2023  5 18  0  1 29.1688020  0 10                     
G 1  24266014.057      325808.351        3897.371          59.750  
G 4  23641871.522     -206392.762       -2855.403          61.000  
G 7  22499443.779      196010.568        2713.826           0.500  
G 8  20632848.542      -37531.359        -647.942           4.500  
G 9  23420816.901      -97887.421       -1774.247          62.000  
G16  23119097.791     -104925.816       -1926.067          63.000  
G21  21698675.381      143590.354        2616.732           0.750  
G26  25262964.866     -104576.831       -2354.198          57.750  
G27  21764530.127     -109936.622       -2564.097           1.500  
G30  25298907.406      142988.914        3443.604          58.750  
> 2023  5 18  0  1 29.2688020  0 10                     
G 1  24265940.340      326198.097        3897.700          59.750  
G 4  23641925.267     -206678.345       -2855.285          61.000  
G 7  22499391.825      196282.003        2714.488           0.500  
G 8  20632861.347      -37596.165        -648.177           4.500  
G 9  23420850.741      -98064.556       -1763.480          62.000  
G16  23119134.219     -105118.379       -1925.215          62.750  
G21  21698625.168      143852.251        2618.258           0.750  
G26  25263010.518     -104812.993       -2358.952          57.750  
G27  21764579.621     -110193.042       -2564.085           1.500  
G30  25298840.222      143333.328        3443.817          58.750  
> 2023  5 18  0  1 29.3688020  0 10                     
G 1  24265866.090      326587.849        3898.039          59.750  
G 4  23641979.890     -206963.941       -2856.088          61.000  
G 7  22499340.204      196553.432        2714.201           0.500  
G 8  20632873.671      -37660.978        -648.049           4.500  
G 9  23420884.124      -98242.198       -1773.964          62.000  
G16  23119171.128     -105310.944       -1925.903          63.000  
G21  21698575.461      144114.123        2618.406           0.750  
G26  25263055.390     -105049.125       -2358.897          57.750  
G27  21764628.682     -110449.459       -2564.042           1.500  
G30  25298772.781      143677.728        3443.669          58.750  
> 2023  5 18  0  1 29.4688020  0 10                     
G 1  24265791.787      326977.592        3897.071          59.750  
G 4  23642034.158     -207249.526       -2855.718          61.000  
G 7  22499288.443      196824.855        2714.392           0.500  
G 8  20632885.851      -37725.799        -648.346           4.500  
G 9  23420917.623      -98419.597       -1772.865          62.000  
G16  23119208.187     -105503.515       -1925.894          63.000  
G21  21698525.303      144376.005        2619.861           0.750  
G26  25263100.951     -105285.275       -2363.238          58.000  
G27  21764676.445     -110705.888       -2564.518           1.500  
G30  25298709.959      144022.096        3444.415          58.750  
> 2023  5 18  0  1 29.5688020  0 10                     
G 1  24265718.073      327367.331        3897.064          59.750  
G 4  23642088.904     -207535.111       -2856.134          61.000  
G 7  22499237.066      197096.280        2714.136           0.500  
G 8  20632898.179      -37790.620        -647.911           4.500  
G 9  23420951.654      -98597.012       -1773.876          62.000  
G16  23119244.576     -105696.086       -1925.795          62.750  
G21  21698475.982      144637.873        2618.901           0.750  
G26  25263145.909     -105521.395       -2362.296          57.750  
G27  21764725.646     -110962.309       -2564.776           1.500  
G30  25298644.141      144366.474        3442.495          58.750  
> 2023  5 18  0  1 29.6688020  0 10                     
G 1  24265643.356      327757.065        3897.663          59.750  
G 4  23642143.087     -207820.697       -2854.912          61.000  
G 7  22499185.524      197367.694        2713.875           0.500  
G 8  20632910.159      -37855.453        -648.117           4.500  
G 9  23420985.354      -98774.416       -1774.115          62.000  
G16  23119280.915     -105888.660       -1925.854          62.750  
G21  21698426.464      144899.744        2619.269           0.750  
G26  25263190.165     -105757.518       -2363.054          58.000  
G27  21764775.144     -111218.731       -2563.400           1.500  
G30  25298575.331      144710.864        3443.497          58.750  
> 2023  5 18  0  1 29.7688020  0 10                     
G 1  24265568.858      328146.816        3898.040          59.750  
G 4  23642197.126     -208106.291       -2855.424          61.000  
G 7  22499134.197      197639.118        2714.635           0.500  
G 8  20632922.951      -37920.283        -648.532           4.500  
G 9  23421019.365      -98951.826       -1774.445          62.000  
G16  23119317.553     -106081.231       -1925.496          62.750  
G21  21698376.387      145161.602        2618.006           0.750  
G26  25263235.801     -105993.657       -2361.223          58.000  
G27  21764822.801     -111475.170       -2564.853           1.500  
G30  25298512.129      145055.267        3443.583          58.750  
> 2023  5 18  0  1 29.8688020  0 10                     
G 1  24265494.953      328536.559        3897.602          59.750  
G 4  23642251.244     -208391.897       -2856.242          61.000  
G 7  22499082.553      197910.523        2713.566           0.500  
G 8  20632935.338      -37985.119        -648.037           4.500  
G 9  23421053.152      -99129.311       -1787.974          62.000  
G16  23119354.234     -106273.801       -1925.921          63.000  
G21  21698327.041      145423.460        2618.090           0.750  
G26  25263280.488     -106229.779       -2360.369          58.000  
G27  21764872.320     -111731.776       -2582.741           1.500  
G30  25298448.137      145399.646        3443.550          58.750  
> 2023  5 18  0  1 29.9688020  0 10                     
G 1  24265420.907      328926.306        3897.619          59.750  
G 4  23642306.349     -208677.487       -2856.189          61.000  
G 7  22499030.405      198181.938        2714.225           0.500  
G 8  20632947.568      -38049.968        -648.815           4.500  
G 9  23421086.029      -99306.655       -1773.399          62.000  
G16  23119391.760     -106466.374       -1925.794          62.750  
G21  21698276.789      145685.315        2618.123           0.750  
G26  25263324.508     -106465.917       -2360.924          58.000  
G27  21764920.145     -111988.036       -2564.166           1.500  
G30  25298386.176      145744.050        3445.220          58.750  
> 2023  5 18  0  1 30.0688020  0 10                     
G 1  24265347.473      329316.053        3897.410          59.750  
G 4  23642360.532     -208963.079       -2856.163          61.000  
G 7  22498978.785      198453.259        2707.260           0.500  
G 8  20632960.028      -38114.804        -647.749           4.500  
G 9  23421119.947      -99484.294       -1794.521          62.000  
G16  23119428.351     -106658.995       -1923.050          62.750  
G21  21698226.723      145947.180        2619.325           0.750  
G26  25263367.447     -106702.076       -2361.405          58.000  
G27  21764969.336     -112244.479       -2566.391           1.500  
G30  25298315.089      146088.446        3445.016          58.750  
> 2023  5 18  0  1 30.1688020  0 10                     
G 1  24265273.271      329705.804        3898.601          59.750  
G 4  23642414.961     -209248.666       -2855.863          61.000  
G 7  22498927.398      198724.749        2714.298           0.500  
G 8  20632972.898      -38179.670        -649.458           4.750  
G 9  23421153.249      -99661.520       -1774.434          62.000  
G16  23119465.446     -106851.527       -1925.309          62.750  
G21  21698176.345      146209.027        2619.361           0.750  
G26  25263415.714     -106938.215       -2362.009          58.000  
G27  21765017.473     -112500.904       -2564.754           1.500  
G30  25298249.999      146432.832        3446.508          58.500  
> 2023  5 18  0  1 30.2688020  0 10                     
G 1  24265198.729      330095.549        3898.016          59.750  
G 4  23642469.316     -209534.267       -2854.556          61.000  
G 7  22498875.716      198996.156        2710.438           0.500  
G 8  20632984.084      -38244.505        -647.745           4.500  
G 9  23421189.023      -99839.157       -1780.720          62.000  
G16  23119500.908     -107044.105       -1925.605          63.000  
G21  21698126.638      146470.861        2619.160           0.750  
G26  25263463.005     -107174.364       -2361.975          58.000  
G27  21765066.717     -112757.247       -2595.976           1.500  
G30  25298184.846      146777.228        3497.594          58.750  
> 2023  5 18  0  1 30.3688020  0 10                     
G 1  24265124.352      330485.295        3897.084          59.750  
G 4  23642523.504     -209819.879       -2855.416          61.000  
G 7  22498823.889      199267.547        2714.333           0.500  
G 8  20632996.943      -38309.376        -648.187           4.500  
G 9  23421222.083     -100016.386       -1774.523          62.000  
G16  23119537.608     -107236.688       -1926.426          63.000  
G21  21698077.464      146732.687        2618.032           0.750  
G26  25263506.506     -107410.501       -2361.434          58.000  
G27  21765115.730     -113013.789       -2564.893           1.500  
G30  25298119.540      147121.584        3443.678          58.750  
> 2023  5 18  0  1 30.4688020  0 10                     
G 1  24265049.808      330875.045        3897.890          59.750  
G 4  23642578.042     -210105.485       -2856.149          61.000  
G 7  22498772.335      199538.942        2714.038           0.500  
G 8  20633009.415      -38374.244        -648.906           4.500  
G 9  23421255.973     -100193.813       -1774.474          62.000  
G16  23119573.968     -107429.433       -1957.487          62.750  
G21  21698027.527      146994.528        2617.652           0.750  
G26  25263551.198     -107646.643       -2359.400          58.000  
G27  21765165.671     -113270.253       -2564.744           1.500  
G30  25298051.035      147465.975        3442.590          59.000  
> 2023  5 18  0  1 30.5688020  0 10                     
G 1  24264975.880      331264.789        3897.053          59.750  
G 4  23642632.040     -210391.086       -2856.572          61.000  
G 7  22498720.839      199810.333        2713.572           0.500  
G 8  20633021.265      -38439.108        -648.490           4.500  
G 9  23421290.167     -100371.256       -1773.809          62.000  
G16  23119610.688     -107621.843       -1925.707          63.000  
G21  21697978.069      147256.358        2617.303           0.750  
G26  25263594.315     -107882.797       -2359.151          58.000  
G27  21765213.942     -113526.689       -2564.173           1.500  
G30  25297985.069      147810.357        3443.694          58.500  
> 2023  5 18  0  1 30.6688020  0 10                     
G 1  24264900.762      331654.538        3897.490          59.750  
G 4  23642687.136     -210676.690       -2856.877          61.000  
G 7  22498669.574      200081.718        2714.076           0.500  
G 8  20633034.529      -38503.984        -648.855           4.500  
G 9  23421321.568     -100548.710       -1774.382          62.000  
G16  23119648.305     -107814.427       -1926.073          62.750  
G21  21697927.539      147518.189        2618.633           0.750  
G26  25263640.705     -108118.943       -2360.783          58.000  
G27  21765261.608     -113783.141       -2564.317           1.500  
G30  25297920.571      148154.742        3445.000          58.750  
> 2023  5 18  0  1 30.7688020  0 10                     
G 1  24264827.625      332044.287        3897.707          59.750  
G 4  23642741.526     -210962.284       -2855.178          61.000  
G 7  22498617.213      200353.105        2713.882           0.500  
G 8  20633045.534      -38568.865        -648.988           4.500  
G 9  23421355.621     -100726.168       -1775.046          62.000  
G16  23119684.453     -108007.011       -1926.102          62.750  
G21  21697878.053      147780.003        2618.048           0.750  
G26  25263685.709     -108355.086       -2360.719          58.000  
G27  21765311.549     -114039.600       -2564.426           1.500  
G30  25297858.359      148499.154        3444.756          58.500  
> 2023  5 18  0  1 30.8688020  0 10                     
G 1  24264753.400      332434.029        3896.885          59.750  
G 4  23642794.691     -211247.900       -2855.987          61.000  
G 7  22498565.660      200624.493        2714.019           0.500  
G 8  20633058.965      -38633.746        -649.266           4.500  
G 9  23421389.708     -100903.621       -1775.466          62.000  
G16  23119721.076     -108199.596       -1925.421          62.750  
G21  21697828.523      148041.805        2617.422           0.750  
G26  25263730.996     -108591.204       -2357.945          57.750  
G27  21765359.249     -114296.061       -2564.553           1.500  
G30  25297793.310      148843.509        3441.963          59.000  
> 2023  5 18  0  1 30.9688020  0 10                     
G 1  24264679.857      332823.780        3897.296          59.750  
G 4  23642849.105     -211533.522       -2855.396          61.000  
G 7  22498513.643      200895.869        2714.173           0.500  
G 8  20633071.456      -38698.631        -648.387           4.500  
G 9  23421425.061     -101081.069       -1774.833          62.000  
G16  23119757.572     -108392.177       -1925.964          63.000  
G21  21697779.157      148303.608        2617.092           0.750  
G26  25263773.872     -108827.353       -2358.246          57.750  
G27  21765408.655     -114552.520       -2565.033           1.500  
G30  25297725.246      149187.921        3443.909          58.750  
> 2023  5 18  0  1 31.0688020  0 10                     
G 1  24264605.386      333213.522        3897.112          59.750  
G 4  23642903.459     -211819.140       -2856.013          61.000  
G 7  22498462.449      201167.238        2713.501           0.500  
G 8  20633083.517      -38763.529        -649.136           4.500  
G 9  23421458.070     -101258.163       -1736.306          62.000  
G16  23119794.324     -108584.761       -1925.678          63.000  
G21  21697728.761      148565.418        2616.798           0.750  
G26  25263819.760     -109063.512       -2359.228          58.000  
G27  21765457.439     -114808.980       -2564.844           1.500  
G30  25297658.861      149532.284        3443.248          58.750  
> 2023  5 18  0  1 31.1688020  0 10                     
G 1  24264531.617      333603.270        3897.093          59.750  
G 4  23642958.053     -212104.746       -2856.241          61.000  
G 7  22498410.950      201438.618        2713.802           0.500  
G 8  20633096.161      -38828.426        -649.176           4.500  
G 9  23421493.095     -101435.986       -1774.586          62.000  
G16  23119829.971     -108777.345       -1925.755          62.750  
G21  21697678.594      148827.223        2617.643           0.750  
G26  25263865.034     -109299.675       -2362.038          58.000  
G27  21765506.446     -115065.440       -2563.933           1.500  
G30  25297593.215      149876.656        3441.238          58.500  
> 2023  5 18  0  1 31.2688020  0 10                     
G 1  24264456.853      333993.021        3897.819          59.750  
G 4  23643013.033     -212390.366       -2856.333          61.000  
G 7  22498359.416      201709.899        2703.366           0.500  
G 8  20633108.166      -38893.330        -649.541           4.500  
G 9  23421527.045     -101613.276       -1756.421          62.000  
G16  23119867.003     -108969.934       -1925.637          62.750  
G21  21697629.923      149089.028        2642.878           0.750  
G26  25263907.565     -109535.824       -2360.987          58.000  
G27  21765553.736     -115321.908       -2564.115           1.500  
G30  25297534.048      150221.051        3443.498          58.750  
> 2023  5 18  0  1 31.3688020  0 10                     
G 1  24264383.189      334382.769        3898.284          59.750  
G 4  23643066.621     -212675.968       -2856.368          61.000  
G 7  22498307.900      201981.356        2714.179           0.500  
G 8  20633119.917      -38958.224        -648.841           4.500  
G 9  23421559.688     -101790.943       -1775.229          62.000  
G16  23119903.922     -109162.527       -1926.042          63.000  
G21  21697580.591      149350.807        2617.944           0.750  
G26  25263950.891     -109771.987       -2360.368          58.000  
G27  21765604.143     -115578.375       -2564.719           1.500  
G30  25297466.909      150565.409        3442.843          58.750  
> 2023  5 18  0  1 31.4688020  0 10                     
G 1  24264308.544      334772.509        3897.104          59.750  
G 4  23643121.311     -212961.583       -2855.756          61.000  
G 7  22498255.430      202252.717        2713.486           0.500  
G 8  20633132.745      -39023.141        -649.275           4.500  
G 9  23421593.667     -101968.424       -1775.159          62.000  
G16  23119940.818     -109355.115       -1925.315          62.750  
G21  21697529.655      149612.593        2618.715           0.750  
G26  25263997.030     -110008.121       -2362.704          57.750  
G27  21765652.287     -115834.848       -2564.068           1.500  
G30  25297399.255      150909.803        3445.177          58.750  
> 2023  5 18  0  1 31.5688020  0 10                     
G 1  24264234.193      335162.265        3898.537          59.750  
G 4  23643175.573     -213247.201       -2855.515          61.000  
G 7  22498204.556      202524.077        2713.495           0.500  
G 8  20633145.251      -39088.050        -649.079           4.500  
G 9  23421627.517     -102145.901       -1775.674          62.000  
G16  23119977.912     -109547.704       -1925.516          62.750  
G21  21697479.461      149874.364        2617.268           0.750  
G26  25264042.664     -110244.269       -2361.075          57.750  
G27  21765700.791     -116091.334       -2564.520           1.500  
G30  25297333.320      151254.173        3444.192          58.750  
> 2023  5 18  0  1 31.6688020  0 10                     
G 1  24264160.171      335552.011        3898.261          59.750  
G 4  23643230.454     -213532.826       -2855.350          61.000  
G 7  22498152.985      202795.434        2712.998           0.500  
G 8  20633157.227      -39152.975        -649.117           4.500  
G 9  23421660.768     -102323.376       -1774.627          62.000  
G16  23120014.444     -109740.298       -1925.720          62.750  
G21  21697429.774      150136.130        2617.089           0.750  
G26  25264088.510     -110480.417       -2360.929          58.000  
G27  21765749.958     -116347.804       -2564.519           1.500  
G30  25297269.369      151598.555        3444.057          58.750  
> 2023  5 18  0  1 31.7688020  0 10                     
G 1  24264085.736      335941.763        3897.735          59.750  
G 4  23643285.150     -213818.448       -2856.581          61.000  
G 7  22498100.840      203066.788        2713.526           0.500  
G 8  20633169.708      -39217.896        -649.283           4.500  
G 9  23421694.529     -102500.874       -1775.252          62.000  
G16  23120050.818     -109932.887       -1925.636          63.000  
G21  21697379.837      150397.899        2617.812           0.750  
G26  25264136.567     -110716.564       -2362.538          58.000  
G27  21765798.986     -116604.290       -2564.778           1.500  
G30  25297200.485      151942.929        3442.093          59.000  
> 2023  5 18  0  1 31.8688020  0 10                     
G 1  24264010.735      336331.504        3897.162          59.750  
G 4  23643339.029     -214104.065       -2856.139          61.000  
G 7  22498049.287      203338.148        2714.048           0.500  
G 8  20633182.342      -39282.826        -649.029           4.500  
G 9  23421729.517     -102678.359       -1775.270          62.000  
G16  23120087.518     -110125.476       -1925.632          62.750  
G21  21697330.170      150659.671        2618.362           0.750  
G26  25264180.371     -110952.732       -2362.707          58.000  
G27  21765847.375     -116860.776       -2565.056           1.500  
G30  25297136.434      152287.333        3446.830          59.000  
> 2023  5 18  0  1 31.9688020  0 10                     
G 1  24263937.424      336721.250        3897.234          59.750  
G 4  23643393.053     -214389.682       -2856.464          61.000  
G 7  22497997.570      203609.501        2713.917           0.500  
G 8  20633194.387      -39347.761        -649.596           4.500  
G 9  23421762.514     -102855.858       -1774.916          62.000  
G16  23120124.110     -110318.072       -1925.556          63.000  
G21  21697280.475      150921.432        2617.772           0.750  
G26  25264224.798     -111188.889       -2362.735          58.000  
G27  21765896.148     -117117.267       -2564.917           1.500  
G30  25297073.083      152631.727        3444.919          59.000  
> 2023  5 18  0  1 32.0688020  0 10                     
G 1  24263863.268      337111.003        3897.811          59.750  
G 4  23643447.752     -214675.309       -2856.552          61.000  
G 7  22497946.096      203880.849        2713.613           0.500  
G 8  20633206.727      -39412.696        -648.978           4.500  
G 9  23421796.384     -103033.362       -1775.615          62.000  
G16  23120160.702     -110510.668       -1925.542          63.000  
G21  21697230.966      151183.192        2617.472           0.750  
G26  25264268.978     -111425.064       -2361.631          58.000  
G27  21765944.803     -117373.747       -2564.526           1.500  
G30  25297007.127      152976.090        3444.040          58.500  
> 2023  5 18  0  1 32.1688020  0 10                     
G 1  24263789.619      337500.743        3897.335          59.750  
G 4  23643501.906     -214960.932       -2855.869          61.000  
G 7  22497894.520      204152.196        2713.147           0.500  
G 8  20633219.220      -39477.641        -649.494           4.500  
G 9  23421829.808     -103210.861       -1774.245          62.000  
G16  23120197.510     -110703.454       -1958.178          63.000  
G21  21697180.791      151444.941        2617.283           0.750  
G26  25264314.567     -111661.210       -2359.552          57.750  
G27  21765994.852     -117630.244       -2564.563           1.500  
G30  25296940.033      153320.452        3443.505          58.750  
> 2023  5 18  0  1 32.2688020  0 10                     
G 1  24263715.202      337890.492        3897.529          59.750  
G 4  23643555.922     -215246.560       -2856.227          61.000  
G 7  22497842.787      204423.538        2713.788           0.500  
G 8  20633231.824      -39542.586        -649.162           4.500  
G 9  23421863.679     -103388.378       -1775.949          62.000  
G16  23120234.189     -110895.862       -1925.858          63.000  
G21  21697131.290      151706.678        2616.750           0.750  
G26  25264359.923     -111897.358       -2357.972          57.750  
G27  21766043.698     -117886.733       -2564.813           1.500  
G30  25296871.622      153664.817        3443.492          58.750  
> 2023  5 18  0  1 32.3688020  0 10                     
G 1  24263640.595      338280.238        3897.865          59.750  
G 4  23643609.893     -215532.182       -2855.685          61.000  
G 7  22497791.318      204694.873        2713.321           0.500  
G 8  20633244.219      -39607.545        -649.484           4.500  
G 9  23421897.581     -103565.886       -1775.033          62.000  
G16  23120270.871     -111088.457       -1925.445          62.750  
G21  21697081.727      151968.417        2616.701           0.750  
G26  25264405.698     -112133.478       -2356.485          57.750  
G27  21766091.685     -118143.224       -2564.434           1.500  
G30  25296809.686      154009.187        3443.578          58.500  
> 2023  5 18  0  1 32.4688020  0 10                     
G 1  24263566.361      338669.981        3896.821          59.750  
G 4  23643663.928     -215817.826       -2856.651          61.000  
G 7  22497739.628      204966.214        2713.867           0.500  
G 8  20633256.449      -39672.495        -649.585           4.500  
G 9  23421930.921     -103743.399       -1775.439          62.000  
G16  23120307.446     -111281.051       -1925.825          62.750  
G21  21697031.379      152230.154        2616.309           0.750  
G26  25264449.532     -112369.667       -2361.147          57.750  
G27  21766141.281     -118399.734       -2565.062           1.500  
G30  25296743.272      154353.579        3444.364          58.500  
> 2023  5 18  0  1 32.5688020  0 10                     
G 1  24263492.212      339059.713        3897.307          59.750  
G 4  23643718.618     -216103.394       -2855.131          61.000  
G 7  22497687.890      205237.469        2705.561           0.500  
G 8  20633268.729      -39737.458        -649.795           4.500  
G 9  23421964.775     -103920.993       -1759.327          62.000  
G16  23120343.882     -111473.677       -1931.491          62.750  
G21  21696981.488      152491.606        2618.776           0.750  
G26  25264494.013     -112605.164       -2488.916          57.750  
G27  21766190.914     -118656.148       -2556.635           1.500  
G30  25296675.013      154697.890        3456.320          58.750  
> 2023  5 18  0  1 32.6688020  0 10                     
G 1  24263418.231      339449.455        3897.771          59.750  
G 4  23643772.985     -216389.082       -2856.094          61.000  
G 7  22497636.451      205508.882        2713.640           0.500  
G 8  20633281.192      -39802.424        -649.968           4.500  
G 9  23421998.691     -104098.445       -1775.321          62.000  
G16  23120380.449     -111666.261       -1926.064          63.000  
G21  21696931.669      152753.605        2617.538           0.750  
G26  25264538.894     -112841.965       -2364.301          58.000  
G27  21766238.784     -118912.735       -2564.955           1.500  
G30  25296611.026      155042.309        3443.558          58.500  
> 2023  5 18  0  1 32.7688020  0 10                     
G 1  24263344.041      339839.224        3938.698          59.750  
G 4  23643827.491     -216674.714       -2855.856          61.000  
G 7  22497584.746      205780.203        2712.650           0.500  
G 8  20633293.610      -39867.395        -649.742           4.500  
G 9  23422032.651     -104276.187       -1830.208          62.000  
G16  23120417.065     -111858.864       -1926.222          63.000  
G21  21696881.811      153015.336        2618.259           0.750  
G26  25264583.124     -113079.737       -2696.504          57.750  
G27  21766287.453     -119169.279       -2548.018           1.500  
G30  25296547.102      155386.671        3443.427          58.750  
