     3.03           OBSERVATION DATA    M: Mixed            RINEX VERSION / TYPE
GNSS-SDRLIB v1.1                        20231210 101743 UTC PGM / RUN BY / DATE 
                                                            MARKER NAME         
                                                            MARKER NUMBER       
                                                            MARKER TYPE         
                                                            OBSERVER / AGENCY   
GNSS-SDRLIB         GNSS-SDRLIB         1.1                 REC # / TYPE / VERS 
                                                            ANT # / TYPE        
        0.0000        0.0000        0.0000                  APPROX POSITION XYZ 
        0.0000        0.0000        0.0000                  ANTENNA: DELTA H/E/N
G    4 C1C L1C D1C S1C                                      SYS / # / OBS TYPES 
R    4 C1C L1C D1C S1C                                      SYS / # / OBS TYPES 
E    4 C1C L1C D1C S1C                                      SYS / # / OBS TYPES 
J    4 C1C L1C D1C S1C                                      SYS / # / OBS TYPES 
S    4 C1C L1C D1C S1C                                      SYS / # / OBS TYPES 
C    4 C1C L1C D1C S1C                                      SYS / # / OBS TYPES 
I    4 C1C L1C D1C S1C                                      SYS / # / OBS TYPES 
  1970    01    01    00    00   00.0000000     GPS         TIME OF FIRST OBS   
  1970    01    01    00    00   00.0000000     GPS         TIME OF LAST OBS    
G L1C                                                       SYS / PHASE SHIFT   
R L1C                                                       SYS / PHASE SHIFT   
E L1C  0.00000                                              SYS / PHASE SHIFT   
J L1C                                                       SYS / PHASE SHIFT   
S L1C                                                       SYS / PHASE SHIFT   
C L1C  0.00000                                              SYS / PHASE SHIFT   
I L1C  0.00000                                              SYS / PHASE SHIFT   
  0                                                         GLONASS SLOT / FRQ #
 C1C    0.000 C1P    0.000 C2C    0.000 C2P    0.000        GLONASS COD/PHS/BIS 
                                                            END OF HEADER       
> 2023 05 18 00 00 36.0688020  0  1                     
G05  20623393.069       43091.549        2049.010           0.255  
> 2023 05 18 00 00 36.0688020  0  2                     
G05  22536033.819       43078.475        2047.582           0.255  
G06  20627217.154       -6209.798        -481.632           0.255  
> 2023 05 18 00 00 36.0688020  0  4                     
G03  22335982.512      -11114.556        -500.357           0.255  
G05  22536033.819       43078.475        2047.582           0.255  
G06  20627217.154       -6209.798        -481.632           0.255  
G07  23384795.993      -13958.119       -1293.648           0.248  
> 2023 05 18 00 00 36.0688020  0  5                     
G02  24268754.101       87106.957        2906.941           0.239  
G03  22335982.512      -11114.556        -500.357           0.255  
G05  22536033.819       43078.475        2047.582           0.255  
G06  20627217.154       -6209.798        -481.632           0.255  
G07  23384795.993      -13958.119       -1293.648           0.248  
> 2023 05 18 00 00 36.0688020  0  6                     
G02  24268754.101       87106.957        2906.941           0.239  
G03  22335982.512      -11114.556        -500.357           0.255  
G04  23581332.638      -42279.977       -2146.322           0.244  
G05  22536033.819       43078.475        2047.582           0.255  
G06  20627217.154       -6209.798        -481.632           0.255  
G07  23384795.993      -13958.119       -1293.648           0.248  
> 2023 05 18 00 00 36.1688020  0  6                     
G02  24268680.373       87397.573        2907.517           0.239  
G03  22335997.241      -11164.627        -500.814           0.255  
G04  23581386.207      -42491.792       -2107.836           0.244  
G05  22535981.646       43283.279        2048.025           0.255  
G06  20627228.227       -6257.966        -481.833           0.255  
G07  23384829.591      -14087.480       -1288.202           0.248  
> 2023 05 18 00 00 36.2688020  0  6                     
G02  24268606.992       87688.160        2904.667           0.239  
G03  22336010.309      -11214.696        -500.337           0.255  
G04  23581440.841      -42703.202       -2116.445           0.244  
G05  22535929.222       43488.082        2048.286           0.255  
G06  20627240.411       -6306.144        -481.535           0.255  
G07  23384862.658      -14216.869       -1293.813           0.248  
> 2023 05 18 00 00 36.3688020  0  6                     
G02  24268533.681       87978.752        2905.726           0.239  
G03  22336023.773      -11264.771        -500.113           0.255  
G04  23581493.618      -42914.900       -2116.532           0.244  
G05  22535876.978       43692.882        2048.512           0.255  
G06  20627252.134       -6354.320        -481.976           0.255  
G07  23384895.497      -14346.252       -1293.684           0.248  
> 2023 05 18 00 00 36.4688020  0  6                     
G02  24268458.207       88269.357        2906.877           0.239  
G03  22336036.935      -11314.857        -501.436           0.255  
G04  23581547.959      -43126.621       -2117.937           0.244  
G05  22535825.032       43897.676        2048.124           0.255  
G06  20627264.301       -6402.499        -481.444           0.255  
G07  23384928.456      -14475.635       -1293.800           0.248  
> 2023 05 18 00 00 36.5688020  0  6                     
G02  24268384.144       88559.987        2909.068           0.239  
G03  22336049.966      -11364.872        -491.339           0.255  
G04  23581601.523      -43338.696       -2138.077           0.244  
G05  22535772.689       44102.476        2047.692           0.255  
G06  20627276.700       -6450.682        -481.903           0.255  
G07  23384961.305      -14605.025       -1293.898           0.248  
> 2023 05 18 00 00 36.6688020  0  6                     
G02  24268309.741       88850.576        2905.956           0.239  
G03  22336062.453      -11415.198        -522.657           0.255  
G04  23581656.409      -43550.053       -2116.159           0.244  
G05  22535720.513       44307.266        2047.620           0.255  
G06  20627288.841       -6498.868        -481.705           0.255  
G07  23384994.513      -14734.410       -1293.915           0.248  
> 2023 05 18 00 00 36.7688020  0  6                     
G02  24268236.947       89141.162        2904.430           0.239  
G03  22336074.515      -11465.127        -500.403           0.255  
G04  23581708.511      -43761.703       -2132.058           0.244  
G05  22535668.786       44512.385        2144.568           0.255  
G06  20627301.589       -6547.064        -482.049           0.255  
G07  23385027.202      -14863.809       -1294.099           0.248  
> 2023 05 18 00 00 36.8688020  0  6                     
G02  24268162.165       89431.741        2905.236           0.239  
G03  22336087.556      -11515.214        -500.053           0.255  
G04  23581763.835      -43973.478       -2117.029           0.244  
G05  22535616.498       44716.842        2048.256           0.255  
G06  20627313.599       -6595.262        -482.394           0.255  
G07  23385060.344      -14993.201       -1293.875           0.248  
> 2023 05 18 00 00 36.9688020  0  6                     
G02  24268088.368       89722.352        2908.663           0.239  
G03  22336100.652      -11565.335        -501.205           0.255  
G04  23581817.743      -44185.196       -2119.290           0.244  
G05  22535564.123       44921.625        2047.635           0.255  
G06  20627326.227       -6643.456        -481.896           0.255  
G07  23385093.103      -15122.604       -1293.926           0.248  
> 2023 05 18 00 00 37.0688020  0  6                     
G02  24268013.991       90012.979        2907.395           0.239  
G03  22336112.981      -11615.424        -490.736           0.255  
G04  23581871.610      -44396.930       -2118.588           0.243  
G05  22535512.227       45126.407        2047.076           0.255  
G06  20627338.417       -6691.656        -482.140           0.255  
G07  23385125.933      -15252.004       -1294.097           0.248  
> 2023 05 18 00 00 37.1688020  0  6                     
G02  24267940.686       90303.557        2905.185           0.239  
G03  22336125.274      -11665.558        -501.014           0.255  
G04  23581926.133      -44608.632       -2116.445           0.244  
G05  22535460.080       45331.188        2048.258           0.255  
G06  20627350.691       -6739.862        -481.872           0.255  
G07  23385158.877      -15381.414       -1294.145           0.248  
> 2023 05 18 00 00 37.2688020  0  6                     
G02  24267865.829       90594.173        2906.655           0.239  
G03  22336136.581      -11715.680        -501.795           0.255  
G04  23581980.521      -44820.359       -2117.783           0.244  
G05  22535407.311       45535.968        2048.377           0.255  
G06  20627363.648       -6788.066        -481.644           0.255  
G07  23385191.914      -15510.822       -1294.631           0.248  
> 2023 05 18 00 00 37.3688020  0  6                     
G02  24267793.290       90884.814        2910.121           0.239  
G03  22336150.969      -11765.811        -502.428           0.255  
G04  23582033.153      -45032.070       -2116.911           0.244  
G05  22535355.191       45740.173        1939.329           0.255  
G06  20627375.626       -6836.275        -481.565           0.255  
G07  23385224.891      -15640.232       -1294.194           0.248  
> 2023 05 18 00 00 37.4688020  0  6                     
G02  24267719.533       91175.361        2905.985           0.239  
G03  22336164.726      -11815.935        -501.949           0.255  
G04  23582085.965      -45243.792       -2117.365           0.244  
G05  22535303.068       45945.509        2047.309           0.255  
G06  20627387.103       -6884.490        -481.836           0.255  
G07  23385258.055      -15769.644       -1294.100           0.248  
> 2023 05 18 00 00 37.5688020  0  6                     
G02  24267644.221       91465.957        2906.214           0.239  
G03  22336177.989      -11866.069        -501.819           0.255  
G04  23582141.168      -45455.183       -2056.972           0.244  
G05  22535250.915       46150.277        2047.236           0.255  
G06  20627399.054       -6932.708        -481.825           0.255  
G07  23385291.052      -15899.064       -1294.103           0.248  
> 2023 05 18 00 00 37.6688020  0  6                     
G02  24267570.340       91756.562        2905.075           0.239  
G03  22336189.631      -11916.201        -501.552           0.255  
G04  23582194.314      -45667.237       -2116.839           0.244  
G05  22535198.930       46355.052        2047.727           0.255  
G06  20627412.027       -6980.932        -482.054           0.255  
G07  23385324.180      -16028.483       -1294.582           0.248  
> 2023 05 18 00 00 37.7688020  0  6                     
G02  24267496.634       92047.166        2906.232           0.239  
G03  22336202.156      -11966.341        -501.707           0.255  
G04  23582247.623      -45878.959       -2118.025           0.244  
G05  22535146.325       46559.823        2048.331           0.255  
G06  20627424.520       -7029.157        -482.258           0.255  
G07  23385357.510      -16157.907       -1293.935           0.248  
> 2023 05 18 00 00 37.8688020  0  6                     
G02  24267422.130       92337.758        2906.310           0.240  
G03  22336213.510      -12016.487        -501.470           0.255  
G04  23582302.216      -46090.423       -2099.403           0.244  
G05  22535094.583       46764.585        2047.412           0.255  
G06  20627437.684       -7077.389        -482.563           0.255  
G07  23385389.681      -16287.330       -1294.096           0.248  
> 2023 05 18 00 00 37.9688020  0  6                     
G02  24267345.560       92628.370        2907.118           0.239  
G03  22336227.787      -12066.640        -501.627           0.255  
G04  23582357.645      -46302.413       -2118.486           0.244  
G05  22535042.509       46969.350        2047.110           0.255  
G06  20627449.632       -7125.615        -482.236           0.255  
G07  23385422.806      -16416.764       -1294.288           0.248  
> 2023 05 18 00 00 38.0688020  0  6                     
G02  24267273.032       92918.980        2906.715           0.239  
G03  22336240.639      -12116.792        -502.074           0.255  
G04  23582411.106      -46514.142       -2117.888           0.244  
G05  22534990.452       47174.117        2047.743           0.255  
G06  20627461.530       -7173.854        -481.874           0.255  
G07  23385455.662      -16546.191       -1293.804           0.248  
> 2023 05 18 00 00 38.1688020  0  6                     
G02  24267199.819       93209.577        2907.553           0.239  
G03  22336251.961      -12167.112        -516.539           0.255  
G04  23582464.863      -46726.132       -2147.566           0.244  
G05  22534937.946       47378.896        2059.740           0.255  
G06  20627474.513       -7222.092        -482.280           0.255  
G07  23385489.085      -16675.720       -1298.787           0.248  
> 2023 05 18 00 00 38.2688020  0  6                     
G02  24267124.708       93500.176        2905.966           0.239  
G03  22336267.033      -12217.246        -529.125           0.255  
G04  23582519.231      -46937.818       -2139.460           0.244  
G05  22534886.084       47583.376        1992.493           0.255  
G06  20627485.495       -7270.333        -482.473           0.255  
G07  23385522.127      -16805.041       -1286.015           0.248  
> 2023 05 18 00 00 38.3688020  0  6                     
G02  24267051.904       93790.744        2933.935           0.239  
G03  22336278.050      -12267.281        -501.546           0.255  
G04  23582571.870      -47149.334       -2116.665           0.244  
G05  22534833.883       47788.390        2046.941           0.255  
G06  20627498.474       -7318.585        -482.719           0.255  
G07  23385554.556      -16934.512       -1294.288           0.248  
> 2023 05 18 00 00 38.4688020  0  6                     
G02  24266977.496       94081.377        2905.913           0.239  
G03  22336294.469      -12317.455        -501.385           0.255  
G04  23582626.820      -47361.073       -2117.326           0.244  
G05  22534781.581       47993.150        2047.474           0.255  
G06  20627509.420       -7366.831        -482.405           0.255  
G07  23385587.305      -17063.958       -1294.222           0.248  
> 2023 05 18 00 00 38.5688020  0  6                     
G02  24266903.139       94371.981        2905.410           0.239  
G03  22336305.197      -12367.634        -501.801           0.255  
G04  23582681.244      -47572.811       -2117.553           0.244  
G05  22534729.443       48197.904        2048.210           0.255  
G06  20627522.119       -7415.081        -482.236           0.255  
G07  23385620.771      -17193.404       -1294.817           0.248  
> 2023 05 18 00 00 38.6688020  0  6                     
G02  24266829.615       94662.556        2905.302           0.239  
G03  22336318.735      -12417.817        -502.257           0.255  
G04  23582734.734      -47784.543       -2116.920           0.244  
G05  22534676.980       48402.335        1992.838           0.255  
G06  20627534.268       -7463.341        -482.719           0.255  
G07  23385654.016      -17322.856       -1294.536           0.248  
> 2023 05 18 00 00 38.7688020  0  6                     
G02  24266756.511       94953.171        2906.128           0.239  
G03  22336331.409      -12467.999        -501.751           0.255  
G04  23582786.279      -47996.288       -2117.718           0.244  
G05  22534624.759       48607.397        2047.220           0.255  
G06  20627546.952       -7511.598        -482.178           0.255  
G07  23385687.268      -17452.312       -1294.469           0.248  
> 2023 05 18 00 00 38.8688020  0  6                     
G02  24266682.413       95243.772        2906.546           0.238  
G03  22336344.471      -12518.189        -501.950           0.255  
G04  23582840.971      -48208.022       -2117.663           0.243  
G05  22534572.698       48812.148        2047.110           0.255  
G06  20627559.274       -7559.861        -482.483           0.255  
G07  23385719.938      -17581.771       -1294.890           0.248  
> 2023 05 18 00 00 38.9688020  0  6                     
G02  24266608.190       95534.196        2882.741           0.239  
G03  22336354.865      -12568.354        -491.449           0.255  
G04  23582895.407      -48419.758       -2117.661           0.244  
G05  22534520.402       49016.892        2047.921           0.255  
G06  20627572.220       -7608.128        -482.584           0.255  
G07  23385752.793      -17711.181       -1298.470           0.248  
> 2023 05 18 00 00 39.0688020  0  6                     
G02  24266532.384       95824.978        2906.593           0.239  
G03  22336367.785      -12618.512        -490.662           0.255  
G04  23582950.916      -48631.493       -2117.611           0.244  
G05  22534468.098       49221.632        2047.713           0.255  
G06  20627585.154       -7656.396        -482.680           0.255  
G07  23385785.927      -17840.683       -1294.365           0.248  
> 2023 05 18 00 00 39.1688020  0  6                     
G02  24266457.690       96115.320        2919.659           0.239  
G03  22336382.003      -12668.789        -501.975           0.255  
G04  23583005.273      -48843.227       -2117.251           0.244  
G05  22534416.435       49426.448        2049.712           0.255  
G06  20627596.921       -7704.666        -482.668           0.255  
G07  23385818.751      -17970.148       -1295.058           0.248  
> 2023 05 18 00 00 39.2688020  0  6                     
G02  24266384.542       96406.161        2905.729           0.239  
G03  22336395.484      -12718.998        -502.271           0.255  
G04  23583058.884      -49054.974       -2117.389           0.244  
G05  22534363.971       49631.103        2047.192           0.255  
G06  20627608.606       -7752.945        -482.554           0.255  
G07  23385851.120      -18099.612       -1294.662           0.248  
> 2023 05 18 00 00 39.3688020  0  6                     
G02  24266311.214       96696.770        2906.450           0.239  
G03  22336404.373      -12769.210        -502.427           0.255  
G04  23583112.646      -49266.545       -2094.478           0.244  
G05  22534312.435       49835.844        2047.708           0.255  
G06  20627622.164       -7801.226        -482.708           0.255  
G07  23385885.215      -18229.083       -1294.696           0.248  
> 2023 05 18 00 00 39.4688020  0  6                     
G02  24266237.288       96987.373        2905.531           0.239  
G03  22336418.778      -12819.429        -502.134           0.255  
G04  23583165.872      -49478.462       -2116.653           0.244  
G05  22534259.787       50040.574        2047.252           0.255  
G06  20627633.691       -7849.514        -483.029           0.255  
G07  23385917.955      -18358.557       -1294.815           0.248  
> 2023 05 18 00 00 39.5688020  0  6                     
G02  24266162.823       97277.982        2906.943           0.239  
G03  22336432.001      -12869.649        -502.208           0.255  
G04  23583219.862      -49690.216       -2118.116           0.244  
G05  22534207.763       50245.302        2046.750           0.255  
G06  20627645.992       -7897.795        -482.780           0.255  
G07  23385951.091      -18488.032       -1295.090           0.248  
> 2023 05 18 00 00 39.6688020  0  6                     
G02  24266088.536       97568.570        2906.804           0.239  
G03  22336443.467      -12919.877        -502.319           0.255  
G04  23583273.953      -49901.938       -2117.662           0.244  
G05  22534155.579       50450.040        2047.573           0.255  
G06  20627658.834       -7946.088        -482.936           0.255  
G07  23385984.295      -18617.509       -1294.576           0.248  
> 2023 05 18 00 00 39.7688020  0  6                     
G02  24266014.193       97859.179        2904.777           0.239  
G03  22336457.508      -12970.108        -502.145           0.255  
G04  23583329.884      -50113.697       -2115.817           0.244  
G05  22534103.225       50654.760        2047.280           0.255  
G06  20627670.179       -7994.379        -482.957           0.255  
G07  23386016.231      -18746.991       -1294.616           0.248  
> 2023 05 18 00 00 39.8688020  0  6                     
G02  24265940.431       98149.784        2906.623           0.239  
G03  22336470.929      -13020.348        -502.611           0.255  
G04  23583382.668      -50325.444       -2117.891           0.244  
G05  22534050.998       50859.478        2046.754           0.255  
G06  20627682.414       -8042.677        -482.925           0.255  
G07  23386050.011      -18876.481       -1295.042           0.248  
> 2023 05 18 00 00 39.9688020  0  6                     
G02  24265865.892       98440.376        2905.924           0.239  
G03  22336483.522      -13070.582        -502.065           0.255  
G04  23583436.917      -50537.189       -2116.460           0.244  
G05  22533998.673       51064.208        2047.400           0.255  
G06  20627695.479       -8090.982        -483.206           0.255  
G07  23386083.635      -19005.960       -1294.383           0.248  
> 2023 05 18 00 00 40.0688020  0  6                     
G02  24265791.997       98730.979        2905.330           0.239  
G03  22336496.376      -13120.829        -502.267           0.255  
G04  23583490.074      -50748.762       -2076.232           0.244  
G05  22533946.927       51268.930        2047.909           0.255  
G06  20627707.343       -8139.285        -483.299           0.255  
G07  23386115.667      -19135.449       -1294.370           0.248  
> 2023 05 18 00 00 40.1688020  0  6                     
G02  24265718.317       99021.580        2905.336           0.239  
G03  22336508.573      -13171.080        -502.459           0.255  
G04  23583544.581      -50960.861       -2105.828           0.244  
G05  22533894.351       51473.643        2047.275           0.255  
G06  20627719.643       -8187.594        -482.757           0.255  
G07  23386149.123      -19264.949       -1295.368           0.248  
> 2023 05 18 00 00 40.2688020  0  6                     
G02  24265643.417       99312.174        2905.370           0.239  
G03  22336521.644      -13221.335        -502.459           0.255  
G04  23583599.219      -51172.454       -2117.579           0.244  
G05  22533841.677       51678.359        2046.880           0.255  
G06  20627733.432       -8235.907        -483.186           0.255  
G07  23386181.696      -19394.439       -1294.047           0.248  
> 2023 05 18 00 00 40.3688020  0  6                     
G02  24265571.295       99602.776        2906.357           0.239  
G03  22336533.149      -13271.593        -502.626           0.255  
G04  23583651.962      -51384.215       -2118.186           0.244  
G05  22533789.785       51883.075        2047.340           0.255  
G06  20627745.580       -8284.223        -483.396           0.255  
G07  23386214.586      -19523.943       -1294.997           0.248  
> 2023 05 18 00 00 40.4688020  0  6                     
G02  24265496.456       99893.375        2906.632           0.239  
G03  22336546.938      -13321.855        -502.571           0.255  
G04  23583705.936      -51595.965       -2117.958           0.244  
G05  22533737.726       52087.789        2047.339           0.255  
G06  20627757.086       -8332.538        -483.225           0.255  
G07  23386247.837      -19653.448       -1294.885           0.248  
> 2023 05 18 00 00 40.5688020  0  6                     
G02  24265422.888      100182.869        2847.479           0.239  
G03  22336562.739      -13372.127        -503.072           0.255  
G04  23583760.595      -51807.488       -2038.606           0.244  
G05  22533685.747       52292.288        2006.864           0.255  
G06  20627767.784       -8380.863        -483.717           0.255  
G07  23386280.490      -19783.126       -1310.985           0.248  
> 2023 05 18 00 00 40.6688020  0  6                     
G02  24265348.310      100474.569        2903.320           0.239  
G03  22336574.679      -13422.396        -502.987           0.255  
G04  23583813.889      -52019.464       -2116.096           0.244  
G05  22533634.265       52497.204        2047.183           0.255  
G06  20627780.234       -8429.183        -483.828           0.255  
G07  23386313.113      -19912.462       -1294.629           0.248  
> 2023 05 18 00 00 40.7688020  0  6                     
G02  24265274.571      100764.815        2857.987           0.239  
G03  22336587.411      -13472.639        -479.174           0.255  
G04  23583867.923      -52231.215       -2115.480           0.244  
G05  22533581.839       52701.912        2047.474           0.255  
G06  20627792.669       -8477.507        -482.992           0.255  
G07  23386346.609      -20041.978       -1294.557           0.248  
> 2023 05 18 00 00 40.8688020  0  6                     
G02  24265200.161      101055.775        2906.220           0.239  
G03  22336598.719      -13522.950        -502.857           0.255  
G04  23583921.945      -52442.982       -2117.487           0.244  
G05  22533529.567       52906.611        2047.176           0.255  
G06  20627805.887       -8525.844        -483.310           0.255  
G07  23386380.350      -20171.502       -1295.170           0.248  
> 2023 05 18 00 00 40.9688020  0  6                     
G02  24265126.106      101346.370        2906.031           0.239  
G03  22336613.145      -13573.242        -503.222           0.255  
G04  23583976.187      -52654.587       -2141.883           0.244  
G05  22533477.078       53111.308        2046.520           0.255  
G06  20627817.203       -8574.174        -483.183           0.255  
G07  23386413.059      -20301.018       -1295.167           0.248  
> 2023 05 18 00 00 41.0688020  0  6                     
G02  24265052.332      101636.989        2907.840           0.239  
G03  22336626.276      -13623.525        -503.041           0.255  
G04  23584029.426      -52866.530       -2100.841           0.244  
G05  22533425.222       53316.010        2047.226           0.255  
G06  20627829.574       -8622.515        -482.946           0.255  
G07  23386445.810      -20430.571       -1307.769           0.248  
> 2023 05 18 00 00 41.1688020  0  6                     
G02  24264977.393      101927.588        2907.002           0.239  
G03  22336637.749      -13673.822        -503.374           0.255  
G04  23584083.998      -53078.277       -2118.767           0.244  
G05  22533372.987       53520.706        2047.432           0.255  
G06  20627842.726       -8670.858        -484.009           0.255  
G07  23386479.272      -20560.061       -1295.359           0.248  
> 2023 05 18 00 00 41.2688020  0  6                     
G02  24264904.391      102218.186        2907.178           0.239  
G03  22336650.476      -13724.118        -503.037           0.255  
G04  23584137.899      -53290.031       -2118.194           0.244  
G05  22533320.386       53725.390        2045.913           0.255  
G06  20627854.846       -8719.200        -483.286           0.255  
G07  23386511.743      -20689.592       -1295.974           0.248  
> 2023 05 18 00 00 41.3688020  0  6                     
G02  24264830.937      102508.777        2905.439           0.239  
G03  22336662.607      -13774.423        -502.828           0.255  
G04  23584191.213      -53501.793       -2117.376           0.244  
G05  22533268.099       53930.088        2046.609           0.255  
G06  20627867.684       -8767.552        -483.504           0.255  
G07  23386545.019      -20819.058       -1260.262           0.248  
> 2023 05 18 00 00 41.4688020  0  6                     
G02  24264757.011      102799.384        2905.132           0.239  
G03  22336674.898      -13824.740        -495.438           0.255  
G04  23584244.883      -53713.310       -2081.416           0.244  
G05  22533216.547       54134.777        2047.259           0.255  
G06  20627880.195       -8815.902        -483.974           0.255  
G07  23386578.441      -20948.650       -1294.534           0.248  
> 2023 05 18 00 00 41.5688020  0  6                     
G02  24264682.166      103089.980        2905.704           0.239  
G03  22336689.213      -13875.041        -503.000           0.255  
G04  23584298.464      -53925.332       -2117.812           0.244  
G05  22533164.373       54339.295        2036.261           0.255  
G06  20627891.940       -8864.253        -483.692           0.255  
G07  23386610.335      -21078.087       -1287.916           0.248  
> 2023 05 18 00 00 41.6688020  0  6                     
G02  24264608.132      103380.587        2906.244           0.239  
G03  22336702.233      -13925.363        -503.007           0.255  
G04  23584352.619      -54137.096       -2116.741           0.244  
G05  22533112.260       54544.144        2047.076           0.255  
G06  20627904.449       -8912.612        -483.829           0.255  
G07  23386643.012      -21207.724       -1295.328           0.248  
> 2023 05 18 00 00 41.7688020  0  6                     
G02  24264533.833      103671.172        2904.316           0.239  
G03  22336714.241      -13975.686        -503.127           0.255  
G04  23584407.452      -54348.373       -2098.338           0.244  
G05  22533059.961       54748.828        2047.093           0.255  
G06  20627916.781       -8960.979        -484.013           0.255  
G07  23386676.922      -21337.270       -1295.424           0.248  
> 2023 05 18 00 00 41.8688020  0  6                     
G02  24264460.048      103961.795        2908.115           0.239  
G03  22336727.324      -14026.000        -502.917           0.255  
G04  23584461.203      -54560.639       -2119.245           0.244  
G05  22533007.728       54953.506        2046.792           0.255  
G06  20627929.102       -9009.345        -483.779           0.255  
G07  23386709.884      -21466.820       -1295.612           0.248  
> 2023 05 18 00 00 41.9688020  0  6                     
G02  24264385.485      104252.396        2905.730           0.239  
G03  22336739.783      -14076.337        -503.178           0.255  
G04  23584515.201      -54772.410       -2117.511           0.244  
G05  22532955.826       55158.176        2046.676           0.255  
G06  20627941.423       -9057.710        -483.661           0.255  
G07  23386743.134      -21596.363       -1295.262           0.248  
> 2023 05 18 00 00 42.0688020  0  6                     
G02  24264310.478      104542.997        2906.459           0.240  
G03  22336751.758      -14126.668        -503.011           0.255  
G04  23584569.495      -54984.182       -2117.763           0.244  
G05  22532903.838       55362.853        2047.120           0.255  
G06  20627954.058       -9106.084        -483.924           0.255  
G07  23386776.192      -21725.913       -1295.285           0.248  
> 2023 05 18 00 00 42.1688020  0  6                     
G02  24264236.876      104833.589        2906.183           0.239  
G03  22336765.126      -14177.019        -503.277           0.255  
G04  23584622.660      -55195.954       -2118.449           0.244  
G05  22532851.630       55567.161        1971.419           0.255  
G06  20627966.394       -9154.458        -484.180           0.255  
G07  23386809.350      -21855.291       -1275.999           0.248  
> 2023 05 18 00 00 42.2688020  0  6                     
G02  24264163.894      105123.887        2851.290           0.239  
G03  22336777.871      -14227.365        -503.669           0.255  
G04  23584676.659      -55407.727       -2117.199           0.244  
G05  22532799.325       55772.207        2046.361           0.255  
G06  20627978.553       -9202.831        -483.984           0.255  
G07  23386841.771      -21984.852       -1284.694           0.248  
> 2023 05 18 00 00 42.3688020  0  6                     
G02  24264089.466      105414.788        2905.244           0.239  
G03  22336791.216      -14277.709        -503.430           0.255  
G04  23584731.206      -55619.495       -2116.032           0.244  
G05  22532747.075       55976.878        2047.403           0.255  
G06  20627990.577       -9251.219        -483.791           0.255  
G07  23386874.906      -22114.578       -1296.058           0.248  
> 2023 05 18 00 00 42.4688020  0  6                     
G02  24264015.173      105705.412        2906.856           0.239  
G03  22336804.215      -14328.058        -503.233           0.255  
G04  23584785.278      -55831.294       -2118.447           0.244  
G05  22532694.818       56181.545        2046.946           0.255  
G06  20628002.753       -9299.608        -483.928           0.255  
G07  23386908.069      -22244.139       -1295.899           0.248  
> 2023 05 18 00 00 42.5688020  0  6                     
G02  24263941.187      105995.999        2903.969           0.239  
G03  22336817.296      -14378.413        -502.626           0.255  
G04  23584839.239      -56043.061       -2116.449           0.244  
G05  22532642.626       56386.207        2046.760           0.255  
G06  20628015.200       -9347.999        -484.328           0.255  
G07  23386941.109      -22373.703       -1295.458           0.248  
> 2023 05 18 00 00 42.6688020  0  6                     
G02  24263867.891      106286.590        2905.465           0.239  
G03  22336829.799      -14428.775        -502.389           0.255  
G04  23584892.819      -56254.812       -2115.779           0.244  
G05  22532590.869       56590.872        2047.399           0.255  
G06  20628027.677       -9396.390        -483.897           0.255  
G07  23386973.289      -22503.263       -1295.322           0.248  
> 2023 05 18 00 00 42.7688020  0  6                     
G02  24263793.650      106577.202        2905.508           0.239  
G03  22336842.484      -14479.145        -503.055           0.255  
G04  23584946.809      -56466.623       -2117.772           0.244  
G05  22532538.501       56795.534        2046.255           0.255  
G06  20628040.606       -9444.786        -484.460           0.255  
G07  23387006.826      -22632.834       -1295.259           0.248  
> 2023 05 18 00 00 42.8688020  0  6                     
G02  24263718.817      106867.803        2905.725           0.239  
G03  22336855.517      -14529.519        -503.688           0.255  
G04  23585001.154      -56678.396       -2117.144           0.244  
G05  22532485.982       57000.187        2046.093           0.255  
G06  20628052.275       -9493.189        -484.208           0.255  
G07  23387040.291      -22762.410       -1295.876           0.248  
> 2023 05 18 00 00 42.9688020  0  6                     
G02  24263644.910      107158.489        2903.190           0.239  
G03  22336867.825      -14580.033        -532.730           0.255  
G04  23585055.356      -56890.179       -2118.539           0.244  
G05  22532433.855       57204.703        2015.838           0.255  
G06  20628064.688       -9541.588        -484.500           0.255  
G07  23387073.335      -22891.816       -1265.554           0.248  
> 2023 05 18 00 00 43.0688020  0  6                     
G02  24263570.812      107449.007        2905.540           0.239  
G03  22336880.924      -14630.275        -503.993           0.255  
G04  23585109.500      -57101.963       -2117.425           0.244  
G05  22532381.749       57409.720        2110.817           0.255  
G06  20628077.153       -9589.994        -484.226           0.255  
G07  23387106.392      -23021.549       -1279.722           0.248  
> 2023 05 18 00 00 43.1688020  0  6                     
G02  24263497.184      107739.608        2905.871           0.239  
G03  22336894.817      -14680.654        -504.355           0.255  
G04  23585163.222      -57313.589       -2083.994           0.244  
G05  22532329.756       57614.155        2046.559           0.255  
G06  20628088.741       -9638.403        -483.368           0.255  
G07  23387139.281      -23151.029       -1289.148           0.248  
> 2023 05 18 00 00 43.2688020  0  6                     
G02  24263422.989      108030.197        2905.964           0.239  
G03  22336907.467      -14731.047        -503.465           0.255  
G04  23585217.138      -57525.543       -2117.214           0.244  
G05  22532277.657       57818.810        2046.751           0.255  
G06  20628101.334       -9686.819        -484.304           0.255  
G07  23387172.319      -23280.732       -1295.684           0.248  
> 2023 05 18 00 00 43.3688020  0  6                     
G02  24263348.820      108320.789        2904.789           0.239  
G03  22336920.191      -14781.438        -503.709           0.255  
G04  23585271.327      -57737.331       -2117.050           0.244  
G05  22532225.539       58023.457        2046.083           0.255  
G06  20628113.697       -9735.239        -484.798           0.255  
G07  23387205.059      -23410.322       -1295.679           0.248  
> 2023 05 18 00 00 43.4688020  0  6                     
G02  24263274.326      108611.380        2905.441           0.239  
G03  22336931.908      -14831.830        -503.814           0.255  
G04  23585325.135      -57949.183       -2122.264           0.244  
G05  22532173.352       58228.104        2046.632           0.255  
G06  20628126.607       -9783.659        -484.361           0.255  
G07  23387237.941      -23539.916       -1296.198           0.248  
> 2023 05 18 00 00 43.5688020  0  6                     
G02  24263200.605      108901.963        2904.847           0.239  
G03  22336945.554      -14882.237        -504.055           0.255  
G04  23585378.721      -58160.904       -2117.175           0.244  
G05  22532121.044       58432.748        2046.397           0.255  
G06  20628138.890       -9832.079        -484.154           0.255  
G07  23387271.059      -23669.508       -1295.704           0.248  
> 2023 05 18 00 00 43.6688020  0  6                     
G02  24263127.049      109192.562        2905.877           0.239  
G03  22336960.234      -14932.651        -504.467           0.255  
G04  23585433.072      -58372.701       -2117.671           0.244  
G05  22532069.122       58637.391        2045.574           0.255  
G06  20628150.307       -9880.512        -484.121           0.255  
G07  23387304.132      -23799.104       -1295.847           0.248  
> 2023 05 18 00 00 43.7688020  0  6                     
G02  24263051.720      109483.109        2917.480           0.239  
G03  22336972.341      -14983.060        -504.231           0.255  
G04  23585487.994      -58584.392       -2093.929           0.244  
G05  22532016.793       58842.030        2046.226           0.255  
G06  20628162.364       -9928.936        -484.248           0.255  
G07  23387336.899      -23928.693       -1292.884           0.248  
> 2023 05 18 00 00 43.8688020  0  6                     
G02  24262977.620      109773.756        2905.936           0.239  
G03  22336984.055      -15033.474        -504.157           0.255  
G04  23585541.640      -58796.285       -2117.702           0.244  
G05  22531964.502       59046.669        2046.039           0.255  
G06  20628174.956       -9977.370        -484.063           0.255  
G07  23387370.682      -24058.309       -1295.994           0.248  
> 2023 05 18 00 00 43.9688020  0  6                     
G02  24262903.106      110064.031        2890.945           0.239  
G03  22336997.135      -15083.896        -504.178           0.255  
G04  23585596.183      -59008.083       -2119.289           0.244  
G05  22531912.390       59251.300        2045.871           0.255  
G06  20628186.641      -10025.808        -484.296           0.255  
G07  23387404.179      -24187.916       -1295.807           0.248  
> 2023 05 18 00 00 44.0688020  0  6                     
G02  24262829.133      110354.938        2906.282           0.239  
G03  22337008.575      -15134.321        -504.333           0.255  
G04  23585650.334      -59219.864       -2118.374           0.244  
G05  22531860.332       59455.941        2046.843           0.255  
G06  20628199.825      -10074.252        -483.804           0.255  
G07  23387437.008      -24317.530       -1296.013           0.248  
> 2023 05 18 00 00 44.1688020  0  6                     
G02  24262757.452      110645.537        2905.240           0.239  
G03  22337022.686      -15184.745        -504.236           0.255  
G04  23585701.997      -59431.668       -2117.801           0.244  
G05  22531808.251       59660.571        2046.307           0.255  
G06  20628212.248      -10122.699        -484.282           0.255  
G07  23387469.924      -24447.145       -1296.483           0.248  
> 2023 05 18 00 00 44.2688020  0  6                     
G02  24262683.214      110936.128        2905.354           0.239  
G03  22337035.243      -15235.181        -504.086           0.255  
G04  23585756.261      -59643.458       -2117.946           0.244  
G05  22531756.031       59865.623        2133.668           0.255  
G06  20628225.001      -10171.148        -484.668           0.255  
G07  23387502.331      -24576.631       -1290.964           0.248  
> 2023 05 18 00 00 44.3688020  0  6                     
G02  24262610.697      111226.720        2903.988           0.239  
G03  22337050.508      -15285.624        -504.209           0.255  
G04  23585808.145      -59855.258       -2117.159           0.244  
G05  22531703.656       60069.825        2047.214           0.255  
G06  20628236.749      -10219.595        -484.545           0.255  
G07  23387535.492      -24706.374       -1296.215           0.248  
> 2023 05 18 00 00 44.4688020  0  6                     
G02  24262533.202      111517.319        2905.678           0.239  
G03  22337062.026      -15336.063        -503.452           0.255  
G04  23585865.916      -60067.054       -2117.754           0.244  
G05  22531651.638       60274.446        2045.951           0.255  
G06  20628249.316      -10268.054        -485.022           0.255  
G07  23387568.468      -24835.999       -1296.230           0.248  
> 2023 05 18 00 00 44.6688020  0  6                     
G02  24262385.949      112098.511        2906.855           0.239  
G03  22337088.439      -15437.251        -538.627           0.255  
G04  23585972.295      -60490.661       -2119.042           0.244  
G05  22531547.562       60683.295        1961.323           0.255  
G06  20628273.939      -10364.967        -484.175           0.255  
G07  23387634.408      -25095.047       -1265.501           0.248  
> 2023 05 18 00 00 44.7688020  0  6                     
G02  24262312.516      112389.122        2908.137           0.239  
G03  22337101.440      -15487.355        -493.913           0.255  
G04  23586026.309      -60702.635       -2135.491           0.244  
G05  22531495.505       60888.307        2045.782           0.255  
G06  20628286.373      -10413.432        -484.530           0.255  
G07  23387667.559      -25224.884       -1296.818           0.248  
> 2023 05 18 00 00 44.9688020  0  6                     
G02  24262164.927      112970.301        2906.383           0.239  
G03  22337125.805      -15588.358        -505.028           0.255  
G04  23586133.757      -61126.069       -2118.117           0.244  
G05  22531390.942       61297.262        1992.202           0.255  
G06  20628311.875      -10510.373        -484.565           0.255  
G07  23387733.441      -25484.155       -1296.165           0.248  
> 2023 05 18 00 00 45.0688020  0  6                     
G02  24262089.961      113260.913        2907.920           0.239  
G03  22337140.438      -15638.828        -505.272           0.255  
G04  23586188.050      -61338.064       -2114.659           0.244  
G05  22531338.688       61502.151        2046.057           0.255  
G06  20628323.413      -10558.846        -484.390           0.255  
G07  23387767.005      -25613.800       -1311.252           0.248  
> 2023 05 18 00 00 45.1688020  0  6                     
G02  24262015.583      113551.495        2906.465           0.239  
G03  22337150.582      -15689.300        -504.738           0.255  
G04  23586242.456      -61549.686       -2118.156           0.244  
G05  22531286.687       61706.760        2046.113           0.255  
G06  20628336.927      -10607.328        -484.746           0.255  
G07  23387799.907      -25743.431       -1296.570           0.248  
> 2023 05 18 00 00 45.2688020  0  6                     
G02  24261942.273      113842.079        2905.510           0.239  
G03  22337164.796      -15739.947        -501.669           0.255  
G04  23586295.604      -61761.485       -2118.062           0.244  
G05  22531234.717       61911.367        2045.553           0.255  
G06  20628348.174      -10655.809        -484.697           0.255  
G07  23387832.923      -25873.077       -1296.431           0.248  
> 2023 05 18 00 00 45.3688020  0  6                     
G02  24261869.601      114132.679        2906.427           0.239  
G03  22337177.119      -15790.260        -504.251           0.255  
G04  23586348.810      -61973.297       -2118.347           0.244  
G05  22531182.439       62115.985        2063.217           0.255  
G06  20628360.907      -10704.298        -485.179           0.255  
G07  23387865.871      -26002.758       -1307.272           0.248  
> 2023 05 18 00 00 45.6688020  0  6                     
G02  24261644.520      115004.454        2905.262           0.239  
G03  22337214.572      -15941.737        -504.895           0.255  
G04  23586512.670      -62608.651       -2119.041           0.244  
G05  22531025.865       62729.771        2046.599           0.255  
G06  20628398.395      -10849.771        -484.986           0.255  
G07  23387965.688      -26391.679       -1296.391           0.248  
> 2023 05 18 00 00 45.8688020  0  6                     
G02  24261497.365      115585.661        2905.867           0.239  
G03  22337240.599      -16042.747        -505.132           0.255  
G04  23586620.216      -63032.215       -2075.919           0.244  
G05  22530922.045       63138.953        2046.175           0.255  
G06  20628422.929      -10946.776        -485.210           0.255  
G07  23388031.038      -26651.000       -1296.871           0.248  
> 2023 05 18 00 00 45.9688020  0  6                     
G02  24261422.847      115876.251        2905.378           0.239  
G03  22337253.409      -16093.335        -530.715           0.255  
G04  23586674.862      -63244.168       -2117.769           0.244  
G05  22530870.144       63343.263        1987.996           0.255  
G06  20628435.673      -10995.280        -485.143           0.255  
G07  23388063.855      -26780.666       -1296.689           0.248  
> 2023 05 18 00 00 46.0688020  0  6                     
G02  24261348.048      116166.847        2905.588           0.239  
G03  22337267.478      -16143.772        -505.483           0.255  
G04  23586729.783      -63455.985       -2117.537           0.244  
G05  22530818.257       63548.130        2046.045           0.255  
G06  20628446.946      -11043.789        -485.397           0.255  
G07  23388096.741      -26910.331       -1296.962           0.248  
> 2023 05 18 00 00 46.1688020  0  6                     
G02  24261274.682      116457.440        2906.312           0.239  
G03  22337279.868      -16194.291        -504.565           0.255  
G04  23586783.010      -63667.800       -2117.879           0.244  
G05  22530765.868       63752.720        2046.471           0.255  
G06  20628459.718      -11092.301        -485.387           0.255  
G07  23388130.103      -27040.004       -1297.002           0.248  
> 2023 05 18 00 00 46.2688020  0  6                     
G02  24261201.031      116748.033        2905.852           0.239  
G03  22337291.171      -16244.811        -504.560           0.255  
G04  23586837.268      -63879.620       -2118.405           0.244  
G05  22530712.923       63957.298        2045.237           0.255  
G06  20628472.637      -11140.819        -485.510           0.255  
G07  23388163.072      -27169.680       -1296.739           0.248  
> 2023 05 18 00 00 46.4688020  0  6                     
G02  24261053.764      117329.242        2907.164           0.239  
G03  22337317.900      -16345.874        -504.540           0.255  
G04  23586944.635      -64303.274       -2118.872           0.244  
G05  22530609.263       64366.469        2045.141           0.255  
G06  20628497.439      -11237.858        -485.240           0.255  
G07  23388229.252      -27429.033       -1296.677           0.248  
> 2023 05 18 00 00 46.5688020  0  6                     
G02  24260981.311      117619.825        2905.770           0.239  
G03  22337329.470      -16396.418        -505.601           0.255  
G04  23586997.709      -64515.092       -2118.017           0.244  
G05  22530557.349       64571.259        2088.523           0.255  
G06  20628509.819      -11286.384        -484.916           0.255  
G07  23388262.536      -27558.714       -1296.688           0.248  
> 2023 05 18 00 00 46.6688020  0  6                     
G02  24260906.442      117910.419        2906.109           0.239  
G03  22337342.992      -16446.957        -505.187           0.255  
G04  23587051.610      -64726.912       -2118.545           0.244  
G05  22530504.858       64775.629        2045.757           0.255  
G06  20628521.866      -11334.916        -485.202           0.255  
G07  23388295.091      -27688.403       -1296.786           0.248  
> 2023 05 18 00 00 46.7688020  0  6                     
G02  24260831.078      118201.010        2905.543           0.239  
G03  22337355.834      -16497.513        -505.624           0.255  
G04  23587105.109      -64938.730       -2117.954           0.244  
G05  22530452.657       64980.204        2045.257           0.255  
G06  20628535.254      -11383.450        -485.149           0.255  
G07  23388328.415      -27818.091       -1296.574           0.248  
> 2023 05 18 00 00 46.8688020  0  6                     
G02  24260758.910      118491.626        2907.268           0.239  
G03  22337368.822      -16548.062        -505.752           0.255  
G04  23587158.325      -65150.566       -2118.938           0.244  
G05  22530400.679       65184.781        2046.320           0.255  
G06  20628547.082      -11431.986        -485.258           0.255  
G07  23388361.606      -27947.785       -1296.629           0.248  
> 2023 05 18 00 00 46.9688020  0  6                     
G02  24260683.136      118780.768        2765.206           0.239  
G03  22337382.926      -16598.612        -505.466           0.255  
G04  23587213.517      -65362.377       -2118.033           0.244  
G05  22530348.214       65389.345        2045.195           0.255  
G06  20628558.791      -11480.528        -485.217           0.255  
G07  23388394.350      -28077.476       -1296.705           0.248  
> 2023 05 18 00 00 47.0688020  0  6                     
G02  24260608.267      119072.781        2906.808           0.239  
G03  22337395.280      -16649.249        -508.926           0.255  
G04  23587267.730      -65574.191       -2118.620           0.244  
G05  22530296.156       65593.919        2046.174           0.255  
G06  20628571.474      -11529.073        -485.633           0.255  
G07  23388427.465      -28207.178       -1296.806           0.248  
> 2023 05 18 00 00 47.1688020  0  6                     
G02  24260533.453      119363.177        2877.129           0.239  
G03  22337409.325      -16699.768        -498.123           0.255  
G04  23587322.406      -65786.052       -2120.374           0.244  
G05  22530244.217       65798.480        2045.407           0.255  
G06  20628583.347      -11577.615        -485.535           0.255  
G07  23388460.679      -28336.877       -1296.892           0.248  
> 2023 05 18 00 00 47.2688020  0  6                     
G02  24260458.589      119653.984        2906.210           0.239  
G03  22337422.041      -16750.311        -491.470           0.255  
G04  23587377.104      -65997.875       -2118.490           0.244  
G05  22530192.294       66003.049        2045.931           0.255  
G06  20628595.798      -11626.163        -485.539           0.255  
G07  23388493.715      -28466.582       -1297.221           0.248  
> 2023 05 18 00 00 47.3688020  0  6                     
G02  24260385.324      119944.584        2905.754           0.240  
G03  22337435.919      -16800.884        -505.078           0.255  
G04  23587430.679      -66209.705       -2117.794           0.244  
G05  22530140.388       66207.608        2045.704           0.255  
G06  20628608.114      -11674.719        -485.892           0.255  
G07  23388526.897      -28596.285       -1296.990           0.248  
> 2023 05 18 00 00 47.4688020  0  6                     
G02  24260311.785      120235.177        2904.978           0.239  
G03  22337447.702      -16851.472        -505.639           0.255  
G04  23587483.988      -66421.546       -2118.084           0.244  
G05  22530088.097       66412.467        2125.960           0.255  
G06  20628620.225      -11723.275        -485.477           0.255  
G07  23388559.824      -28725.999       -1297.134           0.248  
> 2023 05 18 00 00 47.5688020  0  6                     
G02  24260240.172      120525.788        2905.471           0.239  
G03  22337460.443      -16902.057        -505.596           0.255  
G04  23587537.442      -66633.389       -2118.705           0.244  
G05  22530035.912       66616.726        2046.000           0.255  
G06  20628633.140      -11771.833        -485.497           0.255  
G07  23388593.085      -28855.711       -1297.257           0.248  
> 2023 05 18 00 00 47.6688020  0  6                     
G02  24260166.089      120816.377        2906.916           0.239  
G03  22337474.131      -16952.631        -505.512           0.255  
G04  23587590.648      -66845.215       -2119.023           0.244  
G05  22529983.523       66821.277        2045.465           0.255  
G06  20628645.009      -11820.404        -485.519           0.255  
G07  23388626.056      -28985.432       -1296.990           0.248  
> 2023 05 18 00 00 47.7688020  0  6                     
G02  24260090.444      121106.972        2907.530           0.239  
G03  22337483.997      -17003.219        -506.512           0.255  
G04  23587645.738      -67057.303       -2182.165           0.244  
G05  22529931.875       67025.830        2045.902           0.255  
G06  20628658.990      -11868.975        -485.843           0.255  
G07  23388659.282      -29115.187       -1284.521           0.248  
> 2023 05 18 00 00 47.8688020  0  6                     
G02  24260016.682      121397.555        2906.432           0.239  
G03  22337498.750      -17053.823        -505.745           0.255  
G04  23587699.252      -67268.882       -2119.218           0.244  
G05  22529879.285       67230.382        2044.857           0.255  
G06  20628670.332      -11917.538        -485.405           0.255  
G07  23388692.088      -29244.878       -1297.269           0.248  
> 2023 05 18 00 00 47.9688020  0  6                     
G02  24259941.968      121688.152        2905.686           0.239  
G03  22337508.085      -17104.423        -506.148           0.255  
G04  23587753.864      -67480.710       -2118.874           0.244  
G05  22529827.090       67434.932        2045.739           0.255  
G06  20628683.794      -11966.115        -485.744           0.255  
G07  23388725.204      -29374.596       -1297.146           0.248  
> 2023 05 18 00 00 48.0688020  0  6                     
G02  24259869.477      121978.750        2905.964           0.239  
G03  22337523.400      -17155.028        -505.828           0.255  
G04  23587806.494      -67692.553       -2118.960           0.244  
G05  22529774.816       67639.478        2045.588           0.255  
G06  20628695.259      -12014.690        -485.755           0.255  
G07  23388758.379      -29504.258       -1282.925           0.248  
> 2023 05 18 00 00 48.1688020  0  6                     
G02  24259795.125      122269.354        2905.775           0.239  
G03  22337537.733      -17205.643        -506.889           0.255  
G04  23587861.058      -67904.395       -2117.894           0.244  
G05  22529722.741       67844.031        2046.504           0.255  
G06  20628707.209      -12063.273        -485.136           0.255  
G07  23388791.652      -29634.055       -1297.352           0.248  
> 2023 05 18 00 00 48.2688020  0  6                     
G02  24259720.351      122559.944        2905.413           0.239  
G03  22337550.056      -17256.258        -506.971           0.255  
G04  23587915.353      -68116.358       -2116.047           0.244  
G05  22529670.502       68048.568        2045.816           0.255  
G06  20628719.726      -12111.856        -485.651           0.255  
G07  23388824.510      -29763.793       -1297.619           0.248  
> 2023 05 18 00 00 48.3688020  0  6                     
G02  24259646.175      122850.534        2905.619           0.239  
G03  22337563.398      -17306.870        -506.045           0.255  
G04  23587969.830      -68328.069       -2117.570           0.244  
G05  22529618.756       68253.112        2045.630           0.255  
G06  20628731.836      -12160.454        -486.328           0.255  
G07  23388857.278      -29893.528       -1297.649           0.248  
> 2023 05 18 00 00 48.4688020  0  6                     
G02  24259571.878      123141.134        2906.511           0.239  
G03  22337575.921      -17357.487        -505.304           0.255  
G04  23588024.077      -68539.916       -2119.199           0.244  
G05  22529566.601       68457.650        2045.374           0.255  
G06  20628744.433      -12209.044        -486.624           0.255  
G07  23388890.279      -30023.265       -1297.419           0.248  
> 2023 05 18 00 00 48.5688020  0  6                     
G02  24259498.471      123431.730        2905.376           0.239  
G03  22337588.507      -17408.080        -449.660           0.255  
G04  23588077.791      -68751.663       -2079.445           0.244  
G05  22529514.482       68661.940        1973.491           0.255  
G06  20628756.924      -12257.641        -486.677           0.255  
G07  23388923.348      -30153.018       -1302.547           0.248  
> 2023 05 18 00 00 48.6688020  0  6                     
G02  24259424.124      123722.313        2903.770           0.239  
G03  22337600.534      -17459.052        -494.786           0.255  
G04  23588131.469      -68963.598       -2117.344           0.244  
G05  22529462.159       68866.722        2045.643           0.255  
G06  20628769.513      -12306.238        -486.469           0.255  
G07  23388956.246      -30282.752       -1303.326           0.248  
> 2023 05 18 00 00 48.8688020  0  6                     
G02  24259275.838      124303.507        2904.553           0.239  
G03  22337626.885      -17560.029        -505.783           0.255  
G04  23588239.939      -69387.264       -2116.359           0.244  
G05  22529358.172       69275.780        2045.864           0.255  
G06  20628793.194      -12403.446        -486.537           0.255  
G07  23389022.099      -30542.246       -1297.861           0.248  
> 2023 05 18 00 00 48.9688020  0  6                     
G02  24259201.141      124594.105        2906.646           0.239  
G03  22337640.758      -17610.675        -506.525           0.255  
G04  23588293.521      -69599.150       -2118.515           0.244  
G05  22529306.263       69480.307        2044.906           0.255  
G06  20628805.520      -12452.055        -486.400           0.255  
G07  23389055.729      -30672.002       -1297.742           0.248  
> 2023 05 18 00 00 49.0688020  0  6                     
G02  24259127.327      124884.701        2906.623           0.239  
G03  22337654.731      -17661.332        -506.641           0.255  
G04  23588347.177      -69811.002       -2119.168           0.244  
G05  22529253.940       69684.832        2046.049           0.255  
G06  20628818.092      -12500.666        -486.317           0.255  
G07  23389088.869      -30801.758       -1297.769           0.248  
> 2023 05 18 00 00 49.1688020  0  6                     
G02  24259054.428      125175.298        2905.462           0.239  
G03  22337666.243      -17711.986        -506.289           0.255  
G04  23588401.340      -70022.847       -2117.942           0.244  
G05  22529202.141       69889.347        2044.343           0.255  
G06  20628831.963      -12549.278        -486.141           0.255  
G07  23389121.924      -30931.515       -1297.401           0.248  
> 2023 05 18 00 00 49.2688020  0  6                     
G02  24258981.139      125465.893        2906.271           0.239  
G03  22337678.850      -17762.650        -506.177           0.255  
G04  23588455.088      -70234.836       -2115.239           0.244  
G05  22529149.823       70093.873        2045.938           0.255  
G06  20628844.104      -12597.900        -486.279           0.255  
G07  23389155.219      -31061.283       -1297.744           0.248  
> 2023 05 18 00 00 49.4688020  0  6                     
G02  24258831.153      126047.099        2907.281           0.239  
G03  22337705.246      -17863.991        -507.076           0.255  
G04  23588563.419      -70658.421       -2119.268           0.244  
G05  22529045.432       70502.902        2045.545           0.255  
G06  20628868.602      -12695.149        -486.628           0.255  
G07  23389221.169      -31320.811       -1297.103           0.248  
> 2023 05 18 00 00 49.5688020  0  6                     
G02  24258758.216      126337.666        2904.233           0.239  
G03  22337718.410      -17914.662        -508.082           0.255  
G04  23588617.680      -70870.258       -2117.344           0.244  
G05  22528993.167       70707.411        2044.257           0.255  
G06  20628881.144      -12743.773        -485.565           0.255  
G07  23389253.906      -31450.587       -1297.135           0.248  
> 2023 05 18 00 00 49.6688020  0  6                     
G02  24258682.839      126628.267        2907.287           0.239  
G03  22337731.833      -17965.340        -507.938           0.255  
G04  23588671.757      -71082.143       -2119.855           0.244  
G05  22528940.915       70911.929        2045.226           0.255  
G06  20628892.636      -12792.410        -485.695           0.255  
G07  23389287.329      -31580.359       -1297.502           0.248  
> 2023 05 18 00 00 49.7688020  0  6                     
G02  24258609.719      126918.845        2905.269           0.239  
G03  22337744.005      -18016.032        -509.088           0.255  
G04  23588725.581      -71294.003       -2118.940           0.244  
G05  22528888.887       71116.437        2044.691           0.255  
G06  20628906.141      -12841.034        -484.921           0.255  
G07  23389320.070      -31709.993       -1282.063           0.248  
> 2023 05 18 00 00 49.8688020  0  6                     
G02  24258534.380      127209.442        2906.291           0.239  
G03  22337758.485      -18066.717        -508.912           0.255  
G04  23588779.745      -71505.863       -2118.846           0.244  
G05  22528837.099       71320.951        2045.515           0.255  
G06  20628917.373      -12889.672        -485.114           0.255  
G07  23389353.236      -31839.921       -1298.025           0.248  
> 2023 05 18 00 00 49.9688020  0  6                     
G02  24258461.231      127500.030        2906.196           0.239  
G03  22337770.996      -18117.405        -507.904           0.255  
G04  23588833.292      -71717.718       -2118.038           0.244  
G05  22528784.710       71525.450        2044.625           0.255  
G06  20628929.905      -12938.318        -485.761           0.255  
G07  23389386.315      -31969.710       -1298.429           0.248  
> 2023 05 18 00 00 50.0688020  0  6                     
G02  24258386.679      127790.604        2905.020           0.239  
G03  22337783.987      -18168.111        -508.111           0.255  
G04  23588887.858      -71929.565       -2117.740           0.244  
G05  22528732.714       71729.958        2045.080           0.255  
G06  20628941.694      -12986.961        -485.737           0.255  
G07  23389419.293      -32099.491       -1297.696           0.248  
> 2023 05 18 00 00 50.1688020  0  6                     
G02  24258313.338      128081.210        2906.595           0.239  
G03  22337796.000      -18218.804        -507.661           0.255  
G04  23588940.942      -72141.438       -2119.165           0.244  
G05  22528680.634       71934.453        2044.671           0.255  
G06  20628954.931      -13035.618        -485.890           0.255  
G07  23389452.631      -32229.286       -1298.525           0.248  
> 2023 05 18 00 00 50.2688020  0  6                     
G02  24258239.800      128371.779        2905.615           0.239  
G03  22337809.874      -18269.497        -507.349           0.255  
G04  23588994.774      -72353.288       -2118.168           0.244  
G05  22528628.585       72138.955        2045.084           0.255  
G06  20628967.165      -13084.274        -486.246           0.255  
G07  23389485.651      -32359.074       -1297.586           0.248  
> 2023 05 18 00 00 50.3688020  0  6                     
G02  24258163.967      128662.390        2907.023           0.239  
G03  22337821.715      -18320.207        -507.126           0.255  
G04  23589050.571      -72565.597       -2126.639           0.244  
G05  22528576.642       72343.450        2044.427           0.255  
G06  20628979.981      -13132.932        -486.767           0.255  
G07  23389518.769      -32488.865       -1289.025           0.248  
> 2023 05 18 00 00 50.4688020  0  6                     
G02  24258091.332      128952.959        2903.732           0.239  
G03  22337834.176      -18370.881        -509.393           0.255  
G04  23589103.687      -72777.025       -2117.344           0.244  
G05  22528524.487       72547.948        2045.388           0.255  
G06  20628991.856      -13181.587        -486.671           0.255  
G07  23389551.818      -32618.669       -1297.509           0.248  
> 2023 05 18 00 00 50.5688020  0  6                     
G02  24258017.847      129243.549        2905.935           0.239  
G03  22337847.179      -18421.639        -507.015           0.255  
G04  23589157.411      -72989.035       -2161.091           0.244  
G05  22528472.305       72752.436        2044.735           0.255  
G06  20629004.332      -13230.251        -486.825           0.255  
G07  23389584.488      -32748.471       -1297.587           0.248  
> 2023 05 18 00 00 50.6688020  0  6                     
G02  24257942.321      129534.143        2905.724           0.239  
G03  22337859.397      -18472.358        -506.377           0.255  
G04  23589212.382      -73201.084       -2149.457           0.244  
G05  22528420.010       72956.936        2045.873           0.255  
G06  20629016.991      -13278.922        -486.869           0.255  
G07  23389617.776      -32878.276       -1298.149           0.248  
> 2023 05 18 00 00 50.7688020  0  6                     
G02  24257869.191      129824.733        2906.007           0.239  
G03  22337872.856      -18523.077        -505.786           0.255  
G04  23589265.936      -73412.630       -2118.635           0.244  
G05  22528367.946       73161.416        2044.505           0.255  
G06  20629029.337      -13327.596        -487.507           0.255  
G07  23389650.820      -33008.083       -1298.112           0.248  
> 2023 05 18 00 00 50.8688020  0  6                     
G02  24257795.729      130115.325        2905.276           0.239  
G03  22337885.159      -18573.812        -505.657           0.255  
G04  23589319.677      -73624.502       -2117.862           0.244  
G05  22528315.807       73365.904        2045.395           0.255  
G06  20629042.248      -13376.271        -486.925           0.255  
G07  23389683.990      -33137.893       -1298.207           0.248  
> 2023 05 18 00 00 50.9688020  0  6                     
G02  24257721.418      130405.917        2908.373           0.239  
G03  22337898.676      -18623.761        -456.549           0.255  
G04  23589373.662      -73836.910       -2188.799           0.244  
G05  22528263.827       73570.680        2088.359           0.255  
G06  20629054.506      -13424.956        -487.898           0.255  
G07  23389716.553      -33267.683       -1308.050           0.248  
> 2023 05 18 00 00 51.0688020  0  6                     
G02  24257647.673      130696.506        2905.597           0.239  
G03  22337911.630      -18675.291        -506.802           0.255  
G04  23589427.218      -74048.247       -2118.052           0.244  
G05  22528211.367       73774.871        2045.154           0.255  
G06  20629067.041      -13473.631        -487.072           0.255  
G07  23389750.289      -33397.531       -1298.673           0.248  
> 2023 05 18 00 00 51.1688020  0  6                     
G02  24257573.670      130987.117        2914.034           0.239  
G03  22337923.414      -18726.038        -507.797           0.255  
G04  23589481.096      -74260.115       -2140.141           0.244  
G05  22528159.541       73979.344        2043.826           0.255  
G06  20629080.208      -13522.314        -486.981           0.255  
G07  23389782.992      -33527.346       -1298.493           0.248  
> 2023 05 18 00 00 51.2688020  0  6                     
G02  24257497.965      131277.688        2906.850           0.239  
G03  22337937.502      -18776.395        -481.022           0.255  
G04  23589536.078      -74471.984       -2119.150           0.244  
G05  22528107.396       74183.828        2045.101           0.255  
G06  20629091.953      -13571.003        -486.659           0.255  
G07  23389816.382      -33657.008       -1308.959           0.248  
> 2023 05 18 00 00 51.3688020  0  6                     
G02  24257425.188      131568.256        2903.385           0.239  
G03  22337950.890      -18827.548        -507.841           0.255  
G04  23589589.211      -74683.852       -2117.019           0.244  
G05  22528055.385       74388.299        2044.307           0.255  
G06  20629104.035      -13619.688        -486.823           0.255  
G07  23389849.536      -33786.992       -1298.264           0.248  
> 2023 05 18 00 00 51.4688020  0  6                     
G02  24257350.449      131858.849        2906.816           0.239  
G03  22337963.910      -18878.308        -507.103           0.255  
G04  23589643.419      -74895.732       -2119.569           0.244  
G05  22528003.221       74592.776        2044.822           0.255  
G06  20629116.477      -13668.380        -487.175           0.255  
G07  23389882.472      -33916.819       -1298.048           0.248  
> 2023 05 18 00 00 51.5688020  0  6                     
G02  24257277.182      132149.453        2905.323           0.239  
G03  22337976.899      -18929.074        -507.925           0.255  
G04  23589697.731      -75107.623       -2119.260           0.244  
G05  22527950.763       74797.250        2044.701           0.255  
G06  20629128.452      -13717.078        -486.773           0.255  
G07  23389915.783      -34046.648       -1298.066           0.248  
> 2023 05 18 00 00 51.6688020  0  6                     
G02  24257202.395      132440.025        2903.808           0.239  
G03  22337989.668      -18979.841        -507.563           0.255  
G04  23589751.982      -75319.483       -2117.473           0.244  
G05  22527898.921       75001.720        2045.288           0.255  
G06  20629140.940      -13765.779        -486.934           0.255  
G07  23389949.311      -34176.484       -1298.362           0.248  
> 2023 05 18 00 00 51.7688020  0  6                     
G02  24257127.911      132730.623        2905.606           0.239  
G03  22338003.306      -19030.622        -507.632           0.255  
G04  23589806.007      -75531.375       -2119.769           0.244  
G05  22527846.708       75206.596        2123.781           0.255  
G06  20629153.258      -13814.484        -486.611           0.255  
G07  23389981.888      -34306.240       -1299.330           0.248  
> 2023 05 18 00 00 51.8688020  0  6                     
G02  24257054.102      133021.218        2905.417           0.239  
G03  22338016.096      -19081.406        -508.016           0.255  
G04  23589859.543      -75743.327       -2115.905           0.244  
G05  22527794.707       75410.650        2044.361           0.255  
G06  20629165.697      -13863.186        -486.768           0.255  
G07  23390014.883      -34436.154       -1298.349           0.248  
> 2023 05 18 00 00 51.9688020  0  6                     
G02  24256980.090      133311.814        2931.517           0.239  
G03  22338028.930      -19132.183        -507.322           0.255  
G04  23589913.820      -75955.631       -2176.460           0.244  
G05  22527742.458       75615.115        2044.939           0.255  
G06  20629178.044      -13911.899        -487.263           0.255  
G07  23390048.065      -34565.996       -1298.475           0.248  
> 2023 05 18 00 00 52.0688020  0  6                     
G02  24256906.438      133602.405        2907.438           0.239  
G03  22338041.567      -19182.966        -505.678           0.255  
G04  23589967.427      -76167.031       -2120.002           0.244  
G05  22527690.588       75819.575        2044.863           0.255  
G06  20629190.570      -13960.611        -487.871           0.255  
G07  23390081.107      -34695.860       -1317.709           0.248  
> 2023 05 18 00 00 52.1688020  0  6                     
G02  24256832.179      133892.979        2904.693           0.239  
G03  22338054.331      -19233.752        -505.675           0.255  
G04  23590021.358      -76378.904       -2117.724           0.244  
G05  22527638.392       76023.809        2023.225           0.255  
G06  20629203.119      -14009.334        -488.206           0.255  
G07  23390114.279      -34825.693       -1298.870           0.248  
> 2023 05 18 00 00 52.3688020  0  6                     
G02  24256684.503      134474.153        2905.104           0.239  
G03  22338080.082      -19335.332        -506.433           0.255  
G04  23590128.800      -76802.666       -2117.477           0.244  
G05  22527534.365       76432.946        2045.256           0.255  
G06  20629228.018      -14106.789        -487.753           0.255  
G07  23390180.729      -35085.397       -1299.110           0.248  
> 2023 05 18 00 00 52.4688020  0  6                     
G02  24256610.471      134764.739        2906.177           0.239  
G03  22338093.681      -19386.139        -507.154           0.255  
G04  23590183.893      -77014.551       -2118.914           0.244  
G05  22527482.080       76637.384        2044.023           0.255  
G06  20629240.225      -14155.524        -488.136           0.255  
G07  23390212.944      -35215.255       -1298.788           0.248  
> 2023 05 18 00 00 52.5688020  0  6                     
G02  24256537.356      135055.349        2906.211           0.239  
G03  22338106.339      -19436.949        -507.906           0.255  
G04  23590237.665      -77226.455       -2118.742           0.244  
G05  22527430.142       76841.842        2045.207           0.255  
G06  20629252.470      -14204.249        -487.435           0.255  
G07  23390246.723      -35345.114       -1298.512           0.248  
> 2023 05 18 00 00 52.6688020  0  6                     
G02  24256463.776      135345.915        2904.302           0.239  
G03  22338119.301      -19487.764        -507.435           0.255  
G04  23590290.548      -77438.332       -2117.454           0.244  
G05  22527378.061       77046.289        2044.271           0.255  
G06  20629265.312      -14252.985        -487.709           0.255  
G07  23390279.541      -35474.979       -1299.008           0.248  
> 2023 05 18 00 00 52.7688020  0  6                     
G02  24256388.193      135636.530        2906.646           0.239  
G03  22338133.020      -19538.588        -508.065           0.255  
G04  23590344.864      -77650.223       -2118.104           0.244  
G05  22527325.896       77250.737        2044.934           0.255  
G06  20629277.303      -14301.719        -487.324           0.255  
G07  23390313.161      -35604.846       -1298.869           0.248  
> 2023 05 18 00 00 52.8688020  0  6                     
G02  24256315.383      135927.106        2906.079           0.239  
G03  22338145.496      -19589.413        -508.563           0.255  
G04  23590398.547      -77862.115       -2118.485           0.244  
G05  22527273.690       77455.287        2072.540           0.255  
G06  20629289.851      -14350.462        -487.849           0.255  
G07  23390345.811      -35734.715       -1298.893           0.248  
> 2023 05 18 00 00 52.9688020  0  6                     
G02  24256238.645      136217.702        2907.021           0.239  
G03  22338157.851      -19640.240        -508.837           0.255  
G04  23590453.343      -78074.010       -2118.873           0.244  
G05  22527221.308       77659.517        2020.645           0.255  
G06  20629302.359      -14399.201        -486.751           0.255  
G07  23390379.768      -35864.586       -1298.908           0.248  
> 2023 05 18 00 00 53.0688020  0  6                     
G02  24256166.780      136508.290        2906.855           0.239  
G03  22338171.099      -19691.370        -576.105           0.255  
G04  23590507.618      -78285.911       -2119.794           0.244  
G05  22527169.355       77864.008        2067.344           0.255  
G06  20629314.888      -14447.954        -487.204           0.255  
G07  23390411.955      -35994.465       -1299.203           0.248  
> 2023 05 18 00 00 53.1688020  0  6                     
G02  24256092.832      136798.871        2904.700           0.239  
G03  22338185.121      -19741.922        -508.543           0.255  
G04  23590561.120      -78497.798       -2118.229           0.244  
G05  22527117.813       78068.496        2044.527           0.255  
G06  20629326.568      -14496.701        -487.447           0.255  
G07  23390444.968      -36124.346       -1298.916           0.248  
> 2023 05 18 00 00 53.2688020  0  6                     
G02  24256017.693      137090.090        2988.951           0.239  
G03  22338197.276      -19792.759        -508.070           0.255  
G04  23590615.520      -78709.689       -2120.162           0.244  
G05  22527065.505       78272.929        2045.184           0.255  
G06  20629339.348      -14545.459        -487.942           0.255  
G07  23390478.172      -36254.226       -1298.776           0.248  
> 2023 05 18 00 00 53.3688020  0  6                     
G02  24255944.210      137380.071        2906.740           0.239  
G03  22338208.653      -19843.988        -533.243           0.255  
G04  23590669.564      -78921.601       -2119.050           0.244  
G05  22527012.813       78477.738        2117.788           0.255  
G06  20629352.325      -14594.224        -488.151           0.255  
G07  23390511.564      -36384.124       -1294.332           0.248  
> 2023 05 18 00 00 53.4688020  0  6                     
G02  24255869.892      137670.621        2903.894           0.239  
G03  22338220.985      -19894.431        -506.682           0.255  
G04  23590723.180      -79133.474       -2116.924           0.244  
G05  22526960.992       78681.787        2044.892           0.255  
G06  20629365.058      -14642.992        -488.428           0.255  
G07  23390544.584      -36513.959       -1278.392           0.248  
> 2023 05 18 00 00 53.5688020  0  6                     
G02  24255794.256      137961.244        2908.560           0.239  
G03  22338234.529      -19945.229        -463.512           0.255  
G04  23590777.065      -79345.395       -2120.704           0.244  
G05  22526909.518       78886.561        2112.331           0.255  
G06  20629377.766      -14691.763        -489.003           0.255  
G07  23390577.507      -36643.889       -1299.083           0.248  
> 2023 05 18 00 00 53.6688020  0  6                     
G02  24255721.954      138251.816        2905.916           0.239  
G03  22338248.251      -19996.165        -514.121           0.255  
G04  23590831.145      -79557.288       -2118.961           0.244  
G05  22526857.144       79090.525        2009.953           0.255  
G06  20629389.578      -14740.524        -488.018           0.255  
G07  23390610.832      -36773.817       -1275.858           0.248  
> 2023 05 18 00 00 53.7688020  0  6                     
G02  24255647.122      138542.406        2905.675           0.239  
G03  22338261.548      -20047.014        -508.417           0.255  
G04  23590885.966      -79769.186       -2118.689           0.244  
G05  22526805.013       79294.984        2034.750           0.255  
G06  20629402.177      -14789.293        -487.644           0.255  
G07  23390643.954      -36903.678       -1298.772           0.248  
> 2023 05 18 00 00 53.8688020  0  6                     
G02  24255573.153      138832.993        2906.893           0.239  
G03  22338274.406      -20097.664        -506.436           0.255  
G04  23590939.774      -79981.098       -2119.598           0.244  
G05  22526752.872       79499.718        2068.554           0.255  
G06  20629414.691      -14838.068        -487.752           0.255  
G07  23390676.761      -37033.580       -1299.095           0.248  
> 2023 05 18 00 00 53.9688020  0  6                     
G02  24255499.698      139123.556        2903.763           0.239  
G03  22338287.456      -20148.757        -509.800           0.255  
G04  23590993.637      -80192.983       -2117.406           0.244  
G05  22526700.507       79703.904        2044.536           0.255  
G06  20629426.749      -14886.850        -487.478           0.255  
G07  23390709.609      -37163.480       -1298.990           0.248  
> 2023 05 18 00 00 54.0688020  0  6                     
G02  24255425.531      139414.163        2906.867           0.239  
G03  22338301.662      -20199.634        -509.446           0.255  
G04  23591047.433      -80404.900       -2119.970           0.244  
G05  22526648.630       79908.321        2043.674           0.255  
G06  20629438.911      -14935.634        -487.525           0.255  
G07  23390742.705      -37293.380       -1298.860           0.248  
> 2023 05 18 00 00 54.1688020  0  6                     
G02  24255351.771      139704.752        2905.787           0.239  
G03  22338313.197      -20250.516        -509.408           0.255  
G04  23591101.764      -80616.612       -2100.725           0.244  
G05  22526596.351       80113.034        2082.813           0.255  
G06  20629451.563      -14984.421        -487.970           0.255  
G07  23390775.875      -37423.287       -1298.898           0.248  
> 2023 05 18 00 00 54.2688020  0  6                     
G02  24255278.117      139995.337        2866.760           0.239  
G03  22338328.511      -20301.401        -509.230           0.255  
G04  23591155.068      -80828.728       -2086.276           0.244  
G05  22526544.203       80317.149        2043.825           0.255  
G06  20629463.351      -15033.211        -488.111           0.255  
G07  23390809.435      -37553.195       -1298.709           0.248  
> 2023 05 18 00 00 54.3688020  0  6                     
G02  24255203.780      140285.672        2963.482           0.239  
G03  22338340.534      -20352.303        -507.937           0.255  
G04  23591209.246      -81040.947       -2192.220           0.244  
G05  22526492.326       80521.535        2032.697           0.255  
G06  20629476.144      -15081.995        -488.419           0.255  
G07  23390842.333      -37683.125       -1296.957           0.248  
> 2023 05 18 00 00 54.4688020  0  6                     
G02  24255128.604      140576.523        2907.080           0.239  
G03  22338352.363      -20403.191        -507.193           0.255  
G04  23591263.808      -81252.532       -2120.118           0.244  
G05  22526440.300       80725.970        2044.695           0.255  
G06  20629488.765      -15130.797        -488.768           0.255  
G07  23390875.549      -37813.022       -1299.197           0.248  
> 2023 05 18 00 00 54.5688020  0  6                     
G02  24255055.088      140867.100        2905.163           0.239  
G03  22338364.788      -20454.069        -506.881           0.255  
G04  23591317.417      -81464.431       -2118.607           0.244  
G05  22526388.272       80930.369        2043.139           0.255  
G06  20629501.328      -15179.602        -489.139           0.255  
G07  23390908.740      -37942.946       -1299.295           0.248  
> 2023 05 18 00 00 54.6688020  0  6                     
G02  24254981.965      141157.694        2905.893           0.239  
G03  22338377.071      -20504.977        -507.155           0.255  
G04  23591371.109      -81676.350       -2118.948           0.244  
G05  22526336.174       81134.770        2043.782           0.255  
G06  20629514.813      -15228.405        -488.359           0.255  
G07  23390941.546      -38072.861       -1298.683           0.248  
> 2023 05 18 00 00 54.7688020  0  6                     
G02  24254907.112      141448.286        2906.103           0.239  
G03  22338391.844      -20555.888        -508.782           0.255  
G04  23591425.254      -81888.264       -2118.946           0.244  
G05  22526283.515       81339.171        2043.332           0.255  
G06  20629526.067      -15277.214        -488.252           0.255  
G07  23390974.709      -38202.787       -1299.168           0.248  
> 2023 05 18 00 00 54.8688020  0  6                     
G02  24254833.023      141738.879        2906.520           0.239  
G03  22338404.474      -20606.797        -508.887           0.255  
G04  23591479.108      -82100.182       -2119.952           0.244  
G05  22526231.819       81543.574        2043.615           0.255  
G06  20629538.284      -15326.025        -487.807           0.255  
G07  23391008.022      -38332.716       -1299.424           0.248  
> 2023 05 18 00 00 54.9688020  0  6                     
G02  24254759.209      142029.455        2904.551           0.239  
G03  22338417.840      -20657.722        -508.694           0.255  
G04  23591533.635      -82312.084       -2118.050           0.244  
G05  22526179.804       81747.973        2044.182           0.255  
G06  20629551.154      -15374.840        -488.001           0.255  
G07  23391040.655      -38462.645       -1299.110           0.248  
> 2023 05 18 00 00 55.0688020  0  6                     
G02  24254684.746      142320.049        2906.131           0.239  
G03  22338430.561      -20708.637        -509.351           0.255  
G04  23591586.898      -82524.004       -2119.520           0.244  
G05  22526127.783       81952.363        2043.271           0.255  
G06  20629563.536      -15423.651        -488.113           0.255  
G07  23391073.747      -38592.700       -1309.173           0.248  
> 2023 05 18 00 00 55.1688020  0  6                     
G02  24254611.146      142610.642        2905.495           0.239  
G03  22338442.627      -20759.621        -521.038           0.255  
G04  23591641.378      -82735.832       -2093.045           0.244  
G05  22526075.519       82156.753        2044.435           0.255  
G06  20629576.271      -15472.475        -488.308           0.255  
G07  23391107.107      -38722.519       -1299.590           0.248  
> 2023 05 18 00 00 55.2688020  0  6                     
G02  24254536.837      142901.230        2905.402           0.239  
G03  22338456.752      -20810.501        -509.670           0.255  
G04  23591695.654      -82947.892       -2124.083           0.244  
G05  22526023.437       82361.139        2043.949           0.255  
G06  20629587.954      -15521.298        -488.202           0.255  
G07  23391139.532      -38852.452       -1299.017           0.248  
> 2023 05 18 00 00 55.3688020  0  6                     
G02  24254462.513      143191.822        2905.937           0.239  
G03  22338468.002      -20861.435        -508.865           0.255  
G04  23591749.205      -83159.703       -2111.616           0.244  
G05  22525971.295       82565.530        2043.725           0.255  
G06  20629601.026      -15570.125        -488.574           0.255  
G07  23391173.421      -38982.400       -1299.861           0.248  
> 2023 05 18 00 00 55.4688020  0  6                     
G02  24254387.692      143482.407        2906.497           0.239  
G03  22338480.130      -20912.373        -507.576           0.255  
G04  23591803.704      -83372.081       -2143.097           0.244  
G05  22525919.607       82769.920        2044.230           0.255  
G06  20629614.192      -15618.953        -489.155           0.255  
G07  23391207.014      -39112.394       -1320.946           0.248  
> 2023 05 18 00 00 55.5688020  0  6                     
G02  24254314.735      143772.123        2808.016           0.239  
G03  22338494.517      -20963.546        -417.395           0.255  
G04  23591857.231      -83583.338       -2108.489           0.244  
G05  22525867.285       82974.297        2043.330           0.255  
G06  20629626.098      -15667.800        -488.708           0.255  
G07  23391240.116      -39242.292       -1299.701           0.248  
> 2023 05 18 00 00 55.6688020  0  6                     
G02  24254240.545      144063.588        2906.187           0.239  
G03  22338507.564      -21014.259        -508.377           0.255  
G04  23591911.221      -83795.512       -2119.208           0.244  
G05  22525815.269       83178.683        2043.935           0.255  
G06  20629639.094      -15716.638        -489.091           0.255  
G07  23391273.054      -39372.240       -1299.574           0.248  
> 2023 05 18 00 00 55.7688020  0  6                     
G02  24254166.931      144354.181        2906.376           0.239  
G03  22338521.353      -21064.904        -456.293           0.255  
G04  23591963.635      -84007.021       -2134.176           0.244  
G05  22525763.106       83383.064        2043.845           0.255  
G06  20629651.514      -15765.475        -488.637           0.255  
G07  23391305.966      -39502.198       -1300.051           0.248  
> 2023 05 18 00 00 55.8688020  0  6                     
G02  24254092.533      144644.756        2905.006           0.239  
G03  22338534.622      -21115.817        -494.809           0.255  
G04  23592018.780      -84219.363       -2117.917           0.244  
G05  22525711.107       83587.439        2043.492           0.255  
G06  20629663.908      -15814.324        -487.930           0.255  
G07  23391339.712      -39632.153       -1299.680           0.248  
> 2023 05 18 00 00 55.9688020  0  6                     
G02  24254018.131      144935.345        2906.805           0.239  
G03  22338547.865      -21167.142        -510.846           0.255  
G04  23592073.318      -84431.295       -2119.475           0.244  
G05  22525659.094       83791.514        1986.548           0.255  
G06  20629675.599      -15863.165        -487.713           0.255  
G07  23391372.733      -39762.185       -1323.117           0.248  
> 2023 05 18 00 00 56.0688020  0  6                     
G02  24253944.441      145225.920        2905.316           0.239  
G03  22338560.785      -21218.083        -508.782           0.255  
G04  23592127.495      -84643.219       -2118.195           0.244  
G05  22525606.893       83996.193        2043.780           0.255  
G06  20629687.957      -15912.020        -488.399           0.255  
G07  23391405.273      -39892.069       -1305.061           0.248  
> 2023 05 18 00 00 56.1688020  0  6                     
G02  24253869.832      145516.506        2906.802           0.239  
G03  22338573.965      -21269.075        -509.505           0.255  
G04  23592181.631      -84855.149       -2119.602           0.244  
G05  22525554.848       84200.562        2043.411           0.255  
G06  20629700.247      -15960.871        -488.299           0.255  
G07  23391438.412      -40022.050       -1300.094           0.248  
> 2023 05 18 00 00 56.7688020  0  6                     
G02  24253425.742      147259.994        2905.553           0.239  
G03  22338651.179      -21574.496        -532.743           0.255  
G04  23592505.808      -86126.810       -2182.365           0.244  
G05  22525242.338       85426.900        2068.544           0.255  
G06  20629775.584      -16254.076        -487.684           0.255  
G07  23391637.206      -40801.902       -1299.971           0.248  
> 2023 05 18 00 00 56.8688020  0  6                     
G02  24253352.608      147550.601        2906.877           0.239  
G03  22338665.047      -21626.017        -512.785           0.255  
G04  23592559.218      -86338.686       -2120.751           0.244  
G05  22525190.259       85631.101        2043.304           0.255  
G06  20629787.569      -16302.943        -486.968           0.255  
G07  23391669.932      -40931.888       -1299.696           0.248  
> 2023 05 18 00 00 56.9688020  0  6                     
G02  24253278.422      147841.156        2905.033           0.239  
G03  22338678.007      -21677.324        -569.303           0.255  
G04  23592613.292      -86550.603       -2118.831           0.244  
G05  22525138.156       85835.449        2043.020           0.255  
G06  20629799.805      -16351.825        -487.974           0.255  
G07  23391703.499      -41061.876       -1299.673           0.248  
> 2023 05 18 00 00 57.0688020  0  6                     
G02  24253203.584      148131.762        2906.428           0.239  
G03  22338690.652      -21728.029        -509.914           0.255  
G04  23592667.546      -86762.559       -2120.354           0.244  
G05  22525086.226       86039.804        2044.013           0.255  
G06  20629812.074      -16400.711        -488.642           0.255  
G07  23391736.443      -41191.780       -1285.626           0.248  
> 2023 05 18 00 00 57.1688020  0  6                     
G02  24253130.018      148422.328        2905.710           0.239  
G03  22338702.835      -21779.036        -509.431           0.255  
G04  23592721.069      -86974.479       -2118.853           0.244  
G05  22525034.174       86244.159        2043.663           0.255  
G06  20629824.958      -16449.608        -489.319           0.255  
G07  23391769.832      -41321.859       -1299.520           0.248  
> 2023 05 18 00 00 57.2688020  0  6                     
G02  24253055.755      148712.922        2905.855           0.239  
G03  22338715.408      -21830.051        -509.719           0.255  
G04  23592775.459      -87186.425       -2119.108           0.244  
G05  22524981.915       86448.501        2043.113           0.255  
G06  20629837.618      -16498.504        -489.175           0.255  
G07  23391802.812      -41451.860       -1299.678           0.248  
> 2023 05 18 00 00 57.3688020  0  6                     
G02  24252981.719      149003.497        2905.654           0.239  
G03  22338728.660      -21880.721        -465.775           0.255  
G04  23592829.416      -87398.625       -2138.263           0.244  
G05  22524929.855       86653.163        2120.124           0.255  
G06  20629850.400      -16547.400        -488.940           0.255  
G07  23391836.157      -41581.860       -1299.802           0.248  
> 2023 05 18 00 00 57.5688020  0  6                     
G02  24252833.374      149584.671        2906.370           0.239  
G03  22338755.823      -21983.145        -511.217           0.255  
G04  23592937.760      -87822.252       -2119.815           0.244  
G05  22524825.870       87061.532        2043.062           0.255  
G06  20629874.751      -16645.203        -488.669           0.255  
G07  23391902.018      -41841.949       -1308.115           0.248  
> 2023 05 18 00 00 57.6688020  0  6                     
G02  24252759.805      149875.247        2905.368           0.239  
G03  22338769.168      -22034.511        -599.235           0.255  
G04  23592991.749      -88034.192       -2118.883           0.244  
G05  22524773.749       87265.866        2043.857           0.255  
G06  20629886.999      -16694.103        -488.125           0.255  
G07  23391935.372      -41971.884       -1300.206           0.248  
> 2023 05 18 00 00 57.7688020  0  6                     
G02  24252685.219      150165.827        2904.549           0.239  
G03  22338781.852      -22085.252        -511.373           0.255  
G04  23593045.853      -88245.725       -2107.986           0.244  
G05  22524721.547       87470.199        2043.567           0.255  
G06  20629899.319      -16743.004        -488.372           0.255  
G07  23391968.577      -42101.806       -1293.512           0.248  
> 2023 05 18 00 00 57.8688020  0  6                     
G02  24252610.420      150456.426        2907.729           0.239  
G03  22338793.929      -22136.286        -509.329           0.255  
G04  23593100.435      -88458.412       -2146.902           0.244  
G05  22524669.606       87674.530        2042.982           0.255  
G06  20629912.051      -16791.921        -489.227           0.255  
G07  23392001.657      -42231.908       -1300.142           0.248  
> 2023 05 18 00 00 57.9688020  0  6                     
G02  24252538.222      150747.006        2905.693           0.239  
G03  22338806.264      -22187.315        -507.283           0.255  
G04  23593153.279      -88670.034       -2119.361           0.244  
G05  22524617.502       87878.867        2043.709           0.255  
G06  20629924.905      -16840.850        -491.015           0.255  
G07  23392034.739      -42361.928       -1300.250           0.248  
> 2023 05 18 00 00 58.0688020  0  6                     
G02  24252463.730      151037.573        2905.512           0.239  
G03  22338819.069      -22238.362        -508.033           0.255  
G04  23593207.145      -88881.975       -2118.894           0.244  
G05  22524565.412       88083.192        2043.250           0.255  
G06  20629937.577      -16889.774        -490.613           0.255  
G07  23392067.764      -42491.952       -1300.176           0.248  
> 2023 05 18 00 00 58.1688020  0  6                     
G02  24252389.092      151328.162        2905.962           0.239  
G03  22338832.601      -22289.432        -510.050           0.255  
G04  23593261.811      -89093.742       -2080.873           0.244  
G05  22524513.373       88287.517        2042.883           0.255  
G06  20629950.237      -16938.700        -489.672           0.255  
G07  23392100.800      -42621.970       -1293.703           0.248  
> 2023 05 18 00 00 58.2688020  0  6                     
G02  24252314.977      151618.735        2906.318           0.239  
G03  22338846.670      -22340.512        -511.492           0.255  
G04  23593315.926      -89305.881       -2119.877           0.244  
G05  22524461.338       88492.135        2116.440           0.255  
G06  20629962.213      -16987.620        -489.184           0.255  
G07  23392134.028      -42752.045       -1304.204           0.248  
> 2023 05 18 00 00 58.3688020  0  6                     
G02  24252241.195      151909.299        2882.884           0.239  
G03  22338859.950      -22391.585        -531.432           0.255  
G04  23593369.783      -89517.491       -2081.273           0.244  
G05  22524409.304       88696.167        2043.173           0.255  
G06  20629974.522      -17036.547        -488.496           0.255  
G07  23392167.177      -42881.944       -1282.767           0.248  
> 2023 05 18 00 00 58.4688020  0  6                     
G02  24252167.335      152199.889        2904.613           0.239  
G03  22338872.541      -22442.661        -511.109           0.255  
G04  23593423.392      -89729.770       -2118.422           0.244  
G05  22524357.347       88900.490        2042.928           0.255  
G06  20629986.996      -17085.480        -489.131           0.255  
G07  23392200.459      -43012.026       -1288.019           0.248  
> 2023 05 18 00 00 58.6688020  0  6                     
G02  24252019.283      152781.077        2907.084           0.239  
G03  22338898.266      -22544.813        -509.171           0.255  
G04  23593531.633      -90153.830       -2078.986           0.244  
G05  22524252.951       89309.127        2043.204           0.255  
G06  20630011.934      -17183.358        -490.073           0.255  
G07  23392266.904      -43272.146       -1300.328           0.248  
> 2023 05 18 00 00 58.7688020  0  6                     
G02  24251944.897      153071.637        2903.844           0.239  
G03  22338910.315      -22595.893        -509.585           0.255  
G04  23593585.635      -90365.640       -2117.872           0.244  
G05  22524200.907       89513.440        2042.632           0.255  
G06  20630024.708      -17232.308        -490.321           0.255  
G07  23392299.671      -43402.191       -1300.556           0.248  
> 2023 05 18 00 00 58.8688020  0  6                     
G02  24251871.168      153362.250        2907.122           0.239  
G03  22338923.563      -22646.979        -510.695           0.255  
G04  23593639.326      -90577.621       -2120.987           0.244  
G05  22524148.925       89717.757        2043.227           0.255  
G06  20630037.494      -17281.257        -489.766           0.255  
G07  23392332.900      -43532.236       -1300.611           0.248  
> 2023 05 18 00 00 58.9688020  0  6                     
G02  24251797.644      153652.807        2904.414           0.239  
G03  22338937.250      -22697.575        -523.257           0.255  
G04  23593693.188      -90789.471       -2148.232           0.244  
G05  22524096.959       89921.799        2011.882           0.255  
G06  20630049.634      -17330.201        -488.658           0.255  
G07  23392366.119      -43662.440       -1321.479           0.248  
> 2023 05 18 00 00 59.0688020  0  6                     
G02  24251722.929      153943.358        2906.717           0.239  
G03  22338950.825      -22749.320        -609.406           0.255  
G04  23593747.685      -91001.527       -2120.287           0.244  
G05  22524044.857       90126.050        1971.150           0.255  
G06  20630061.777      -17379.145        -487.656           0.255  
G07  23392399.167      -43792.338       -1300.738           0.248  
> 2023 05 18 00 00 59.1688020  0  6                     
G02  24251648.965      154233.978        2906.102           0.239  
G03  22338963.689      -22800.326        -512.912           0.255  
G04  23593801.470      -91213.480       -2119.521           0.244  
G05  22523992.716       90330.680        2043.631           0.255  
G06  20630073.922      -17428.096        -488.378           0.255  
G07  23392432.278      -43922.392       -1300.511           0.248  
> 2023 05 18 00 00 59.2688020  0  6                     
G02  24251574.971      154524.560        2905.954           0.239  
G03  22338976.348      -22851.424        -510.424           0.255  
G04  23593855.367      -91425.317       -2092.853           0.244  
G05  22523940.616       90534.986        2043.422           0.255  
G06  20630086.435      -17477.065        -489.651           0.255  
G07  23392465.450      -44052.449       -1300.562           0.248  
> 2023 05 18 00 00 59.3688020  0  6                     
G02  24251501.020      154815.141        2905.167           0.239  
G03  22338988.822      -22902.529        -509.975           0.255  
G04  23593909.809      -91637.594       -2193.439           0.244  
G05  22523888.633       90739.285        2042.535           0.255  
G06  20630099.407      -17526.036        -490.408           0.255  
G07  23392498.607      -44182.508       -1300.382           0.248  
> 2023 05 18 00 00 59.4688020  0  6                     
G02  24251426.182      155105.736        2906.042           0.239  
G03  22339001.321      -22953.636        -510.111           0.255  
G04  23593963.844      -91848.925       -2038.817           0.244  
G05  22523836.640       90943.584        2042.929           0.255  
G06  20630112.409      -17575.010        -490.290           0.255  
G07  23392531.636      -44312.600       -1295.257           0.248  
> 2023 05 18 00 00 59.5688020  0  6                     
G02  24251352.426      155396.314        2906.626           0.239  
G03  22339015.216      -23004.763        -511.470           0.255  
G04  23594017.831      -92061.329       -2120.128           0.244  
G05  22523784.590       91147.880        2043.213           0.255  
G06  20630124.552      -17623.979        -489.766           0.255  
G07  23392564.721      -44442.636       -1300.554           0.248  
> 2023 05 18 00 00 59.6688020  0  6                     
G02  24251279.161      155686.893        2903.543           0.239  
G03  22339028.798      -23055.899        -511.738           0.255  
G04  23594071.807      -92273.297       -2117.994           0.244  
G05  22523732.362       91352.177        2043.032           0.255  
G06  20630136.870      -17672.949        -489.440           0.255  
G07  23392598.068      -44572.699       -1300.476           0.248  
> 2023 05 18 00 00 59.7688020  0  6                     
G02  24251204.312      155977.453        2868.421           0.239  
G03  22339042.359      -23107.048        -512.582           0.255  
G04  23594126.110      -92485.116       -2059.921           0.244  
G05  22523680.221       91556.465        2042.495           0.255  
G06  20630148.835      -17721.923        -488.835           0.255  
G07  23392631.204      -44702.783       -1297.158           0.248  
> 2023 05 18 00 00 59.8688020  0  6                     
G02  24251130.782      156268.065        2905.485           0.239  
G03  22339054.856      -23158.180        -511.580           0.255  
G04  23594179.606      -92697.237       -2119.365           0.244  
G05  22523628.275       91760.758        2043.226           0.255  
G06  20630161.492      -17770.905        -489.559           0.255  
G07  23392664.459      -44832.849       -1300.809           0.248  
> 2023 05 18 00 00 59.9688020  0  6                     
G02  24251057.014      156558.645        2904.976           0.239  
G03  22339066.439      -23209.312        -509.501           0.255  
G04  23594233.551      -92909.207       -2119.174           0.244  
G05  22523576.421       91965.052        2043.116           0.255  
G06  20630174.083      -17819.896        -490.627           0.255  
G07  23392697.439      -44962.928       -1300.862           0.248  
> 2023 05 18 00 01 00.0688020  0  6                     
G02  24250981.796      156849.222        2905.172           0.239  
G03  22339078.398      -23260.456        -509.912           0.255  
G04  23594288.364      -93121.171       -2118.921           0.244  
G05  22523524.367       92169.334        2042.341           0.255  
G06  20630188.150      -17868.885        -490.066           0.255  
G07  23392730.653      -45093.008       -1301.142           0.248  
> 2023 05 18 00 01 00.1688020  0  6                     
G02  24250908.402      157139.814        2905.831           0.239  
G03  22339093.707      -23311.608        -511.356           0.255  
G04  23594342.214      -93333.151       -2120.248           0.244  
G05  22523472.314       92373.613        2042.833           0.255  
G06  20630199.276      -17917.884        -489.789           0.255  
G07  23392763.907      -45223.161       -1315.127           0.248  
> 2023 05 18 00 01 00.2688020  0  6                     
G02  24250834.781      157430.389        2905.161           0.239  
G03  22339108.183      -23362.760        -512.999           0.255  
G04  23594396.065      -93545.111       -2119.099           0.244  
G05  22523420.006       92577.899        2043.475           0.255  
G06  20630211.072      -17966.878        -489.411           0.255  
G07  23392796.896      -45353.173       -1301.206           0.248  
> 2023 05 18 00 01 00.3688020  0  6                     
G02  24250760.283      157720.997        2907.800           0.239  
G03  22339121.421      -23413.942        -513.896           0.255  
G04  23594450.109      -93757.111       -2121.546           0.244  
G05  22523367.941       92782.172        2042.738           0.255  
G06  20630223.558      -18015.863        -488.516           0.255  
G07  23392830.277      -45483.261       -1301.024           0.248  
> 2023 05 18 00 01 00.4688020  0  6                     
G02  24250686.200      158011.553        2905.070           0.239  
G03  22339133.725      -23465.111        -512.684           0.255  
G04  23594503.988      -93969.065       -2119.167           0.244  
G05  22523316.001       92986.451        2042.522           0.255  
G06  20630236.161      -18064.860        -489.249           0.255  
G07  23392863.130      -45613.352       -1300.733           0.248  
> 2023 05 18 00 01 00.5688020  0  6                     
G02  24250612.701      158302.143        2906.138           0.239  
G03  22339145.146      -23516.268        -510.964           0.255  
G04  23594557.903      -94181.039       -2119.816           0.244  
G05  22523263.881       93190.724        2043.291           0.255  
G06  20630249.102      -18113.872        -490.337           0.255  
G07  23392896.107      -45743.449       -1301.042           0.248  
> 2023 05 18 00 01 00.6688020  0  6                     
G02  24250538.190      158592.733        2905.998           0.239  
G03  22339158.310      -23567.437        -510.515           0.255  
G04  23594611.589      -94393.021       -2119.873           0.244  
G05  22523211.771       93394.997        2042.901           0.255  
G06  20630262.082      -18162.885        -490.354           0.255  
G07  23392929.929      -45873.542       -1300.498           0.248  
> 2023 05 18 00 01 00.7688020  0  6                     
G02  24250463.578      158883.297        2899.240           0.239  
G03  22339171.743      -23618.616        -511.501           0.255  
G04  23594665.739      -94604.997       -2119.863           0.244  
G05  22523160.026       93599.266        2042.202           0.255  
G06  20630273.961      -18211.901        -490.312           0.255  
G07  23392962.864      -46003.598       -1292.178           0.248  
> 2023 05 18 00 01 00.8688020  0  6                     
G02  24250390.099      159173.876        2905.679           0.239  
G03  22339185.097      -23669.800        -512.178           0.255  
G04  23594719.435      -94816.885       -2132.602           0.244  
G05  22523108.221       93803.536        2042.255           0.255  
G06  20630286.131      -18260.918        -489.991           0.255  
G07  23392996.271      -46133.753       -1301.187           0.248  
> 2023 05 18 00 01 00.9688020  0  6                     
G02  24250316.043      159464.466        2905.999           0.239  
G03  22339198.811      -23720.998        -513.462           0.255  
G04  23594773.544      -95028.967       -2120.965           0.244  
G05  22523055.877       94007.800        2043.311           0.255  
G06  20630299.047      -18309.927        -489.352           0.255  
G07  23393029.010      -46263.798       -1287.114           0.248  
> 2023 05 18 00 01 01.0688020  0  6                     
G02  24250242.009      159755.044        2905.752           0.239  
G03  22339212.025      -23772.189        -512.087           0.255  
G04  23594827.601      -95240.892       -2149.667           0.244  
G05  22523003.879       94212.076        2043.490           0.255  
G06  20630310.952      -18358.951        -490.413           0.255  
G07  23393062.208      -46393.966       -1301.022           0.248  
> 2023 05 18 00 01 01.1688020  0  6                     
G02  24250168.161      160045.636        2907.100           0.239  
G03  22339224.174      -23823.376        -510.468           0.255  
G04  23594881.820      -95452.927       -2120.468           0.244  
G05  22522951.747       94416.321        2041.651           0.255  
G06  20630323.441      -18407.978        -491.173           0.255  
G07  23393095.496      -46524.085       -1301.266           0.248  
> 2023 05 18 00 01 01.2688020  0  6                     
G02  24250093.912      160336.204        2905.052           0.239  
G03  22339235.830      -23874.572        -511.169           0.255  
G04  23594935.889      -95664.899       -2119.136           0.244  
G05  22522899.810       94620.590        2043.021           0.255  
G06  20630336.753      -18457.018        -491.651           0.255  
G07  23393128.639      -46654.197       -1300.938           0.248  
> 2023 05 18 00 01 01.3688020  0  6                     
G02  24250020.472      160626.793        2906.719           0.239  
G03  22339249.910      -23925.756        -511.527           0.255  
G04  23594990.147      -95876.893       -2120.436           0.244  
G05  22522847.760       94824.852        2043.316           0.255  
G06  20630349.248      -18506.056        -491.047           0.255  
G07  23393161.707      -46784.320       -1301.168           0.248  
> 2023 05 18 00 01 01.4688020  0  6                     
G02  24249945.461      160917.372        2905.704           0.239  
G03  22339262.716      -23976.973        -512.979           0.255  
G04  23595044.151      -96088.881       -2120.008           0.244  
G05  22522795.479       95029.108        2043.062           0.255  
G06  20630361.897      -18555.078        -490.024           0.255  
G07  23393194.893      -46914.440       -1301.086           0.248  
> 2023 05 18 00 01 01.5688020  0  6                     
G02  24249871.672      161208.334        2949.954           0.239  
G03  22339276.582      -24028.207        -513.614           0.255  
G04  23595098.574      -96300.860       -2119.450           0.244  
G05  22522743.197       95233.656        2106.153           0.255  
G06  20630373.982      -18604.119        -489.712           0.255  
G07  23393227.406      -47044.616       -1313.453           0.248  
> 2023 05 18 00 01 01.6688020  0  6                     
G02  24249798.015      161498.539        2905.466           0.239  
G03  22339289.337      -24079.434        -512.546           0.255  
G04  23595152.465      -96512.854       -2119.676           0.244  
G05  22522691.360       95437.617        2042.643           0.255  
G06  20630386.333      -18653.155        -490.348           0.255  
G07  23393260.756      -47174.695       -1301.339           0.248  
> 2023 05 18 00 01 01.7688020  0  6                     
G02  24249723.935      161789.116        2906.107           0.239  
G03  22339302.931      -24130.642        -510.961           0.255  
G04  23595206.023      -96724.842       -2120.430           0.244  
G05  22522639.181       95641.861        2042.466           0.255  
G06  20630398.641      -18702.206        -490.708           0.255  
G07  23393294.278      -47304.827       -1301.191           0.248  
> 2023 05 18 00 01 01.8688020  0  6                     
G02  24249649.625      162079.686        2905.935           0.239  
G03  22339314.857      -24181.781        -478.950           0.255  
G04  23595259.656      -96936.823       -2118.949           0.244  
G05  22522587.403       95846.114        2042.297           0.255  
G06  20630411.968      -18751.260        -491.456           0.255  
G07  23393327.818      -47434.963       -1301.851           0.248  
> 2023 05 18 00 01 01.9688020  0  6                     
G02  24249575.032      162370.268        2905.831           0.239  
G03  22339328.466      -24233.097        -512.046           0.255  
G04  23595314.285      -97148.823       -2119.947           0.244  
G05  22522535.436       96050.348        2041.610           0.255  
G06  20630424.408      -18800.316        -490.221           0.255  
G07  23393360.931      -47565.100       -1301.250           0.248  
> 2023 05 18 00 01 02.0688020  0  6                     
G02  24249501.741      162660.838        2904.796           0.239  
G03  22339342.526      -24284.349        -513.631           0.255  
G04  23595367.960      -97360.811       -2119.544           0.244  
G05  22522483.295       96254.595        2042.832           0.255  
G06  20630436.384      -18849.366        -490.304           0.255  
G07  23393393.926      -47695.239       -1301.575           0.248  
> 2023 05 18 00 01 02.1688020  0  6                     
G02  24249427.160      162951.414        2904.333           0.239  
G03  22339355.326      -24336.328        -514.843           0.255  
G04  23595422.317      -97572.426       -2045.234           0.244  
G05  22522431.139       96458.655        1982.675           0.255  
G06  20630448.547      -18898.412        -489.051           0.255  
G07  23393426.889      -47825.371       -1298.514           0.248  
> 2023 05 18 00 01 02.2688020  0  6                     
G02  24249353.554      163242.004        2905.985           0.239  
G03  22339367.542      -24387.360        -531.471           0.255  
G04  23595475.944      -97784.371       -2089.500           0.244  
G05  22522379.119       96663.071        2042.195           0.255  
G06  20630461.479      -18947.485        -490.889           0.255  
G07  23393460.168      -47955.524       -1301.593           0.248  
> 2023 05 18 00 01 02.3688020  0  6                     
G02  24249279.790      163532.572        2907.663           0.239  
G03  22339381.052      -24438.074        -510.654           0.255  
G04  23595529.973      -97996.809       -2121.493           0.244  
G05  22522326.784       96867.302        2041.500           0.255  
G06  20630473.289      -18996.560        -491.546           0.255  
G07  23393493.642      -48085.775       -1305.446           0.248  
> 2023 05 18 00 01 02.4688020  0  6                     
G02  24249205.429      163823.141        2905.701           0.239  
G03  22339394.800      -24489.331        -512.447           0.255  
G04  23595585.118      -98208.801       -2119.776           0.244  
G05  22522274.545       97071.533        2042.506           0.255  
G06  20630486.414      -19045.635        -490.503           0.255  
G07  23393526.360      -48215.820       -1300.919           0.248  
> 2023 05 18 00 01 02.5688020  0  6                     
G02  24249131.442      164113.712        2906.701           0.239  
G03  22339408.001      -24540.593        -514.054           0.255  
G04  23595638.518      -98420.797       -2120.108           0.244  
G05  22522222.908       97275.760        2042.566           0.255  
G06  20630498.964      -19094.707        -489.541           0.255  
G07  23393559.281      -48345.975       -1301.597           0.248  
> 2023 05 18 00 01 02.6688020  0  6                     
G02  24249057.774      164404.285        2905.707           0.239  
G03  22339420.930      -24591.998        -575.730           0.255  
G04  23595692.070      -98632.793       -2119.895           0.244  
G05  22522170.920       97479.996        2042.529           0.255  
G06  20630511.319      -19143.775        -489.272           0.255  
G07  23393592.815      -48476.130       -1301.433           0.248  
> 2023 05 18 00 01 02.7688020  0  6                     
G02  24248983.231      164694.864        2905.192           0.239  
G03  22339433.410      -24643.144        -513.376           0.255  
G04  23595746.182      -98844.791       -2119.095           0.244  
G05  22522118.896       97684.222        2042.145           0.255  
G06  20630523.675      -19192.852        -490.161           0.255  
G07  23393625.843      -48606.288       -1301.483           0.248  
> 2023 05 18 00 01 02.8688020  0  6                     
G02  24248909.076      164985.447        2905.953           0.239  
G03  22339444.997      -24694.407        -511.488           0.255  
G04  23595800.218      -99056.800       -2119.912           0.244  
G05  22522066.759       97888.444        2041.772           0.255  
G06  20630536.779      -19241.945        -491.531           0.255  
G07  23393659.277      -48736.452       -1301.641           0.248  
> 2023 05 18 00 01 02.9688020  0  6                     
G02  24248835.311      165276.013        2905.125           0.239  
G03  22339459.245      -24745.664        -511.029           0.255  
G04  23595854.651      -99268.796       -2119.342           0.244  
G05  22522014.854       98092.687        2040.899           0.255  
G06  20630549.053      -19291.038        -491.845           0.255  
G07  23393692.236      -48866.614       -1301.682           0.248  
> 2023 05 18 00 01 03.0688020  0  6                     
G02  24248761.008      165566.598        2905.768           0.239  
G03  22339471.690      -24796.952        -513.131           0.255  
G04  23595908.252      -99480.806       -2119.750           0.244  
G05  22521962.917       98296.589        1980.022           0.255  
G06  20630562.055      -19340.124        -490.586           0.255  
G07  23393725.507      -48996.784       -1302.148           0.248  
> 2023 05 18 00 01 03.1688020  0  6                     
G02  24248687.379      165857.172        2905.067           0.239  
G03  22339485.499      -24848.255        -513.429           0.255  
G04  23595961.913      -99692.566       -2090.984           0.244  
G05  22521910.769       98501.111        2042.363           0.255  
G06  20630574.123      -19389.216        -490.406           0.255  
G07  23393758.535      -49126.955       -1301.690           0.248  
> 2023 05 18 00 01 03.2688020  0  6                     
G02  24248613.502      166147.750        2905.766           0.239  
G03  22339498.667      -24899.557        -513.353           0.255  
G04  23596016.260      -99904.820       -2120.561           0.244  
G05  22521858.610       98705.620        2103.005           0.255  
G06  20630586.170      -19438.305        -490.435           0.255  
G07  23393791.864      -49257.131       -1302.075           0.248  
> 2023 05 18 00 01 03.3688020  0  6                     
G02  24248539.091      166438.321        2904.884           0.239  
G03  22339510.861      -24950.838        -510.788           0.255  
G04  23596070.514     -100116.820       -2119.944           0.244  
G05  22521806.466       98909.543        2041.859           0.255  
G06  20630599.276      -19487.413        -491.890           0.255  
G07  23393824.954      -49387.306       -1302.054           0.248  
> 2023 05 18 00 01 03.4688020  0  6                     
G02  24248464.833      166728.907        2906.470           0.239  
G03  22339523.329      -25001.846        -445.446           0.255  
G04  23596124.554     -100328.827       -2121.194           0.244  
G05  22521754.666       99113.708        2003.517           0.255  
G06  20630612.316      -19536.526        -492.062           0.255  
G07  23393857.832      -49517.488       -1301.958           0.248  
> 2023 05 18 00 01 03.5688020  0  6                     
G02  24248389.846      167019.475        2904.773           0.239  
G03  22339537.569      -25053.431        -513.559           0.255  
G04  23596179.068     -100540.825       -2119.216           0.244  
G05  22521702.552       99317.968        2042.049           0.255  
G06  20630624.561      -19585.639        -491.197           0.255  
G07  23393891.528      -49647.671       -1301.666           0.248  
> 2023 05 18 00 01 03.6688020  0  6                     
G02  24248316.722      167310.057        2905.630           0.239  
G03  22339549.969      -25104.746        -514.905           0.255  
G04  23596232.460     -100752.842       -2119.529           0.244  
G05  22521650.401       99522.168        2042.128           0.255  
G06  20630637.875      -19634.743        -490.668           0.255  
G07  23393924.374      -49777.857       -1301.462           0.248  
> 2023 05 18 00 01 03.7688020  0  6                     
G02  24248243.964      167600.643        2905.843           0.239  
G03  22339563.313      -25156.081        -514.557           0.255  
G04  23596286.292     -100964.861       -2120.060           0.244  
G05  22521598.432       99726.371        2041.104           0.255  
G06  20630649.600      -19683.842        -490.032           0.255  
G07  23393957.887      -49908.045       -1301.809           0.248  
> 2023 05 18 00 01 03.8688020  0  6                     
G02  24248168.202      167891.208        2905.010           0.239  
G03  22339575.861      -25207.387        -512.054           0.255  
G04  23596341.258     -101176.773       -2114.134           0.244  
G05  22521546.374       99930.586        2042.253           0.255  
G06  20630662.121      -19732.964        -491.552           0.255  
G07  23393991.287      -50038.240       -1301.737           0.248  
> 2023 05 18 00 01 03.9688020  0  6                     
G02  24248094.562      168181.794        2905.828           0.239  
G03  22339589.069      -25258.331        -438.077           0.255  
G04  23596394.804     -101388.880       -2120.108           0.244  
G05  22521494.465      100134.781        2042.724           0.255  
G06  20630674.897      -19782.097        -492.271           0.255  
G07  23394024.438      -50168.436       -1301.854           0.248  
> 2023 05 18 00 01 04.0688020  0  6                     
G02  24248019.727      168472.352        2904.095           0.239  
G03  22339600.222      -25310.015        -513.232           0.255  
G04  23596449.691     -101600.883       -2118.722           0.244  
G05  22521442.188      100338.979        2041.783           0.255  
G06  20630687.883      -19831.226        -491.395           0.255  
G07  23394057.724      -50298.807       -1303.716           0.248  
> 2023 05 18 00 01 04.1688020  0  6                     
G02  24247946.354      168762.939        2904.488           0.239  
G03  22339614.009      -25361.365        -513.977           0.255  
G04  23596502.596     -101812.909       -2119.613           0.244  
G05  22521390.074      100543.179        2042.215           0.255  
G06  20630700.180      -19880.344        -490.975           0.255  
G07  23394091.025      -50428.834       -1301.535           0.248  
> 2023 05 18 00 01 04.2688020  0  6                     
G02  24247873.014      169053.519        2905.137           0.239  
G03  22339626.575      -25412.615        -498.047           0.255  
G04  23596556.002     -102024.995       -2131.909           0.244  
G05  22521338.205      100747.370        2041.253           0.255  
G06  20630713.625      -19929.483        -491.519           0.255  
G07  23394123.884      -50559.036       -1301.380           0.248  
> 2023 05 18 00 01 04.3688020  0  6                     
G02  24247797.678      169344.105        2906.177           0.239  
G03  22339641.905      -25464.044        -514.048           0.255  
G04  23596611.439     -102236.954       -2120.880           0.244  
G05  22521286.127      100951.566        2041.840           0.255  
G06  20630724.782      -19978.611        -491.065           0.255  
G07  23394155.731      -50689.248       -1302.107           0.248  
> 2023 05 18 00 01 04.4688020  0  6                     
G02  24247724.305      169634.675        2905.667           0.239  
G03  22339658.746      -25515.382        -513.322           0.255  
G04  23596665.005     -102448.965       -2120.884           0.243  
G05  22521234.113      101155.758        2042.357           0.255  
G06  20630735.167      -20027.755        -491.295           0.255  
G07  23394189.218      -50819.459       -1301.713           0.248  
> 2023 05 18 00 01 04.5688020  0  6                     
G02  24247649.599      169925.248        2905.755           0.239  
G03  22339669.162      -25566.028        -457.152           0.255  
G04  23596719.519     -102660.837       -2107.255           0.244  
G05  22521182.374      101359.949        2042.227           0.255  
G06  20630748.547      -20076.892        -492.175           0.255  
G07  23394223.212      -50949.799       -1311.247           0.248  
> 2023 05 18 00 01 04.6688020  0  6                     
G02  24247576.063      170215.830        2905.561           0.239  
G03  22339683.398      -25617.969        -438.784           0.255  
G04  23596773.091     -102873.000       -2120.380           0.244  
G05  22521130.404      101564.135        2042.290           0.255  
G06  20630760.720      -20126.045        -492.451           0.255  
G07  23394256.315      -51079.891       -1301.923           0.248  
> 2023 05 18 00 01 04.7688020  0  6                     
G02  24247502.671      170506.409        2906.512           0.239  
G03  22339694.661      -25669.431        -512.885           0.255  
G04  23596826.823     -103085.483       -2152.241           0.244  
G05  22521078.069      101768.309        2041.311           0.255  
G06  20630774.240      -20175.197        -492.040           0.255  
G07  23394289.096      -51210.204       -1323.109           0.248  
> 2023 05 18 00 01 04.8688020  0  6                     
G02  24247428.922      170796.986        2905.165           0.239  
G03  22339710.976      -25720.815        -513.984           0.255  
G04  23596880.491     -103297.039       -2118.407           0.244  
G05  22521025.891      101972.735        2106.904           0.255  
G06  20630785.406      -20224.334        -491.504           0.255  
G07  23394322.883      -51340.332       -1302.668           0.248  
> 2023 05 18 00 01 04.9688020  0  6                     
G02  24247354.442      171087.572        2907.150           0.239  
G03  22339721.974      -25772.191        -514.851           0.255  
G04  23596934.857     -103509.077       -2121.191           0.244  
G05  22520973.978      102176.679        2042.445           0.255  
G06  20630798.344      -20273.484        -490.495           0.255  
G07  23394356.082      -51470.556       -1302.458           0.248  
> 2023 05 18 00 01 05.0688020  0  6                     
G02  24247278.722      171378.132        2905.034           0.239  
G03  22339732.877      -25823.558        -512.786           0.255  
G04  23596989.771     -103721.098       -2119.149           0.244  
G05  22520921.869      102380.852        2042.155           0.255  
G06  20630812.864      -20322.647        -491.932           0.255  
G07  23394388.741      -51600.780       -1302.300           0.248  
> 2023 05 18 00 01 05.1688020  0  6                     
G02  24247206.378      171668.704        2905.215           0.239  
G03  22339746.956      -25874.944        -514.907           0.255  
G04  23597042.744     -103933.120       -2119.770           0.244  
G05  22520869.999      102585.028        2041.781           0.255  
G06  20630824.727      -20371.807        -490.873           0.255  
G07  23394422.099      -51731.007       -1302.393           0.248  
> 2023 05 18 00 01 05.2688020  0  6                     
G02  24247130.862      171959.284        2905.394           0.239  
G03  22339755.752      -25926.318        -513.514           0.255  
G04  23597098.222     -104145.159       -2120.658           0.244  
G05  22520817.888      102789.200        2041.416           0.255  
G06  20630838.665      -20420.972        -491.455           0.255  
G07  23394455.440      -51861.239       -1302.502           0.248  
> 2023 05 18 00 01 05.3688020  0  6                     
G02  24247057.204      172249.868        2905.442           0.239  
G03  22339771.212      -25977.711        -515.249           0.255  
G04  23597152.212     -104357.189       -2120.676           0.244  
G05  22520765.908      102993.366        2040.966           0.255  
G06  20630850.776      -20470.142        -490.729           0.255  
G07  23394488.153      -51991.479       -1302.488           0.248  
> 2023 05 18 00 01 05.4688020  0  6                     
G02  24246984.867      172540.448        2905.543           0.239  
G03  22339788.845      -26029.086        -514.998           0.255  
G04  23597204.604     -104569.223       -2120.563           0.244  
G05  22520714.097      103197.540        2041.758           0.255  
G06  20630861.058      -20519.320        -491.409           0.255  
G07  23394522.039      -52121.908       -1313.071           0.248  
> 2023 05 18 00 01 05.5688020  0  6                     
G02  24246911.331      172831.015        2906.544           0.239  
G03  22339799.278      -26080.465        -513.549           0.255  
G04  23597258.886     -104781.173       -2149.981           0.244  
G05  22520662.060      103401.709        2042.451           0.255  
G06  20630873.868      -20568.501        -491.812           0.255  
G07  23394554.717      -52251.958       -1302.212           0.248  
> 2023 05 18 00 01 05.6688020  0  6                     
G02  24246835.942      173121.595        2906.825           0.239  
G03  22339812.178      -26131.856        -513.332           0.255  
G04  23597313.872     -104993.283       -2121.605           0.244  
G05  22520609.588      103605.872        2042.330           0.255  
G06  20630887.171      -20617.692        -492.278           0.255  
G07  23394587.696      -52382.190       -1310.121           0.248  
> 2023 05 18 00 01 05.7688020  0  6                     
G02  24246761.289      173412.160        2905.100           0.239  
G03  22339822.249      -26183.281        -513.691           0.255  
G04  23597367.568     -105205.292       -2119.309           0.244  
G05  22520557.887      103810.036        2041.793           0.255  
G06  20630900.963      -20666.858        -492.164           0.255  
G07  23394621.199      -52512.448       -1302.392           0.248  
> 2023 05 18 00 01 05.8688020  0  6                     
G02  24246687.347      173702.744        2907.520           0.239  
G03  22339837.801      -26234.693        -514.697           0.255  
G04  23597421.241     -105417.341       -2121.408           0.244  
G05  22520505.830      104014.200        2041.839           0.255  
G06  20630912.958      -20716.042        -490.861           0.255  
G07  23394654.371      -52642.701       -1302.881           0.248  
> 2023 05 18 00 01 05.9688020  0  6                     
G02  24246613.096      173993.320        2904.386           0.239  
G03  22339851.712      -26286.092        -514.708           0.255  
G04  23597475.406     -105629.371       -2119.147           0.244  
G05  22520453.514      104218.350        2040.457           0.255  
G06  20630924.245      -20765.244        -491.635           0.255  
G07  23394687.853      -52772.950       -1302.093           0.248  
> 2023 05 18 00 01 06.0688020  0  6                     
G02  24246539.792      174283.892        2905.755           0.239  
G03  22339867.428      -26337.515        -513.734           0.255  
G04  23597529.494     -105841.402       -2120.289           0.244  
G05  22520401.651      104422.512        2041.368           0.255  
G06  20630936.208      -20814.435        -492.137           0.255  
G07  23394720.742      -52903.213       -1302.582           0.248  
> 2023 05 18 00 01 06.1688020  0  7                     
G02  24246465.139      174574.466        2905.368           0.239  
G03  22339878.511      -26388.941        -513.242           0.255  
G04  23597584.170     -106053.438       -2120.635           0.244  
G05  22520349.911      104626.659        2041.463           0.255  
G06  20630948.796      -20863.626        -492.645           0.255  
G07  23394753.839      -53033.466       -1301.602           0.248  
G09  23116810.982      -46338.883       -1425.936           0.252  
> 2023 05 18 00 01 06.2688020  0  7                     
G02  24246390.604      174865.010        2904.825           0.239  
G03  22339888.484      -26440.367        -512.591           0.255  
G04  23597638.141     -106265.485       -2120.759           0.244  
G05  22520297.767      104830.809        2041.868           0.255  
G06  20630964.521      -20912.826        -492.251           0.255  
G07  23394787.528      -53163.728       -1302.364           0.248  
G09  23116845.848      -46481.486       -1426.289           0.251  
> 2023 05 18 00 01 06.3688020  0  7                     
G02  24246317.098      175155.596        2876.115           0.239  
G03  22339903.070      -26491.767        -605.211           0.255  
G04  23597691.539     -106477.324       -2099.448           0.244  
G05  22520245.675      105034.967        2041.679           0.255  
G06  20630976.125      -20962.037        -492.383           0.255  
G07  23394820.485      -53294.071       -1313.929           0.248  
G09  23116882.574      -46624.076       -1425.980           0.252  
> 2023 05 18 00 01 06.4688020  0  7                     
G02  24246243.620      175446.213        2905.417           0.239  
G03  22339917.858      -26543.236        -516.735           0.255  
G04  23597745.329     -106689.568       -2119.952           0.244  
G05  22520193.852      105239.109        2041.596           0.255  
G06  20630987.601      -21011.236        -490.966           0.255  
G07  23394853.881      -53424.267       -1302.699           0.248  
G09  23116919.107      -46766.670       -1425.805           0.252  
> 2023 05 18 00 01 06.5688020  0  7                     
G02  24246169.927      175736.780        2903.631           0.239  
G03  22339930.534      -26594.690        -515.895           0.255  
G04  23597799.040     -106901.605       -2118.506           0.244  
G05  22520141.761      105443.247        2041.259           0.255  
G06  20630999.767      -21060.439        -491.155           0.255  
G07  23394887.027      -53554.550       -1305.164           0.248  
G09  23116955.683      -46909.273       -1426.206           0.252  
> 2023 05 18 00 01 06.6688020  0  7                     
G02  24246095.005      176027.348        2905.876           0.239  
G03  22339942.012      -26646.125        -513.334           0.255  
G04  23597852.911     -107113.656       -2120.804           0.244  
G05  22520089.911      105647.383        2040.690           0.255  
G06  20631013.015      -21109.653        -492.129           0.255  
G07  23394920.546      -53684.813       -1302.695           0.248  
G09  23116991.976      -47051.875       -1426.425           0.252  
> 2023 05 18 00 01 06.7688020  0  7                     
G02  24246021.459      176317.934        2906.667           0.239  
G03  22339957.422      -26697.556        -513.371           0.255  
G04  23597906.843     -107325.695       -2120.733           0.244  
G05  22520037.819      105851.524        2041.444           0.255  
G06  20631025.096      -21158.886        -492.372           0.255  
G07  23394953.566      -53815.092       -1302.719           0.248  
G09  23117028.256      -47194.463       -1426.462           0.252  
> 2023 05 18 00 01 06.8688020  0  7                     
G02  24245948.045      176608.495        2906.059           0.239  
G03  22339970.611      -26749.011        -515.504           0.255  
G04  23597961.164     -107537.741       -2121.185           0.244  
G05  22519985.398      106055.661        2041.844           0.255  
G06  20631037.251      -21208.104        -491.755           0.255  
G07  23394987.004      -53945.379       -1302.892           0.248  
G09  23117064.774      -47337.063       -1426.486           0.252  
> 2023 05 18 00 01 06.9688020  0  7                     
G02  24245873.654      176899.816        3051.825           0.239  
G03  22339984.573      -26801.250        -536.981           0.255  
G04  23598015.195     -107749.772       -2119.722           0.244  
G05  22519933.719      106259.800        2041.990           0.255  
G06  20631049.109      -21257.315        -491.344           0.255  
G07  23395020.147      -54075.663       -1302.873           0.248  
G09  23117101.188      -47479.655       -1425.632           0.251  
> 2023 05 18 00 01 07.0688020  0  7                     
G02  24245799.866      177189.654        2905.647           0.239  
G03  22339996.587      -26851.949        -513.832           0.255  
G04  23598069.680     -107961.839       -2120.335           0.244  
G05  22519881.379      106463.669        1964.978           0.255  
G06  20631062.104      -21306.543        -492.309           0.255  
G07  23395053.002      -54205.947       -1302.658           0.248  
G09  23117137.459      -47622.221       -1442.525           0.251  
> 2023 05 18 00 01 07.1688020  0  7                     
G02  24245724.321      177480.220        2905.672           0.239  
G03  22340008.884      -26903.405        -513.266           0.255  
G04  23598124.273     -108173.882       -2120.385           0.244  
G05  22519829.543      106668.070        2041.952           0.255  
G06  20631075.280      -21355.781        -492.783           0.255  
G07  23395086.260      -54336.243       -1302.596           0.248  
G09  23117174.127      -47764.855       -1426.140           0.251  
> 2023 05 18 00 01 07.2688020  0  7                     
G02  24245651.120      177770.791        2906.311           0.239  
G03  22340023.304      -26954.873        -515.759           0.255  
G04  23598177.866     -108385.930       -2121.005           0.244  
G05  22519777.363      106872.195        2041.314           0.255  
G06  20631087.631      -21405.018        -492.050           0.255  
G07  23395119.506      -54466.537       -1303.114           0.248  
G09  23117210.148      -47907.458       -1426.333           0.252  
> 2023 05 18 00 01 07.3688020  0  7                     
G02  24245577.117      178061.353        2905.832           0.239  
G03  22340036.304      -27006.372        -517.068           0.255  
G04  23598231.606     -108598.023       -2136.645           0.244  
G05  22519725.465      107076.315        2040.052           0.255  
G06  20631100.096      -21454.242        -490.893           0.255  
G07  23395152.924      -54596.833       -1303.015           0.248  
G09  23117246.280      -48050.061       -1426.286           0.252  
> 2023 05 18 00 01 07.4688020  0  7                     
G02  24245502.891      178351.935        2905.781           0.239  
G03  22340052.104      -27057.822        -515.182           0.255  
G04  23598285.990     -108810.027       -2120.721           0.244  
G05  22519673.580      107280.784        2133.315           0.255  
G06  20631110.359      -21503.499        -492.064           0.255  
G07  23395185.864      -54727.130       -1302.776           0.248  
G09  23117282.346      -48192.657       -1426.127           0.252  
> 2023 05 18 00 01 07.5688020  0  7                     
G02  24245429.031      178642.513        2906.946           0.239  
G03  22340064.128      -27109.308        -514.051           0.255  
G04  23598339.841     -109022.083       -2121.223           0.244  
G05  22519621.472      107484.574        2041.780           0.255  
G06  20631124.236      -21552.742        -493.423           0.255  
G07  23395219.103      -54857.431       -1302.980           0.248  
G09  23117319.048      -48335.265       -1426.077           0.252  
> 2023 05 18 00 01 07.6688020  0  7                     
G02  24245354.890      178933.081        2906.602           0.239  
G03  22340078.101      -27160.796        -513.779           0.255  
G04  23598393.692     -109234.136       -2121.062           0.244  
G05  22519569.674      107688.691        2042.096           0.255  
G06  20631136.427      -21601.991        -493.431           0.255  
G07  23395252.368      -54987.730       -1302.590           0.248  
G09  23117355.074      -48477.868       -1426.017           0.252  
> 2023 05 18 00 01 07.7688020  0  7                     
G02  24245281.979      179223.465        2883.123           0.239  
G03  22340087.023      -27212.307        -516.174           0.255  
G04  23598447.445     -109446.186       -2120.261           0.244  
G05  22519517.965      107892.811        2041.890           0.255  
G06  20631151.116      -21651.232        -491.684           0.255  
G07  23395284.596      -55118.174       -1309.332           0.248  
G09  23117391.205      -48620.276       -1418.189           0.251  
> 2023 05 18 00 01 07.8688020  0  7                     
G02  24245207.346      179514.221        2905.764           0.239  
G03  22340097.781      -27263.786        -514.250           0.255  
G04  23598502.045     -109658.246       -2120.689           0.244  
G05  22519465.653      108096.927        2041.197           0.255  
G06  20631165.793      -21700.498        -493.149           0.255  
G07  23395317.785      -55248.347       -1303.304           0.248  
G09  23117427.677      -48763.067       -1425.639           0.251  
> 2023 05 18 00 01 07.9688020  0  7                     
G02  24245132.186      179804.778        2904.649           0.239  
G03  22340111.731      -27315.306        -516.001           0.255  
G04  23598555.733     -109870.158       -2090.549           0.244  
G05  22519413.637      108300.534        1946.305           0.255  
G06  20631177.262      -21749.741        -491.839           0.255  
G07  23395351.319      -55378.717       -1290.330           0.248  
G09  23117464.489      -48905.681       -1425.986           0.251  
> 2023 05 18 00 01 08.0688020  0  7                     
G02  24245058.530      180095.355        2905.597           0.239  
G03  22340124.545      -27366.805        -515.469           0.255  
G04  23598609.550     -110082.218       -2085.496           0.244  
G05  22519361.268      108505.147        2040.761           0.255  
G06  20631190.127      -21799.011        -492.706           0.255  
G07  23395385.505      -55508.973       -1302.542           0.248  
G09  23117500.795      -49048.192       -1426.303           0.251  
> 2023 05 18 00 01 08.1688020  0  7                     
G02  24244985.395      180385.925        2905.105           0.239  
G03  22340143.158      -27418.400        -539.647           0.255  
G04  23598662.570     -110294.416       -2119.881           0.244  
G05  22519309.391      108709.252        2040.112           0.255  
G06  20631199.459      -21848.276        -492.576           0.255  
G07  23395418.204      -55639.293       -1303.245           0.248  
G09  23117536.951      -49190.891       -1425.647           0.251  
> 2023 05 18 00 01 08.2688020  0  7                     
G02  24244911.750      180676.498        2905.211           0.239  
G03  22340149.071      -27469.840        -514.896           0.255  
G04  23598716.785     -110506.479       -2120.608           0.244  
G05  22519257.380      108913.358        2039.703           0.255  
G06  20631214.996      -21897.539        -492.813           0.255  
G07  23395450.960      -55769.611       -1303.205           0.248  
G09  23117574.868      -49333.518       -1426.701           0.252  
> 2023 05 18 00 01 08.3688020  0  7                     
G02  24244837.190      180967.062        2904.055           0.239  
G03  22340161.940      -27521.344        -514.202           0.255  
G04  23598771.622     -110718.531       -2119.444           0.244  
G05  22519205.357      109117.471        2040.083           0.255  
G06  20631228.778      -21946.821        -493.164           0.255  
G07  23395483.523      -55899.936       -1303.065           0.248  
G09  23117609.105      -49476.129       -1426.628           0.252  
> 2023 05 18 00 01 08.4688020  0  7                     
G02  24244762.787      181257.622        2905.274           0.239  
G03  22340180.650      -27572.855        -514.441           0.255  
G04  23598826.104     -110930.589       -2119.865           0.244  
G05  22519153.276      109321.579        2041.415           0.255  
G06  20631237.874      -21996.105        -493.376           0.255  
G07  23395517.492      -56030.265       -1303.381           0.248  
G09  23117646.041      -49618.734       -1426.964           0.251  
> 2023 05 18 00 01 08.5688020  0  7                     
G02  24244689.050      181548.191        2905.469           0.239  
G03  22340193.501      -27625.075        -542.948           0.255  
G04  23598879.926     -111142.653       -2137.661           0.244  
G05  22519101.686      109525.679        2041.321           0.255  
G06  20631250.979      -22045.380        -492.874           0.255  
G07  23395550.555      -56160.589       -1303.105           0.248  
G09  23117682.132      -49761.123       -1401.924           0.252  
> 2023 05 18 00 01 08.6688020  0  7                     
G02  24244614.519      181838.763        2905.068           0.239  
G03  22340210.224      -27675.805        -509.616           0.255  
G04  23598934.247     -111354.734       -2120.984           0.244  
G05  22519049.829      109729.771        2041.958           0.255  
G06  20631261.728      -22094.651        -493.113           0.255  
G07  23395584.501      -56290.857       -1302.396           0.248  
G09  23117718.588      -49903.942       -1426.683           0.252  
> 2023 05 18 00 01 08.7688020  0  7                     
G02  24244540.477      182129.336        2906.214           0.239  
G03  22340221.605      -27727.481        -515.759           0.255  
G04  23598988.328     -111566.795       -2120.788           0.244  
G05  22518997.594      109933.864        2040.777           0.255  
G06  20631274.732      -22143.943        -492.564           0.255  
G07  23395617.079      -56421.258       -1303.238           0.248  
G09  23117755.418      -50046.548       -1426.147           0.252  
> 2023 05 18 00 01 08.8688020  0  7                     
G02  24244464.930      182419.910        2904.939           0.238  
G03  22340230.175      -27779.015        -514.685           0.255  
G04  23599043.392     -111778.869       -2121.253           0.244  
G05  22518945.309      110137.966        2040.692           0.255  
G06  20631290.166      -22193.229        -493.341           0.255  
G07  23395650.373      -56551.605       -1303.447           0.248  
G09  23117792.080      -50189.172       -1426.296           0.252  
> 2023 05 18 00 01 08.9688020  0  7                     
G02  24244393.343      182710.488        2906.831           0.239  
G03  22340244.232      -27830.567        -513.132           0.255  
G04  23599095.142     -111990.938       -2121.113           0.244  
G05  22518893.360      110342.057        2041.404           0.255  
G06  20631302.239      -22242.519        -493.771           0.255  
G07  23395684.323      -56681.940       -1303.061           0.248  
G09  23117827.944      -50331.789       -1426.039           0.252  
> 2023 05 18 00 01 09.0688020  0  7                     
G02  24244319.204      183001.044        2905.480           0.239  
G03  22340257.106      -27882.131        -514.386           0.255  
G04  23599150.067     -112202.996       -2120.518           0.244  
G05  22518841.475      110546.144        2041.835           0.255  
G06  20631314.726      -22291.812        -493.435           0.255  
G07  23395717.031      -56812.286       -1303.020           0.248  
G09  23117864.305      -50474.391       -1425.653           0.251  
> 2023 05 18 00 01 09.1688020  0  7                     
G02  24244243.763      183291.633        2904.784           0.239  
G03  22340270.961      -27933.694        -516.567           0.255  
G04  23599204.554     -112415.077       -2119.855           0.244  
G05  22518789.494      110750.224        2040.767           0.255  
G06  20631326.620      -22341.110        -492.741           0.255  
G07  23395750.522      -56942.637       -1303.457           0.248  
G09  23117900.602      -50617.008       -1426.101           0.251  
> 2023 05 18 00 01 09.2688020  0  7                     
G02  24244169.673      183582.179        2904.231           0.239  
G03  22340286.041      -27985.251        -517.027           0.255  
G04  23599258.360     -112627.138       -2119.571           0.244  
G05  22518737.226      110954.301        2039.446           0.255  
G06  20631337.817      -22390.419        -492.397           0.255  
G07  23395784.054      -57072.987       -1303.563           0.248  
G09  23117937.557      -50759.628       -1425.988           0.252  
> 2023 05 18 00 01 09.3688020  0  7                     
G02  24244096.122      183872.757        2905.358           0.239  
G03  22340297.389      -28036.820        -515.964           0.255  
G04  23599312.677     -112839.224       -2120.783           0.244  
G05  22518685.058      111158.393        2040.033           0.255  
G06  20631352.124      -22439.721        -492.264           0.255  
G07  23395816.828      -57203.342       -1303.286           0.248  
G09  23117973.060      -50902.240       -1426.514           0.251  
> 2023 05 18 00 01 09.4688020  0  7                     
G02  24244020.974      184163.320        2905.921           0.239  
G03  22340311.227      -28088.388        -515.635           0.255  
G04  23599366.763     -113051.287       -2120.523           0.244  
G05  22518633.316      111362.480        2040.521           0.255  
G06  20631364.258      -22489.033        -493.323           0.255  
G07  23395850.167      -57333.703       -1303.521           0.248  
G09  23118009.478      -51044.855       -1426.084           0.251  
> 2023 05 18 00 01 09.5688020  0  7                     
G02  24243946.988      184453.895        2905.934           0.239  
G03  22340324.645      -28139.971        -516.609           0.255  
G04  23599421.033     -113263.362       -2120.773           0.244  
G05  22518581.529      111566.563        2041.869           0.255  
G06  20631376.302      -22538.342        -492.246           0.255  
G07  23395883.225      -57464.061       -1303.855           0.248  
G09  23118047.061      -51187.466       -1425.888           0.251  
> 2023 05 18 00 01 09.6688020  0  7                     
G02  24243872.709      184744.463        2905.532           0.239  
G03  22340338.102      -28191.552        -515.805           0.255  
G04  23599475.380     -113475.434       -2120.686           0.244  
G05  22518529.095      111770.639        2041.467           0.255  
G06  20631389.476      -22587.657        -492.677           0.255  
G07  23395916.255      -57594.423       -1303.616           0.248  
G09  23118082.376      -51330.079       -1425.414           0.251  
> 2023 05 18 00 01 09.7688020  0  7                     
G02  24243799.249      185035.031        2904.559           0.239  
G03  22340352.305      -28243.138        -516.339           0.255  
G04  23599529.524     -113687.512       -2120.261           0.244  
G05  22518477.046      111974.710        2041.238           0.255  
G06  20631400.926      -22636.968        -492.187           0.255  
G07  23395949.448      -57724.684       -1309.582           0.248  
G09  23118118.025      -51473.045       -1468.541           0.251  
> 2023 05 18 00 01 09.8688020  0  7                     
G02  24243725.978      185325.613        2904.900           0.240  
G03  22340365.045      -28294.714        -517.274           0.255  
G04  23599582.827     -113899.597       -2120.269           0.244  
G05  22518425.372      112178.778        2040.702           0.255  
G06  20631413.982      -22686.300        -492.030           0.255  
G07  23395982.831      -57855.157       -1303.562           0.248  
G09  23118154.928      -51615.336       -1426.767           0.252  
> 2023 05 18 00 01 09.9688020  0  7                     
G02  24243650.082      185616.183        2907.907           0.239  
G03  22340374.251      -28346.308        -516.285           0.255  
G04  23599637.515     -114111.683       -2123.527           0.243  
G05  22518373.282      112382.858        2041.231           0.255  
G06  20631428.115      -22735.625        -493.346           0.255  
G07  23396015.770      -57985.528       -1303.658           0.248  
G09  23118190.256      -51757.959       -1426.662           0.252  
> 2023 05 18 00 01 10.0688020  0  7                     
G02  24243576.090      185906.752        2906.032           0.239  
G03  22340389.120      -28397.911        -517.517           0.255  
G04  23599692.390     -114323.764       -2122.396           0.244  
G05  22518321.303      112586.935        2041.134           0.255  
G06  20631439.935      -22784.958        -492.898           0.255  
G07  23396049.373      -58115.904       -1303.578           0.248  
G09  23118227.346      -51900.571       -1426.962           0.251  
> 2023 05 18 00 01 10.1688020  0  7                     
G02  24243502.902      186197.316        2905.797           0.239  
G03  22340402.733      -28449.511        -516.682           0.255  
G04  23599745.166     -114535.828       -2121.502           0.244  
G05  22518269.552      112790.994        2040.944           0.255  
G06  20631452.109      -22834.289        -492.836           0.255  
G07  23396082.661      -58246.281       -1303.600           0.248  
G09  23118263.311      -52043.196       -1426.454           0.252  
> 2023 05 18 00 01 10.2688020  0  7                     
G02  24243429.204      186487.890        2905.209           0.239  
G03  22340414.626      -28501.099        -515.376           0.255  
G04  23599798.554     -114747.904       -2120.386           0.244  
G05  22518217.477      112995.059        2041.120           0.255  
G06  20631465.329      -22883.628        -493.868           0.255  
G07  23396116.400      -58376.657       -1304.221           0.248  
G09  23118300.524      -52185.817       -1425.259           0.252  
> 2023 05 18 00 01 10.3688020  0  7                     
G02  24243355.782      186778.452        2905.792           0.239  
G03  22340432.084      -28552.711        -516.549           0.255  
G04  23599852.690     -114959.987       -2120.648           0.244  
G05  22518165.326      113199.105        2040.906           0.255  
G06  20631475.955      -22932.972        -493.293           0.255  
G07  23396149.314      -58507.038       -1303.677           0.248  
G09  23118336.564      -52328.437       -1426.678           0.251  
> 2023 05 18 00 01 10.4688020  0  7                     
G02  24243280.940      187069.020        2905.813           0.239  
G03  22340444.191      -28604.333        -516.172           0.255  
G04  23599907.103     -115172.075       -2120.964           0.244  
G05  22518113.127      113402.729        1989.529           0.255  
G06  20631488.856      -22982.313        -492.781           0.255  
G07  23396183.240      -58637.449       -1298.498           0.248  
G09  23118373.568      -52471.054       -1427.726           0.252  
> 2023 05 18 00 01 10.5688020  0  7                     
G02  24243207.225      187359.599        2904.937           0.239  
G03  22340458.658      -28655.957        -514.613           0.255  
G04  23599961.208     -115384.160       -2120.696           0.244  
G05  22518061.311      113607.217        2040.378           0.255  
G06  20631500.150      -23031.660        -494.532           0.255  
G07  23396215.765      -58767.814       -1303.682           0.248  
G09  23118409.711      -52613.669       -1424.397           0.252  
> 2023 05 18 00 01 10.6688020  0  7                     
G02  24243133.393      187650.171        2905.261           0.239  
G03  22340471.078      -28707.571        -514.997           0.255  
G04  23600015.471     -115596.116       -2134.797           0.244  
G05  22518009.353      113811.270        2039.736           0.255  
G06  20631514.543      -23081.012        -494.151           0.255  
G07  23396248.803      -58898.200       -1303.640           0.248  
G09  23118444.588      -52756.301       -1424.903           0.251  
> 2023 05 18 00 01 10.7688020  0  7                     
G02  24243059.107      187940.744        2904.845           0.239  
G03  22340483.135      -28759.196        -516.984           0.255  
G04  23600069.038     -115808.331       -2121.038           0.244  
G05  22517957.174      114015.319        2038.975           0.255  
G06  20631527.340      -23130.370        -493.854           0.255  
G07  23396281.870      -59028.600       -1303.737           0.248  
G09  23118481.985      -52898.927       -1424.248           0.251  
> 2023 05 18 00 01 10.8688020  0  7                     
G02  24242986.230      188231.292        2905.272           0.239  
G03  22340495.336      -28810.833        -516.273           0.255  
G04  23600122.830     -116020.413       -2120.736           0.244  
G05  22517904.831      114219.376        2039.680           0.255  
G06  20631540.145      -23179.725        -493.927           0.255  
G07  23396314.818      -59158.996       -1304.302           0.248  
G09  23118518.892      -53041.564       -1425.675           0.252  
> 2023 05 18 00 01 10.9688020  0  7                     
G02  24242911.511      188521.497        2818.886           0.239  
G03  22340505.232      -28862.690        -530.002           0.255  
G04  23600177.042     -116231.968       -2077.972           0.244  
G05  22517853.264      114423.678        2098.274           0.255  
G06  20631554.477      -23229.076        -494.727           0.255  
G07  23396347.732      -59289.397       -1304.187           0.248  
G09  23118554.071      -53184.348       -1490.062           0.252  
> 2023 05 18 00 01 11.0688020  0  7                     
G02  24242837.823      188812.418        2904.772           0.239  
G03  22340520.527      -28914.122        -515.814           0.255  
G04  23600230.559     -116444.593       -2119.848           0.244  
G05  22517801.480      114627.479        2040.371           0.255  
G06  20631566.121      -23278.447        -493.803           0.255  
G07  23396381.145      -59419.802       -1304.184           0.248  
G09  23118591.882      -53326.808       -1426.385           0.252  
> 2023 05 18 00 01 11.1688020  0  7                     
G02  24242763.578      189103.001        2905.809           0.239  
G03  22340535.367      -28966.166        -626.628           0.255  
G04  23600285.242     -116656.693       -2120.360           0.244  
G05  22517749.180      114831.530        2040.752           0.255  
G06  20631578.172      -23327.811        -492.988           0.255  
G07  23396414.377      -59550.206       -1304.201           0.248  
G09  23118625.989      -53469.436       -1424.963           0.251  
> 2023 05 18 00 01 11.2688020  0  7                     
G02  24242689.500      189393.577        2906.222           0.239  
G03  22340548.680      -29017.444        -517.723           0.255  
G04  23600338.853     -116868.786       -2120.631           0.244  
G05  22517697.462      115035.569        2040.995           0.255  
G06  20631590.710      -23377.175        -492.788           0.255  
G07  23396447.503      -59680.615       -1304.479           0.248  
G09  23118662.269      -53612.066       -1425.711           0.251  
> 2023 05 18 00 01 11.3688020  0  7                     
G02  24242612.447      189684.137        2905.138           0.239  
G03  22340560.311      -29069.083        -517.705           0.255  
G04  23600394.985     -117080.877       -2121.177           0.244  
G05  22517645.355      115239.605        2040.855           0.255  
G06  20631603.181      -23426.550        -492.611           0.255  
G07  23396481.648      -59811.029       -1304.215           0.248  
G09  23118699.974      -53754.695       -1426.736           0.251  
> 2023 05 18 00 01 11.4688020  0  7                     
G02  24242539.937      189974.706        2904.996           0.239  
G03  22340572.546      -29120.734        -516.084           0.255  
G04  23600450.260     -117292.968       -2120.235           0.244  
G05  22517592.661      115443.646        2040.874           0.255  
G06  20631616.798      -23475.937        -493.791           0.255  
G07  23396515.031      -59941.446       -1304.375           0.248  
G09  23118735.262      -53897.323       -1426.365           0.252  
> 2023 05 18 00 01 11.5688020  0  7                     
G02  24242465.638      190265.293        2907.833           0.239  
G03  22340587.547      -29172.411        -517.354           0.255  
G04  23600502.561     -117505.083       -2123.250           0.243  
G05  22517541.144      115647.675        2040.835           0.255  
G06  20631628.279      -23525.315        -493.674           0.255  
G07  23396548.266      -60071.863       -1303.995           0.248  
G09  23118772.696      -54039.960       -1425.927           0.252  
> 2023 05 18 00 01 11.6688020  0  7                     
G02  24242392.787      190555.850        2906.174           0.239  
G03  22340600.621      -29224.083        -516.516           0.255  
G04  23600555.702     -117717.166       -2120.866           0.244  
G05  22517489.123      115851.711        2040.738           0.255  
G06  20631640.902      -23574.693        -493.850           0.255  
G07  23396581.257      -60202.281       -1304.498           0.248  
G09  23118808.502      -54182.601       -1426.495           0.251  
> 2023 05 18 00 01 11.7688020  0  7                     
G02  24242318.988      190846.412        2905.815           0.239  
G03  22340613.410      -29276.909        -693.830           0.255  
G04  23600609.636     -117929.840       -2191.795           0.244  
G05  22517437.317      116055.938        2071.204           0.255  
G06  20631653.957      -23624.092        -494.217           0.255  
G07  23396614.416      -60332.681       -1297.989           0.248  
G09  23118845.166      -54325.208       -1430.760           0.251  
> 2023 05 18 00 01 11.8688020  0  7                     
G02  24242245.700      191136.676        2926.286           0.239  
G03  22340627.283      -29327.430        -519.341           0.255  
G04  23600663.639     -118140.902       -2103.932           0.244  
G05  22517385.528      116259.768        2040.745           0.255  
G06  20631665.948      -23673.481        -492.670           0.255  
G07  23396647.264      -60463.133       -1304.224           0.248  
G09  23118881.838      -54467.860       -1426.357           0.252  
> 2023 05 18 00 01 11.9688020  0  7                     
G02  24242171.839      191427.572        2907.087           0.239  
G03  22340639.716      -29379.138        -518.800           0.255  
G04  23600717.182     -118353.461       -2122.201           0.244  
G05  22517333.636      116463.797        2040.634           0.255  
G06  20631678.429      -23722.860        -492.568           0.255  
G07  23396681.024      -60593.567       -1303.992           0.248  
G09  23118918.280      -54610.492       -1426.602           0.252  
> 2023 05 18 00 01 12.0688020  0  7                     
G02  24242096.781      191718.140        2906.393           0.239  
G03  22340651.691      -29430.801        -515.348           0.255  
G04  23600771.348     -118565.392       -2086.296           0.244  
G05  22517281.763      116667.822        2040.262           0.255  
G06  20631691.145      -23772.268        -494.292           0.255  
G07  23396714.373      -60723.999       -1304.718           0.248  
G09  23118955.222      -54753.124       -1426.413           0.251  
> 2023 05 18 00 01 12.1688020  0  7                     
G02  24242022.848      192008.706        2907.326           0.239  
G03  22340666.011      -29482.482        -516.948           0.255  
G04  23600826.268     -118778.025       -2121.889           0.244  
G05  22517229.276      116871.848        2040.495           0.255  
G06  20631703.393      -23821.679        -494.009           0.255  
G07  23396747.335      -60854.437       -1304.701           0.248  
G09  23118992.767      -54895.753       -1425.476           0.251  
> 2023 05 18 00 01 12.2688020  0  7                     
G02  24241949.188      192299.264        2905.011           0.239  
G03  22340680.536      -29534.183        -518.662           0.255  
G04  23600880.168     -118989.758       -2119.784           0.244  
G05  22517177.320      117075.870        2040.271           0.255  
G06  20631715.725      -23871.077        -493.945           0.255  
G07  23396780.282      -60984.877       -1304.931           0.248  
G09  23119027.289      -55038.393       -1425.328           0.251  
> 2023 05 18 00 01 12.3688020  0  7                     
G02  24241874.255      192589.845        2905.451           0.239  
G03  22340691.798      -29585.901        -516.041           0.255  
G04  23600934.079     -119201.869       -2121.201           0.244  
G05  22517125.316      117279.889        2040.312           0.255  
G06  20631729.012      -23920.476        -494.631           0.255  
G07  23396813.506      -61115.323       -1304.799           0.248  
G09  23119063.472      -55181.036       -1426.155           0.251  
> 2023 05 18 00 01 12.4688020  0  7                     
G02  24241801.333      192880.412        2905.316           0.239  
G03  22340705.318      -29637.575        -515.155           0.255  
G04  23600987.920     -119413.965       -2120.397           0.244  
G05  22517073.338      117483.905        2040.518           0.255  
G06  20631741.966      -23969.907        -495.465           0.255  
G07  23396846.736      -61245.766       -1304.603           0.248  
G09  23119099.712      -55323.674       -1426.016           0.252  
> 2023 05 18 00 01 12.5688020  0  7                     
G02  24241726.447      193171.071        2895.223           0.239  
G03  22340719.192      -29689.501        -627.156           0.255  
G04  23601041.945     -119626.135       -2116.859           0.244  
G05  22517021.364      117688.225        2040.497           0.255  
G06  20631754.059      -24019.312        -492.971           0.255  
G07  23396880.113      -61376.316       -1291.150           0.248  
G09  23119136.371      -55466.179       -1442.578           0.251  
> 2023 05 18 00 01 12.6688020  0  7                     
G02  24241652.601      193461.554        2906.259           0.239  
G03  22340731.138      -29741.024        -517.562           0.255  
G04  23601096.103     -119837.971       -2123.048           0.244  
G05  22516968.974      117891.932        2039.969           0.255  
G06  20631766.418      -24068.730        -494.304           0.255  
G07  23396913.253      -61506.664       -1305.133           0.248  
G09  23119173.118      -55608.949       -1425.748           0.252  
> 2023 05 18 00 01 12.7688020  0  7                     
G02  24241579.012      193752.123        2907.130           0.239  
G03  22340745.074      -29792.738        -516.144           0.255  
G04  23601149.750     -120050.301       -2122.293           0.244  
G05  22516917.532      118095.944        2040.588           0.255  
G06  20631779.381      -24118.155        -494.725           0.255  
G07  23396946.726      -61637.111       -1304.569           0.248  
G09  23119209.472      -55751.588       -1425.733           0.252  
> 2023 05 18 00 01 12.8688020  0  7                     
G02  24241504.463      194042.664        2905.570           0.239  
G03  22340759.088      -29844.456        -517.960           0.255  
G04  23601203.758     -120262.944       -2146.161           0.244  
G05  22516865.700      118299.986        2001.551           0.255  
G06  20631791.914      -24167.584        -494.306           0.255  
G07  23396979.736      -61767.564       -1304.697           0.248  
G09  23119244.966      -55894.229       -1425.350           0.252  
> 2023 05 18 00 01 12.9688020  0  7                     
G02  24241430.879      194333.216        2904.526           0.239  
G03  22340772.384      -29896.207        -518.618           0.255  
G04  23601257.723     -120474.511       -2119.604           0.244  
G05  22516813.783      118503.957        2040.544           0.255  
G06  20631804.194      -24216.993        -493.385           0.255  
G07  23397013.361      -61898.020       -1304.374           0.248  
G09  23119281.178      -56036.868       -1425.870           0.252  
> 2023 05 18 00 01 13.0688020  0  7                     
G02  24241356.884      194623.793        2906.127           0.239  
G03  22340784.775      -29947.929        -515.338           0.255  
G04  23601312.038     -120686.626       -2121.320           0.244  
G05  22516761.613      118707.958        2040.179           0.255  
G06  20631816.925      -24266.433        -494.631           0.255  
G07  23397046.437      -62028.489       -1304.848           0.248  
G09  23119317.942      -56179.511       -1426.861           0.251  
> 2023 05 18 00 01 13.1688020  0  7                     
G02  24241281.808      194914.364        2906.201           0.239  
G03  22340797.747      -29999.648        -517.035           0.255  
G04  23601366.381     -120898.747       -2121.580           0.244  
G05  22516709.820      118911.958        2040.386           0.255  
G06  20631830.059      -24315.882        -494.744           0.255  
G07  23397079.771      -62158.948       -1304.711           0.248  
G09  23119354.232      -56322.153       -1426.316           0.251  
> 2023 05 18 00 01 13.2688020  0  7                     
G02  24241208.510      195204.926        2905.895           0.239  
G03  22340812.296      -30051.409        -519.494           0.255  
G04  23601419.391     -121110.858       -2121.796           0.244  
G05  22516657.548      119115.954        2040.187           0.255  
G06  20631842.122      -24365.309        -493.392           0.255  
G07  23397112.991      -62289.414       -1304.498           0.248  
G09  23119391.292      -56464.795       -1426.258           0.252  
> 2023 05 18 00 01 13.3688020  0  7                     
G02  24241134.231      195495.741        2921.695           0.239  
G03  22340823.636      -30103.158        -516.687           0.255  
G04  23601474.305     -121322.974       -2121.677           0.244  
G05  22516605.571      119319.950        2039.860           0.255  
G06  20631854.788      -24414.749        -494.689           0.255  
G07  23397145.621      -62419.601       -1286.535           0.248  
G09  23119427.085      -56607.337       -1411.643           0.251  
> 2023 05 18 00 01 13.4688020  0  7                     
G02  24241056.083      195786.052        2905.328           0.239  
G03  22340840.095      -30154.873        -514.780           0.255  
G04  23601530.883     -121535.083       -2120.610           0.244  
G05  22516553.635      119523.946        2040.131           0.255  
G06  20631866.309      -24464.214        -496.228           0.255  
G07  23397179.071      -62550.361       -1312.380           0.248  
G09  23119463.624      -56750.093       -1427.143           0.251  
> 2023 05 18 00 01 13.5688020  0  7                     
G02  24240985.207      196076.627        2906.934           0.239  
G03  22340852.380      -30206.664        -517.342           0.255  
G04  23601583.645     -121747.208       -2121.865           0.244  
G05  22516501.413      119727.939        2040.135           0.255  
G06  20631879.290      -24513.650        -494.728           0.255  
G07  23397212.439      -62680.843       -1304.802           0.248  
G09  23119500.533      -56892.617       -1419.717           0.251  
> 2023 05 18 00 01 13.6688020  0  7                     
G02  24240915.215      196367.190        2905.786           0.239  
G03  22340867.630      -30258.422        -482.088           0.255  
G04  23601635.188     -121959.328       -2121.390           0.244  
G05  22516449.739      119931.932        2040.470           0.255  
G06  20631890.541      -24563.099        -493.850           0.255  
G07  23397245.516      -62811.276       -1293.440           0.248  
G09  23119536.349      -57035.385       -1427.399           0.252  
> 2023 05 18 00 01 13.7688020  0  7                     
G02  24240836.160      196657.753        2905.667           0.239  
G03  22340877.646      -30310.180        -517.167           0.255  
G04  23601691.746     -122171.446       -2121.516           0.244  
G05  22516397.451      120135.913        2040.046           0.255  
G06  20631904.813      -24612.555        -494.196           0.255  
G07  23397279.159      -62941.668       -1290.583           0.248  
G09  23119573.711      -57178.030       -1427.219           0.252  
> 2023 05 18 00 01 13.8688020  0  7                     
G02  24240763.617      196948.317        2906.318           0.239  
G03  22340890.426      -30361.940        -517.045           0.255  
G04  23601744.948     -122383.565       -2120.880           0.244  
G05  22516345.778      120339.896        2039.684           0.255  
G06  20631918.008      -24662.025        -495.034           0.255  
G07  23397312.477      -63072.294       -1305.166           0.248  
G09  23119608.806      -57320.661       -1425.861           0.251  
> 2023 05 18 00 01 13.9688020  0  7                     
G02  24240688.804      197238.884        2907.648           0.239  
G03  22340905.851      -30413.717        -517.162           0.255  
G04  23601799.756     -122595.689       -2121.439           0.244  
G05  22516293.614      120543.883        2039.968           0.255  
G06  20631929.855      -24711.484        -494.964           0.255  
G07  23397345.338      -63202.777       -1304.834           0.248  
G09  23119644.447      -57463.313       -1426.911           0.251  
> 2023 05 18 00 01 14.0688020  0  7                     
G02  24240615.736      197529.462        2909.304           0.239  
G03  22340917.821      -30465.500        -518.308           0.255  
G04  23601852.709     -122807.826       -2123.534           0.244  
G05  22516241.815      120747.862        2039.894           0.255  
G06  20631943.119      -24760.943        -494.126           0.255  
G07  23397378.862      -63333.275       -1305.128           0.248  
G09  23119680.957      -57605.952       -1425.648           0.251  
> 2023 05 18 00 01 14.1688020  0  7                     
G02  24240544.009      197820.002        2906.628           0.239  
G03  22340930.585      -30517.291        -519.166           0.255  
G04  23601905.802     -123020.077       -2150.892           0.244  
G05  22516189.346      120951.834        2039.734           0.255  
G06  20631955.519      -24810.406        -493.549           0.255  
G07  23397411.550      -63463.768       -1304.988           0.248  
G09  23119718.477      -57748.626       -1428.163           0.252  
> 2023 05 18 00 01 14.2688020  0  7                     
G02  24240468.199      198110.569        2905.650           0.239  
G03  22340944.434      -30569.070        -518.691           0.255  
G04  23601960.748     -123232.061       -2121.573           0.244  
G05  22516137.806      121155.812        2039.834           0.255  
G06  20631967.588      -24859.886        -493.754           0.255  
G07  23397444.657      -63594.271       -1305.026           0.248  
G09  23119754.183      -57891.273       -1427.206           0.252  
> 2023 05 18 00 01 14.3688020  0  7                     
G02  24240394.311      198401.136        2905.437           0.239  
G03  22340956.390      -30620.870        -520.430           0.255  
G04  23602014.578     -123444.187       -2121.400           0.244  
G05  22516085.681      121359.785        2040.132           0.255  
G06  20631980.571      -24909.359        -493.669           0.255  
G07  23397478.749      -63724.765       -1304.843           0.248  
G09  23119791.294      -58033.930       -1426.158           0.252  
> 2023 05 18 00 01 14.4688020  0  7                     
G02  24240319.149      198691.693        2906.581           0.239  
G03  22340970.259      -30672.710        -508.280           0.255  
G04  23602070.179     -123656.317       -2121.230           0.244  
G05  22516033.610      121563.755        2039.817           0.255  
G06  20631993.247      -24958.840        -494.469           0.255  
G07  23397512.062      -63855.269       -1305.043           0.248  
G09  23119826.792      -58176.565       -1425.335           0.252  
> 2023 05 18 00 01 14.5688020  0  7                     
G02  24240245.979      198982.244        2905.693           0.239  
G03  22340983.257      -30724.451        -517.180           0.255  
G04  23602123.298     -123868.430       -2120.449           0.244  
G05  22515981.560      121767.721        2039.960           0.255  
G06  20632006.237      -25008.323        -494.854           0.255  
G07  23397544.572      -63985.775       -1304.830           0.248  
G09  23119863.216      -58319.229       -1426.007           0.252  
> 2023 05 18 00 01 14.6688020  0  7                     
G02  24240172.016      199272.816        2906.888           0.239  
G03  22340994.433      -30776.261        -520.515           0.255  
G04  23602177.248     -124080.568       -2121.987           0.244  
G05  22515929.680      121971.686        2039.797           0.255  
G06  20632019.616      -25057.815        -493.834           0.255  
G07  23397578.791      -64116.287       -1304.921           0.248  
G09  23119899.586      -58461.878       -1425.728           0.252  
> 2023 05 18 00 01 14.7688020  0  7                     
G02  24240097.385      199563.361        2905.211           0.239  
G03  22341010.215      -30828.065        -518.691           0.255  
G04  23602231.459     -124292.685       -2120.603           0.244  
G05  22515877.991      122175.658        2040.283           0.255  
G06  20632030.646      -25107.302        -494.554           0.255  
G07  23397612.072      -64246.799       -1305.267           0.248  
G09  23119936.190      -58604.537       -1427.515           0.251  
> 2023 05 18 00 01 14.8688020  0  7                     
G02  24240023.640      199853.936        2905.890           0.239  
G03  22341022.939      -30879.896        -519.726           0.255  
G04  23602284.699     -124504.835       -2121.582           0.244  
G05  22515826.017      122379.619        2040.028           0.255  
G06  20632043.622      -25156.787        -493.682           0.255  
G07  23397645.184      -64377.315       -1305.249           0.248  
G09  23119972.727      -58747.197       -1428.330           0.251  
> 2023 05 18 00 01 14.9688020  0  7                     
G02  24239951.152      200144.502        2906.467           0.239  
G03  22341035.020      -30931.712        -517.565           0.255  
G04  23602338.196     -124716.976       -2122.424           0.244  
G05  22515773.945      122583.583        2040.167           0.255  
G06  20632056.352      -25206.292        -495.154           0.255  
G07  23397678.341      -64507.845       -1311.744           0.248  
G09  23120008.806      -58889.839       -1426.863           0.252  
> 2023 05 18 00 01 15.0688020  0  7                     
G02  24239877.642      200435.061        2904.101           0.239  
G03  22341049.454      -30983.385        -469.835           0.255  
G04  23602392.290     -124929.092       -2120.482           0.244  
G05  22515721.765      122788.077        2167.644           0.255  
G06  20632069.164      -25255.801        -495.834           0.255  
G07  23397711.585      -64638.352       -1305.114           0.248  
G09  23120044.655      -59032.606       -1466.849           0.252  
> 2023 05 18 00 01 15.1688020  0  7                     
G02  24239803.511      200725.623        2905.485           0.239  
G03  22341062.397      -31035.354        -518.059           0.255  
G04  23602446.086     -125141.223       -2117.604           0.244  
G05  22515669.746      122991.504        2039.362           0.255  
G06  20632082.174      -25305.299        -494.928           0.255  
G07  23397745.101      -64768.874       -1305.208           0.248  
G09  23120080.031      -59175.161       -1426.219           0.252  
> 2023 05 18 00 01 15.2688020  0  7                     
G02  24239728.718      201016.187        2902.822           0.239  
G03  22341074.497      -31087.198        -519.582           0.255  
G04  23602500.457     -125353.360       -2120.139           0.245  
G05  22515617.724      123195.455        2039.447           0.255  
G06  20632094.976      -25354.800        -494.208           0.255  
G07  23397778.184      -64899.399       -1305.896           0.248  
G09  23120117.575      -59317.824       -1427.500           0.251  
> 2023 05 18 00 01 15.3688020  0  7                     
G02  24239650.646      201306.761        2906.754           0.239  
G03  22341088.251      -31138.497        -424.564           0.255  
G04  23602557.029     -125565.502       -2121.249           0.244  
G05  22515566.514      123399.409        2038.740           0.255  
G06  20632106.969      -25404.320        -495.616           0.255  
G07  23397811.399      -65029.922       -1304.916           0.248  
G09  23120155.774      -59460.375       -1425.393           0.251  
> 2023 05 18 00 01 15.4688020  0  7                     
G02  24239577.494      201597.330        2905.905           0.239  
G03  22341102.932      -31190.867        -520.302           0.255  
G04  23602611.215     -125777.647       -2121.191           0.244  
G05  22515514.119      123603.353        2038.509           0.255  
G06  20632119.260      -25453.827        -494.079           0.255  
G07  23397844.758      -65160.450       -1304.705           0.248  
G09  23120189.224      -59603.141       -1427.922           0.252  
> 2023 05 18 00 01 15.5688020  0  7                     
G02  24239505.040      201887.897        2905.602           0.239  
G03  22341114.682      -31242.720        -520.025           0.255  
G04  23602664.227     -125989.796       -2121.574           0.244  
G05  22515461.828      123807.297        2037.645           0.255  
G06  20632132.152      -25503.341        -493.840           0.255  
G07  23397878.261      -65290.996       -1305.447           0.248  
G09  23120227.069      -59745.789       -1428.143           0.252  
> 2023 05 18 00 01 15.6688020  0  7                     
G02  24239433.094      202178.456        2906.364           0.239  
G03  22341128.728      -31294.558        -518.355           0.255  
G04  23602716.690     -126201.925       -2121.514           0.244  
G05  22515409.926      124011.254        2038.271           0.255  
G06  20632144.669      -25552.866        -494.936           0.255  
G07  23397910.070      -65421.537       -1305.621           0.248  
G09  23120264.433      -59888.451       -1426.241           0.252  
> 2023 05 18 00 01 15.7688020  0  7                     
G02  24239360.213      202469.027        2906.845           0.239  
G03  22341140.593      -31346.405        -516.036           0.255  
G04  23602770.062     -126414.195       -2155.155           0.244  
G05  22515358.255      124215.196        2038.998           0.255  
G06  20632157.362      -25602.395        -496.481           0.255  
G07  23397944.101      -65552.076       -1305.539           0.248  
G09  23120301.693      -60031.031       -1405.600           0.251  
> 2023 05 18 00 01 15.8688020  0  7                     
G02  24239283.709      202759.373        2877.239           0.239  
G03  22341153.835      -31398.277        -517.517           0.255  
G04  23602825.847     -126626.204       -2121.098           0.244  
G05  22515306.040      124419.145        2040.181           0.255  
G06  20632170.246      -25651.920        -496.130           0.255  
G07  23397978.052      -65682.815       -1320.335           0.248  
G09  23120335.687      -60173.626       -1433.928           0.251  
> 2023 05 18 00 01 15.9688020  0  7                     
G02  24239208.613      203050.160        2906.097           0.239  
G03  22341169.091      -31450.143        -517.957           0.255  
G04  23602880.843     -126838.354       -2121.440           0.244  
G05  22515254.086      124623.070        2040.248           0.255  
G06  20632182.283      -25701.448        -495.503           0.255  
G07  23398010.715      -65813.176       -1305.664           0.248  
G09  23120372.614      -60316.539       -1445.020           0.252  
> 2023 05 18 00 01 16.0688020  0  7                     
G02  24239135.484      203340.716        2905.600           0.240  
G03  22341181.187      -31502.006        -517.886           0.255  
G04  23602933.528     -127050.491       -2120.628           0.244  
G05  22515202.010      124827.013        2040.149           0.255  
G06  20632195.253      -25750.989        -496.124           0.255  
G07  23398043.342      -65943.796       -1314.964           0.248  
G09  23120408.763      -60459.102       -1426.541           0.252  
> 2023 05 18 00 01 16.1688020  0  7                     
G02  24239061.811      203631.273        2905.296           0.239  
G03  22341194.782      -31553.883        -519.829           0.255  
G04  23602987.757     -127262.646       -2120.803           0.244  
G05  22515150.102      125030.950        2040.144           0.255  
G06  20632207.004      -25800.526        -494.864           0.255  
G07  23398078.152      -66074.283       -1306.008           0.248  
G09  23120445.090      -60601.758       -1425.628           0.252  
> 2023 05 18 00 01 16.2688020  0  7                     
G02  24238986.644      203921.831        2904.822           0.239  
G03  22341207.168      -31605.767        -519.365           0.255  
G04  23603042.467     -127474.786       -2120.615           0.244  
G05  22515097.986      125234.878        2039.419           0.255  
G06  20632220.142      -25850.059        -494.614           0.255  
G07  23398111.567      -66204.852       -1312.826           0.248  
G09  23120482.152      -60744.430       -1427.244           0.251  
> 2023 05 18 00 01 16.3688020  0  7                     
G02  24238913.414      204212.396        2906.195           0.239  
G03  22341221.669      -31657.651        -518.825           0.255  
G04  23603095.700     -127686.930       -2120.845           0.244  
G05  22515046.323      125438.807        2039.577           0.255  
G06  20632233.018      -25899.601        -495.548           0.255  
G07  23398143.811      -66335.398       -1306.155           0.248  
G09  23120517.608      -60887.087       -1425.706           0.251  
> 2023 05 18 00 01 16.4688020  0  7                     
G02  24238838.504      204502.953        2905.245           0.239  
G03  22341232.645      -31709.532        -521.015           0.255  
G04  23603150.348     -127899.080       -2120.841           0.244  
G05  22514994.300      125642.732        2039.601           0.255  
G06  20632246.263      -25949.157        -494.613           0.255  
G07  23398177.369      -66465.951       -1305.389           0.248  
G09  23120553.285      -61029.748       -1425.585           0.251  
> 2023 05 18 00 01 16.5688020  0  7                     
G02  24238764.748      204793.521        2903.769           0.239  
G03  22341245.391      -31761.402        -518.448           0.255  
G04  23603204.168     -128111.057       -2081.061           0.244  
G05  22514942.494      125846.337        1977.393           0.255  
G06  20632259.235      -25998.714        -495.890           0.255  
G07  23398210.207      -66596.355       -1298.371           0.248  
G09  23120591.794      -61172.420       -1425.872           0.251  
> 2023 05 18 00 01 16.6688020  0  7                     
G02  24238691.004      205084.094        2904.872           0.239  
G03  22341260.161      -31813.448        -456.339           0.255  
G04  23603258.362     -128323.734       -2115.081           0.244  
G05  22514890.619      126050.869        2117.069           0.255  
G06  20632271.044      -26048.261        -497.139           0.255  
G07  23398244.282      -66727.079       -1305.145           0.248  
G09  23120627.170      -61314.731       -1357.802           0.251  
> 2023 05 18 00 01 16.7688020  0  7                     
G02  24238617.295      205374.670        2905.123           0.238  
G03  22341273.013      -31865.220        -518.373           0.255  
G04  23603312.134     -128535.701       -2201.907           0.244  
G05  22514838.332      126254.516        2039.782           0.255  
G06  20632283.891      -26097.819        -496.449           0.255  
G07  23398277.444      -66857.656       -1305.226           0.248  
G09  23120662.825      -61457.675       -1417.385           0.251  
> 2023 05 18 00 01 16.8688020  0  7                     
G02  24238544.228      205665.246        2907.825           0.239  
G03  22341289.366      -31917.097        -518.716           0.255  
G04  23603365.817     -128747.753       -2106.000           0.244  
G05  22514786.292      126458.426        2038.919           0.255  
G06  20632295.143      -26147.392        -496.040           0.255  
G07  23398310.083      -66988.229       -1305.080           0.248  
G09  23120699.862      -61600.436       -1427.012           0.251  
> 2023 05 18 00 01 16.9688020  0  7                     
G02  24238469.043      205955.805        2906.869           0.239  
G03  22341301.580      -31969.602        -640.440           0.255  
G04  23603420.395     -128959.853       -2121.955           0.244  
G05  22514734.494      126662.341        2038.184           0.255  
G06  20632308.490      -26196.946        -494.627           0.255  
G07  23398343.816      -67118.804       -1306.444           0.248  
G09  23120736.173      -61743.108       -1427.495           0.251  
> 2023 05 18 00 01 17.0688020  0  7                     
G02  24238394.443      206246.352        2906.382           0.239  
G03  22341313.376      -32020.945        -518.361           0.255  
G04  23603475.043     -129172.238       -2154.605           0.244  
G05  22514682.279      126866.250        2037.884           0.255  
G06  20632321.555      -26246.505        -495.907           0.255  
G07  23398376.733      -67249.450       -1294.887           0.248  
G09  23120772.617      -61885.687       -1414.578           0.251  
> 2023 05 18 00 01 17.1688020  0  7                     
G02  24238322.096      206536.912        2904.751           0.239  
G03  22341326.933      -32072.855        -519.181           0.255  
G04  23603528.287     -129384.151       -2120.708           0.244  
G05  22514630.583      127070.167        2038.730           0.255  
G06  20632334.373      -26296.092        -495.966           0.255  
G07  23398409.331      -67379.972       -1304.993           0.248  
G09  23120808.226      -62028.431       -1426.024           0.252  
> 2023 05 18 00 01 17.2688020  0  7                     
G02  24238247.445      206827.490        2905.569           0.239  
G03  22341339.573      -32124.767        -519.056           0.255  
G04  23603583.069     -129596.323       -2122.128           0.244  
G05  22514578.296      127274.087        2040.162           0.255  
G06  20632346.947      -26345.665        -496.403           0.255  
G07  23398442.828      -67510.560       -1306.029           0.248  
G09  23120844.490      -62171.111       -1426.193           0.251  
> 2023 05 18 00 01 17.3688020  0  7                     
G02  24238173.434      207118.053        2906.072           0.239  
G03  22341352.624      -32176.699        -517.648           0.255  
G04  23603637.268     -129808.474       -2121.746           0.244  
G05  22514526.293      127477.997        2039.851           0.255  
G06  20632360.104      -26395.245        -496.559           0.255  
G07  23398476.115      -67641.147       -1304.012           0.248  
G09  23120880.449      -62313.770       -1425.858           0.252  
> 2023 05 18 00 01 17.4688020  0  7                     
G02  24238098.720      207408.693        2884.208           0.239  
G03  22341368.363      -32228.876        -625.210           0.255  
G04  23603691.232     -130020.507       -2104.486           0.244  
G05  22514474.357      127681.902        2039.635           0.255  
G06  20632371.357      -26444.826        -495.529           0.255  
G07  23398509.857      -67771.741       -1305.789           0.248  
G09  23120916.785      -62456.448       -1425.474           0.252  
> 2023 05 18 00 01 17.5688020  0  7                     
G02  24238024.247      207699.171        2905.490           0.240  
G03  22341379.979      -32280.586        -521.250           0.255  
G04  23603745.065     -130232.783       -2121.079           0.244  
G05  22514423.027      127885.807        2039.437           0.255  
G06  20632384.296      -26494.395        -494.468           0.255  
G07  23398543.223      -67902.405       -1314.923           0.248  
G09  23120954.861      -62599.128       -1426.095           0.251  
> 2023 05 18 00 01 17.6688020  0  7                     
G02  24237950.182      207989.740        2905.778           0.239  
G03  22341393.185      -32332.496        -520.012           0.255  
G04  23603799.399     -130445.097       -2132.003           0.244  
G05  22514370.786      128089.699        2039.088           0.255  
G06  20632397.219      -26544.005        -495.785           0.255  
G07  23398575.787      -68032.959       -1298.213           0.248  
G09  23120990.771      -62741.808       -1426.202           0.252  
> 2023 05 18 00 01 17.7688020  0  7                     
G02  24237875.330      208280.281        2904.452           0.239  
G03  22341406.486      -32384.477        -518.252           0.255  
G04  23603854.130     -130657.016       -2107.216           0.244  
G05  22514318.714      128293.848        2108.466           0.255  
G06  20632409.756      -26593.573        -496.173           0.255  
G07  23398609.270      -68163.535       -1305.908           0.248  
G09  23121027.308      -62884.482       -1426.297           0.251  
> 2023 05 18 00 01 17.8688020  0  7                     
G02  24237800.999      208570.836        2904.675           0.239  
G03  22341421.849      -32436.418        -520.417           0.255  
G04  23603907.881     -130869.272       -2121.063           0.244  
G05  22514266.783      128497.505        2039.191           0.255  
G06  20632421.448      -26643.179        -496.028           0.255  
G07  23398644.025      -68294.133       -1305.679           0.248  
G09  23121063.160      -63027.162       -1427.270           0.251  
> 2023 05 18 00 01 17.9688020  0  7                     
G02  24237727.596      208861.393        2905.916           0.239  
G03  22341433.197      -32488.376        -522.562           0.255  
G04  23603961.974     -131081.435       -2120.917           0.244  
G05  22514214.861      128701.396        2038.134           0.255  
G06  20632434.380      -26692.776        -494.632           0.255  
G07  23398676.904      -68424.739       -1305.758           0.248  
G09  23121100.616      -63169.833       -1426.915           0.251  
> 2023 05 18 00 01 18.0688020  0  7                     
G02  24237652.589      209151.953        2905.308           0.239  
G03  22341445.260      -32540.305        -517.926           0.255  
G04  23604016.794     -131293.609       -2121.774           0.244  
G05  22514163.012      128905.283        2037.623           0.255  
G06  20632447.896      -26742.388        -496.708           0.255  
G07  23398710.110      -68555.353       -1306.704           0.248  
G09  23121136.624      -63312.513       -1426.363           0.251  
> 2023 05 18 00 01 18.1688020  0  7                     
G02  24237580.046      209442.784        2967.276           0.239  
G03  22341457.795      -32592.668        -540.308           0.255  
G04  23604069.787     -131505.344       -2081.214           0.244  
G05  22514110.921      129109.184        2038.475           0.255  
G06  20632460.094      -26791.977        -496.165           0.255  
G07  23398743.302      -68685.960       -1306.968           0.248  
G09  23121173.483      -63455.427       -1447.856           0.251  
> 2023 05 18 00 01 18.2688020  0  7                     
G02  24237506.262      209733.229        2911.383           0.239  
G03  22341470.884      -32644.246        -518.470           0.255  
G04  23604124.320     -131717.949       -2123.104           0.244  
G05  22514058.841      129313.078        2039.870           0.255  
G06  20632474.349      -26841.593        -495.938           0.255  
G07  23398775.787      -68816.580       -1306.583           0.248  
G09  23121207.171      -63597.866       -1427.386           0.252  
> 2023 05 18 00 01 18.3688020  0  7                     
G02  24237432.117      210023.627        2904.292           0.239  
G03  22341485.582      -32696.221        -521.315           0.255  
G04  23604177.825     -131930.113       -2121.315           0.244  
G05  22514006.897      129516.970        2039.577           0.255  
G06  20632486.137      -26891.214        -495.167           0.255  
G07  23398809.252      -68947.056       -1299.766           0.248  
G09  23121244.689      -63740.544       -1426.870           0.251  
> 2023 05 18 00 01 18.4688020  0  7                     
G02  24237358.320      210314.199        2905.726           0.239  
G03  22341497.594      -32748.671        -510.513           0.255  
G04  23604231.342     -132142.290       -2122.399           0.244  
G05  22513955.148      129720.852        2039.378           0.255  
G06  20632498.801      -26940.820        -495.762           0.255  
G07  23398842.857      -69077.805       -1306.281           0.248  
G09  23121281.076      -63883.227       -1426.708           0.252  
> 2023 05 18 00 01 18.5688020  0  7                     
G02  24237284.334      210604.754        2905.783           0.239  
G03  22341511.372      -32800.152        -517.975           0.255  
G04  23604285.558     -132354.452       -2121.676           0.244  
G05  22513903.086      129924.728        2039.533           0.255  
G06  20632511.642      -26990.460        -497.302           0.255  
G07  23398876.155      -69208.429       -1306.261           0.248  
G09  23121317.495      -64025.911       -1426.953           0.252  
> 2023 05 18 00 01 18.6688020  0  7                     
G02  24237210.249      210895.303        2904.802           0.239  
G03  22341525.358      -32852.153        -522.069           0.255  
G04  23604339.560     -132566.620       -2121.244           0.244  
G05  22513850.899      130128.607        2039.097           0.255  
G06  20632523.983      -27040.080        -496.028           0.255  
G07  23398909.693      -69339.057       -1306.549           0.248  
G09  23121353.103      -64168.581       -1425.795           0.251  
> 2023 05 18 00 01 18.7688020  0  7                     
G02  24237136.424      211185.859        2906.360           0.239  
G03  22341538.027      -32904.149        -518.443           0.255  
G04  23604393.279     -132778.800       -2121.894           0.244  
G05  22513799.347      130332.486        2038.656           0.255  
G06  20632536.770      -27089.697        -496.668           0.255  
G07  23398942.919      -69469.689       -1306.301           0.248  
G09  23121389.741      -64311.274       -1427.083           0.251  
> 2023 05 18 00 01 18.8688020  0  7                     
G02  24237061.863      211476.418        2906.293           0.239  
G03  22341551.501      -32956.111        -519.701           0.255  
G04  23604448.253     -132990.978       -2121.440           0.244  
G05  22513746.969      130536.358        2037.690           0.255  
G06  20632549.487      -27139.349        -497.272           0.255  
G07  23398975.912      -69600.320       -1306.534           0.248  
G09  23121426.662      -64453.953       -1425.934           0.252  
> 2023 05 18 00 01 18.9688020  0  7                     
G02  24236986.493      211767.332        2981.900           0.239  
G03  22341565.542      -33008.157        -521.976           0.255  
G04  23604502.708     -133203.152       -2121.331           0.244  
G05  22513695.374      130740.366        2003.047           0.255  
G06  20632561.264      -27188.947        -494.779           0.255  
G07  23399008.748      -69730.977       -1308.782           0.248  
G09  23121463.385      -64596.799       -1433.703           0.252  
> 2023 05 18 00 01 19.0688020  0  7                     
G02  24236914.422      212057.003        2787.019           0.239  
G03  22341578.408      -33059.629        -374.126           0.255  
G04  23604555.690     -133414.862       -2089.581           0.244  
G05  22513643.664      130943.928        1994.988           0.255  
G06  20632574.849      -27238.593        -497.044           0.255  
G07  23399041.855      -69861.652       -1311.884           0.248  
G09  23121499.259      -64739.527       -1426.288           0.251  
> 2023 05 18 00 01 19.1688020  0  7                     
G02  24236839.210      212348.081        2905.744           0.239  
G03  22341590.697      -33112.132        -521.125           0.255  
G04  23604609.921     -133627.500       -2121.119           0.244  
G05  22513591.583      131147.983        2039.231           0.255  
G06  20632587.689      -27288.246        -496.247           0.255  
G07  23399075.416      -69992.293       -1315.633           0.248  
G09  23121535.737      -64882.004       -1425.876           0.252  
> 2023 05 18 00 01 19.2688020  0  7                     
G02  24236766.064      212638.640        2904.471           0.239  
G03  22341603.377      -33164.173        -521.139           0.255  
G04  23604663.942     -133839.676       -2120.292           0.244  
G05  22513539.613      131351.853        2039.106           0.255  
G06  20632599.894      -27337.873        -496.011           0.255  
G07  23399108.656      -70122.887       -1306.799           0.248  
G09  23121572.420      -65024.690       -1425.644           0.251  
> 2023 05 18 00 01 19.3688020  0  7                     
G02  24236692.208      212929.212        2906.662           0.239  
G03  22341617.242      -33216.168        -517.748           0.255  
G04  23604718.137     -134051.875       -2122.943           0.244  
G05  22513487.504      131555.707        2039.029           0.255  
G06  20632612.969      -27387.528        -497.304           0.255  
G07  23399142.067      -70253.530       -1306.643           0.248  
G09  23121608.571      -65167.393       -1426.990           0.251  
> 2023 05 18 00 01 19.4688020  0  7                     
G02  24236617.411      213219.764        2906.688           0.239  
G03  22341631.048      -33268.195        -521.112           0.255  
G04  23604772.385     -134264.044       -2122.047           0.244  
G05  22513435.504      131759.575        2039.402           0.255  
G06  20632625.272      -27437.183        -495.862           0.255  
G07  23399176.137      -70384.200       -1305.687           0.248  
G09  23121644.687      -65310.073       -1426.942           0.252  
> 2023 05 18 00 01 19.5688020  0  7                     
G02  24236543.511      213510.301        2904.403           0.239  
G03  22341643.929      -33320.227        -519.429           0.255  
G04  23604826.698     -134476.223       -2120.968           0.244  
G05  22513383.495      131963.437        2038.335           0.255  
G06  20632637.711      -27486.828        -496.643           0.255  
G07  23399209.341      -70514.840       -1307.293           0.248  
G09  23121681.369      -65452.755       -1426.655           0.252  
> 2023 05 18 00 01 19.6688020  0  7                     
G02  24236470.187      213800.880        2906.320           0.239  
G03  22341658.001      -33372.250        -519.314           0.255  
G04  23604880.125     -134688.414       -2121.954           0.244  
G05  22513331.711      132167.286        2037.297           0.255  
G06  20632650.367      -27536.496        -496.682           0.255  
G07  23399242.957      -70645.496       -1306.960           0.248  
G09  23121717.428      -65595.456       -1427.714           0.251  
> 2023 05 18 00 01 19.7688020  0  7                     
G02  24236395.083      214091.430        2906.928           0.239  
G03  22341670.960      -33424.304        -522.988           0.255  
G04  23604934.670     -134900.592       -2122.511           0.244  
G05  22513279.854      132371.148        2038.135           0.255  
G06  20632662.715      -27586.145        -495.044           0.255  
G07  23399275.744      -70776.149       -1306.750           0.248  
G09  23121754.427      -65738.132       -1426.714           0.251  
> 2023 05 18 00 01 19.8688020  0  7                     
G02  24236322.072      214382.183        2928.065           0.239  
G03  22341683.631      -33475.972        -392.075           0.255  
G04  23604987.778     -135112.773       -2121.466           0.244  
G05  22513228.027      132575.006        2038.989           0.255  
G06  20632675.410      -27635.815        -497.328           0.255  
G07  23399308.517      -70906.814       -1306.121           0.248  
G09  23121791.169      -65881.114       -1457.914           0.251  
> 2023 05 18 00 01 19.9688020  0  7                     
G02  24236247.794      214672.542        2905.697           0.239  
G03  22341697.611      -33528.361        -521.944           0.255  
G04  23605042.624     -135324.965       -2122.352           0.244  
G05  22513175.947      132778.862        2038.755           0.255  
G06  20632688.278      -27685.493        -496.497           0.255  
G07  23399342.143      -71037.471       -1306.100           0.248  
G09  23121826.650      -66023.508       -1426.417           0.251  
> 2023 05 18 00 01 20.0688020  0  7                     
G02  24236172.960      214963.101        2905.537           0.239  
G03  22341710.274      -33580.455        -523.016           0.255  
G04  23605096.997     -135537.151       -2121.608           0.244  
G05  22513124.009      132982.705        2038.872           0.255  
G06  20632701.029      -27735.134        -494.851           0.255  
G07  23399375.312      -71168.140       -1306.775           0.248  
G09  23121862.724      -66166.201       -1426.436           0.251  
> 2023 05 18 00 01 20.1688020  0  7                     
G02  24236099.195      215253.667        2906.325           0.239  
G03  22341723.580      -33632.457        -518.461           0.255  
G04  23605151.103     -135749.351       -2122.753           0.244  
G05  22513071.867      133186.554        2038.929           0.255  
G06  20632714.054      -27784.841        -498.377           0.255  
G07  23399408.673      -71298.813       -1306.750           0.248  
G09  23121899.189      -66308.896       -1426.323           0.251  
> 2023 05 18 00 01 20.2688020  0  7                     
G02  24236024.478      215544.222        2906.896           0.239  
G03  22341738.045      -33684.530        -523.399           0.255  
G04  23605205.178     -135961.535       -2123.355           0.244  
G05  22513020.224      133390.396        2037.765           0.255  
G06  20632726.146      -27834.511        -495.741           0.255  
G07  23399441.846      -71429.479       -1306.259           0.248  
G09  23121935.015      -66451.591       -1426.750           0.252  
> 2023 05 18 00 01 20.3688020  0  7                     
G02  24235950.778      215834.756        2905.142           0.239  
G03  22341749.263      -33736.604        -519.832           0.255  
G04  23605259.254     -136173.709       -2121.396           0.244  
G05  22512967.965      133594.236        2037.191           0.255  
G06  20632739.828      -27884.181        -496.873           0.255  
G07  23399475.145      -71560.166       -1307.580           0.248  
G09  23121971.848      -66594.286       -1427.215           0.252  
> 2023 05 18 00 01 20.4688020  0  7                     
G02  24235877.319      216125.323        2906.082           0.239  
G03  22341763.060      -33788.639        -519.439           0.255  
G04  23605312.798     -136385.917       -2122.191           0.244  
G05  22512915.893      133798.086        2039.069           0.255  
G06  20632751.952      -27933.885        -497.790           0.255  
G07  23399508.838      -71690.837       -1307.232           0.248  
G09  23122009.495      -66736.981       -1426.862           0.251  
> 2023 05 18 00 01 20.5688020  0  7                     
G02  24235803.081      216415.876        2905.808           0.239  
G03  22341776.382      -33840.041        -362.118           0.255  
G04  23605367.266     -136598.139       -2124.556           0.244  
G05  22512864.129      134001.928        2039.027           0.255  
G06  20632764.150      -27983.554        -496.112           0.255  
G07  23399541.583      -71821.733       -1304.015           0.248  
G09  23122045.584      -66879.673       -1427.110           0.251  
> 2023 05 18 00 01 20.6688020  0  7                     
G02  24235728.984      216706.435        2905.775           0.239  
G03  22341789.741      -33892.802        -519.426           0.255  
G04  23605420.844     -136810.300       -2121.965           0.244  
G05  22512812.561      134205.758        2038.245           0.255  
G06  20632777.222      -28033.250        -497.301           0.255  
G07  23399574.516      -71952.197       -1305.735           0.248  
G09  23122081.265      -67022.371       -1427.854           0.251  
> 2023 05 18 00 01 20.7688020  0  7                     
G02  24235655.242      216996.991        2904.922           0.239  
G03  22341803.905      -33944.877        -522.052           0.255  
G04  23605474.912     -137022.382       -2106.295           0.244  
G05  22512760.453      134409.584        2038.492           0.255  
G06  20632789.355      -28082.955        -496.497           0.255  
G07  23399608.388      -72082.888       -1307.163           0.248  
G09  23122117.634      -67165.057       -1427.196           0.251  
> 2023 05 18 00 01 20.8688020  0  7                     
G02  24235580.836      217287.553        2905.342           0.239  
G03  22341816.449      -33997.463        -496.508           0.255  
G04  23605529.239     -137234.688       -2121.840           0.244  
G05  22512708.148      134613.418        2037.947           0.255  
G06  20632802.110      -28132.638        -497.166           0.255  
G07  23399641.836      -72213.581       -1306.950           0.248  
G09  23122154.331      -67307.764       -1427.767           0.252  
> 2023 05 18 00 01 20.9688020  0  7                     
G02  24235506.918      217578.109        2904.239           0.239  
G03  22341829.921      -34049.036        -518.714           0.255  
G04  23605583.403     -137446.877       -2120.789           0.244  
G05  22512656.171      134817.245        2037.213           0.255  
G06  20632815.094      -28182.353        -498.551           0.255  
G07  23399674.811      -72344.291       -1306.890           0.248  
G09  23122190.505      -67450.462       -1427.395           0.251  
> 2023 05 18 00 01 21.0688020  0  7                     
G02  24235433.165      217868.672        2906.120           0.239  
G03  22341843.903      -34101.153        -524.060           0.255  
G04  23605637.102     -137659.089       -2122.475           0.244  
G05  22512604.154      135021.078        2038.568           0.255  
G06  20632828.125      -28232.049        -495.806           0.255  
G07  23399707.813      -72474.968       -1306.840           0.248  
G09  23122225.879      -67593.161       -1427.576           0.251  
> 2023 05 18 00 01 21.1688020  0  7                     
G02  24235359.289      218159.223        2905.349           0.239  
G03  22341856.172      -34153.251        -518.707           0.255  
G04  23605690.788     -137871.282       -2121.578           0.244  
G05  22512552.239      135224.912        2039.080           0.255  
G06  20632840.630      -28281.756        -497.718           0.255  
G07  23399741.576      -72605.668       -1307.209           0.248  
G09  23122262.657      -67735.859       -1428.765           0.251  
> 2023 05 18 00 01 21.2688020  0  7                     
G02  24235285.446      218449.783        2904.480           0.239  
G03  22341870.048      -34205.330        -521.235           0.255  
G04  23605745.214     -138083.483       -2120.960           0.244  
G05  22512500.333      135428.723        2038.399           0.255  
G06  20632852.849      -28331.485        -497.543           0.255  
G07  23399775.133      -72736.370       -1307.076           0.248  
G09  23122299.081      -67878.560       -1427.497           0.251  
> 2023 05 18 00 01 21.3688020  0  7                     
G02  24235212.159      218740.330        2904.906           0.239  
G03  22341883.173      -34257.482        -523.167           0.255  
G04  23605799.064     -138295.684       -2121.211           0.244  
G05  22512448.748      135632.548        2038.637           0.255  
G06  20632865.463      -28381.168        -495.559           0.255  
G07  23399808.485      -72867.076       -1307.279           0.248  
G09  23122335.999      -68021.262       -1427.360           0.252  
> 2023 05 18 00 01 21.4688020  0  7                     
G02  24235137.364      219030.887        2905.309           0.239  
G03  22341896.258      -34309.076        -582.332           0.255  
G04  23605853.665     -138507.980       -2128.246           0.244  
G05  22512396.795      135836.365        2037.583           0.255  
G06  20632878.661      -28430.914        -499.304           0.255  
G07  23399841.769      -72997.781       -1306.724           0.248  
G09  23122372.110      -68163.962       -1427.683           0.252  
> 2023 05 18 00 01 21.5688020  0  7                     
G02  24235063.140      219321.458        2905.806           0.239  
G03  22341909.947      -34362.016        -622.789           0.255  
G04  23605908.174     -138720.093       -2122.145           0.244  
G05  22512344.958      136040.178        2037.470           0.255  
G06  20632891.072      -28480.628        -496.392           0.255  
G07  23399874.888      -73128.674       -1323.232           0.248  
G09  23122407.637      -68306.659       -1427.563           0.252  
> 2023 05 18 00 01 21.6688020  0  7                     
G02  24234989.360      219612.020        2906.867           0.239  
G03  22341923.136      -34413.704        -463.738           0.255  
G04  23605961.737     -138932.303       -2123.139           0.244  
G05  22512292.660      136243.999        2038.738           0.255  
G06  20632903.656      -28530.343        -497.473           0.255  
G07  23399908.437      -73259.212       -1307.212           0.248  
G09  23122444.395      -68449.008       -1410.937           0.252  
> 2023 05 18 00 01 21.7688020  0  7                     
G02  24234915.158      219902.564        2905.597           0.239  
G03  22341936.295      -34465.565        -553.297           0.255  
G04  23606015.619     -139145.081       -2194.831           0.244  
G05  22512240.914      136448.085        2102.275           0.255  
G06  20632916.320      -28580.079        -496.971           0.255  
G07  23399941.824      -73389.929       -1307.483           0.248  
G09  23122481.583      -68592.073       -1429.109           0.251  
> 2023 05 18 00 01 21.8688020  0  7                     
G02  24234840.825      220193.120        2904.072           0.239  
G03  22341949.165      -34518.081        -523.034           0.255  
G04  23606069.618     -139356.694       -2172.688           0.244  
G05  22512189.005      136651.813        2113.211           0.255  
G06  20632929.028      -28629.794        -496.117           0.255  
G07  23399975.328      -73520.730       -1308.107           0.248  
G09  23122518.089      -68734.772       -1427.216           0.252  
> 2023 05 18 00 01 21.9688020  0  7                     
G02  24234766.762      220483.688        2905.661           0.239  
G03  22341962.501      -34570.179        -518.555           0.255  
G04  23606123.740     -139568.922       -2122.561           0.244  
G05  22512136.952      136855.429        2037.682           0.255  
G06  20632941.939      -28679.552        -499.237           0.255  
G07  23400008.449      -73651.374       -1307.221           0.248  
G09  23122554.066      -68877.478       -1427.358           0.252  
> 2023 05 18 00 01 22.0688020  0  7                     
G02  24234692.316      220774.244        2905.839           0.239  
G03  22341976.227      -34622.337        -523.521           0.255  
G04  23606178.111     -139781.124       -2122.687           0.244  
G05  22512085.230      137059.233        2037.169           0.255  
G06  20632954.482      -28729.280        -496.271           0.255  
G07  23400041.444      -73782.099       -1307.249           0.248  
G09  23122590.902      -69020.185       -1426.764           0.252  
> 2023 05 18 00 01 22.1688020  0  7                     
G02  24234618.680      221064.951        2943.873           0.239  
G03  22341989.187      -34674.479        -519.245           0.255  
G04  23606232.066     -139993.340       -2121.240           0.244  
G05  22512033.208      137263.045        2038.685           0.255  
G06  20632967.161      -28779.019        -498.446           0.255  
G07  23400074.740      -73912.843       -1310.324           0.248  
G09  23122627.175      -69162.891       -1426.600           0.252  
> 2023 05 18 00 01 22.2688020  0  7                     
G02  24234544.964      221355.356        2904.356           0.239  
G03  22342002.320      -34726.617        -521.955           0.255  
G04  23606286.436     -140205.545       -2120.436           0.244  
G05  22511981.165      137466.851        2038.728           0.255  
G06  20632979.892      -28828.775        -497.208           0.255  
G07  23400107.930      -74043.528       -1301.014           0.248  
G09  23122663.933      -69305.600       -1427.500           0.251  
> 2023 05 18 00 01 22.3688020  0  7                     
G02  24234470.831      221645.924        2906.176           0.239  
G03  22342015.735      -34778.789        -522.173           0.255  
G04  23606340.123     -140417.660       -2096.239           0.244  
G05  22511929.195      137670.635        2038.045           0.255  
G06  20632992.308      -28878.504        -496.787           0.255  
G07  23400141.519      -74174.289       -1307.483           0.248  
G09  23122699.851      -69448.305       -1427.308           0.251  
> 2023 05 18 00 01 22.4688020  0  7                     
G02  24234396.363      221936.476        2905.199           0.239  
G03  22342029.619      -34830.500        -361.019           0.255  
G04  23606395.300     -140629.988       -2121.403           0.244  
G05  22511876.769      137874.438        2037.697           0.255  
G06  20633005.239      -28928.278        -499.928           0.255  
G07  23400174.391      -74305.028       -1307.254           0.248  
G09  23122736.540      -69591.011       -1427.054           0.251  
> 2023 05 18 00 01 22.5688020  0  7                     
G02  24234322.261      222227.038        2905.473           0.239  
G03  22342042.930      -34883.080        -522.366           0.255  
G04  23606448.016     -140842.220       -2122.917           0.244  
G05  22511825.317      138078.230        2037.218           0.255  
G06  20633017.573      -28978.022        -496.913           0.255  
G07  23400208.209      -74435.763       -1307.708           0.248  
G09  23122772.908      -69733.727       -1427.477           0.252  
> 2023 05 18 00 01 22.6688020  0  7                     
G02  24234247.902      222517.598        2905.229           0.239  
G03  22342055.054      -34935.262        -520.220           0.255  
G04  23606503.605     -141054.326       -2110.962           0.244  
G05  22511773.221      138282.032        2038.942           0.255  
G06  20633030.713      -29027.782        -498.093           0.255  
G07  23400241.197      -74566.458       -1307.109           0.248  
G09  23122809.563      -69876.419       -1426.551           0.251  
> 2023 05 18 00 01 22.7688020  0  7                     
G02  24234175.431      222808.153        2905.694           0.239  
G03  22342069.304      -34987.416        -522.227           0.255  
G04  23606556.717     -141266.658       -2124.122           0.244  
G05  22511721.097      138485.818        2038.346           0.255  
G06  20633042.912      -29077.557        -497.615           0.255  
G07  23400274.599      -74697.251       -1307.520           0.248  
G09  23122845.120      -70019.134       -1425.936           0.251  
> 2023 05 18 00 01 22.8688020  0  7                     
G02  24234099.375      223098.696        2905.439           0.239  
G03  22342082.153      -35039.607        -522.258           0.255  
G04  23606611.150     -141478.855       -2121.342           0.244  
G05  22511669.800      138689.606        2038.189           0.255  
G06  20633055.609      -29127.307        -496.869           0.255  
G07  23400307.728      -74828.006       -1307.549           0.248  
G09  23122881.540      -70161.853       -1427.188           0.252  
> 2023 05 18 00 01 22.9688020  0  7                     
G02  24234025.489      223389.252        2904.969           0.239  
G03  22342095.086      -35091.758        -520.137           0.255  
G04  23606664.273     -141691.078       -2122.022           0.244  
G05  22511618.349      138893.390        2037.402           0.255  
G06  20633068.330      -29177.096        -498.858           0.255  
G07  23400341.374      -74958.746       -1307.422           0.248  
G09  23122918.610      -70304.568       -1427.531           0.252  
> 2023 05 18 00 01 23.0688020  0  7                     
G02  24233951.629      223679.540        2839.021           0.239  
G03  22342109.239      -35144.199        -629.829           0.255  
G04  23606718.309     -141903.234       -2095.439           0.244  
G05  22511566.214      139096.798        1974.871           0.255  
G06  20633081.006      -29226.862        -497.302           0.255  
G07  23400374.628      -75089.512       -1307.871           0.248  
G09  23122953.856      -70447.166       -1432.752           0.252  
> 2023 05 18 00 01 23.1688020  0  7                     
G02  24233877.472      223970.044        2810.971           0.239  
G03  22342122.108      -35196.144        -520.822           0.255  
G04  23606772.285     -142115.512       -2082.478           0.244  
G05  22511514.246      139301.450        2073.172           0.255  
G06  20633094.313      -29276.637        -498.429           0.255  
G07  23400407.901      -75220.261       -1307.496           0.248  
G09  23122989.606      -70589.696       -1414.101           0.251  
> 2023 05 18 00 01 23.2688020  0  7                     
G02  24233803.768      224260.908        2906.302           0.239  
G03  22342136.036      -35248.335        -523.387           0.255  
G04  23606826.506     -142327.727       -2121.264           0.244  
G05  22511462.052      139504.738        2038.109           0.255  
G06  20633106.597      -29326.421        -497.133           0.255  
G07  23400441.411      -75351.029       -1308.463           0.248  
G09  23123026.706      -70732.701       -1427.813           0.252  
> 2023 05 18 00 01 23.3688020  0  7                     
G02  24233730.794      224551.466        2904.713           0.239  
G03  22342148.465      -35301.063        -524.242           0.255  
G04  23606880.641     -142539.961       -2121.795           0.244  
G05  22511410.308      139708.515        2037.797           0.255  
G06  20633119.035      -29376.182        -497.144           0.255  
G07  23400474.753      -75481.788       -1307.630           0.248  
G09  23123063.213      -70875.421       -1427.846           0.252  
> 2023 05 18 00 01 23.4688020  0  7                     
G02  24233656.589      224842.010        2904.760           0.239  
G03  22342162.132      -35352.730        -520.670           0.255  
G04  23606934.732     -142752.189       -2122.675           0.244  
G05  22511357.964      139912.290        2037.055           0.255  
G06  20633132.130      -29425.985        -498.084           0.255  
G07  23400508.156      -75612.556       -1307.997           0.248  
G09  23123099.554      -71018.131       -1426.906           0.251  
> 2023 05 18 00 01 23.5688020  0  7                     
G02  24233582.103      225132.562        2906.252           0.239  
G03  22342174.730      -35404.973        -526.408           0.255  
G04  23606989.003     -142964.405       -2123.042           0.244  
G05  22511306.270      140116.067        2038.172           0.255  
G06  20633144.779      -29475.760        -495.079           0.255  
G07  23400541.362      -75743.323       -1307.739           0.248  
G09  23123136.101      -71160.851       -1426.877           0.251  
> 2023 05 18 00 01 23.6688020  0  7                     
G02  24233507.723      225423.107        2906.263           0.239  
G03  22342188.229      -35457.159        -520.898           0.255  
G04  23607043.420     -143176.630       -2121.870           0.244  
G05  22511254.340      140319.842        2038.463           0.255  
G06  20633157.484      -29525.562        -498.177           0.255  
G07  23400574.424      -75874.094       -1307.810           0.248  
G09  23123172.638      -71303.568       -1426.444           0.252  
> 2023 05 18 00 01 23.7688020  0  7                     
G02  24233433.982      225713.660        2904.553           0.239  
G03  22342202.420      -35509.370        -524.436           0.255  
G04  23607097.122     -143388.848       -2120.464           0.244  
G05  22511202.351      140523.600        2038.139           0.255  
G06  20633169.725      -29575.368        -496.815           0.255  
G07  23400608.055      -76004.871       -1307.414           0.248  
G09  23123208.695      -71446.289       -1426.869           0.251  
> 2023 05 18 00 01 23.8688020  0  7                     
G02  24233359.835      226004.235        2906.353           0.239  
G03  22342215.261      -35561.600        -521.516           0.255  
G04  23607151.667     -143601.100       -2123.159           0.244  
G05  22511150.221      140727.366        2036.788           0.255  
G06  20633182.760      -29625.157        -497.929           0.255  
G07  23400641.470      -76135.652       -1307.772           0.248  
G09  23123245.420      -71589.007       -1427.113           0.252  
> 2023 05 18 00 01 23.9688020  0  7                     
G02  24233286.049      226294.778        2906.136           0.239  
G03  22342228.568      -35613.795        -521.765           0.255  
G04  23607205.593     -143813.323       -2123.005           0.244  
G05  22511098.105      140931.072        2003.411           0.255  
G06  20633195.826      -29674.982        -498.753           0.255  
G07  23400674.746      -76266.431       -1307.599           0.248  
G09  23123281.509      -71731.728       -1427.448           0.252  
> 2023 05 18 00 01 24.0688020  0  7                     
G02  24233211.852      226585.328        2905.263           0.239  
G03  22342241.547      -35666.052        -523.969           0.255  
G04  23607259.822     -144025.551       -2122.292           0.244  
G05  22511046.381      141134.902        2038.416           0.255  
G06  20633208.308      -29724.770        -497.341           0.255  
G07  23400708.128      -76397.217       -1307.694           0.248  
G09  23123317.952      -71874.440       -1427.014           0.251  
> 2023 05 18 00 01 24.1688020  0  7                     
G02  24233136.423      226875.877        2905.064           0.239  
G03  22342255.616      -35718.274        -520.666           0.255  
G04  23607313.991     -144237.780       -2121.522           0.244  
G05  22510994.819      141338.650        2037.068           0.255  
G06  20633220.705      -29774.585        -498.139           0.255  
G07  23400742.194      -76527.930       -1302.383           0.248  
G09  23123353.625      -72017.163       -1427.419           0.252  
> 2023 05 18 00 01 24.2688020  0  7                     
G02  24233064.444      227166.440        2905.732           0.239  
G03  22342269.393      -35770.507        -523.367           0.255  
G04  23607367.290     -144450.022       -2123.107           0.244  
G05  22510942.239      141542.413        2037.430           0.255  
G06  20633232.762      -29824.404        -498.068           0.255  
G07  23400774.794      -76658.797       -1307.952           0.248  
G09  23123391.344      -72159.549       -1395.471           0.252  
> 2023 05 18 00 01 24.3688020  0  7                     
G02  24232989.716      227456.991        2906.672           0.239  
G03  22342282.176      -35822.741        -519.172           0.255  
G04  23607422.070     -144662.252       -2123.808           0.244  
G05  22510890.476      141746.167        2037.213           0.255  
G06  20633245.997      -29874.221        -499.872           0.255  
G07  23400807.980      -76789.589       -1308.065           0.248  
G09  23123427.022      -72302.602       -1427.961           0.252  
> 2023 05 18 00 01 24.4688020  0  7                     
G02  24232915.507      227747.533        2905.109           0.239  
G03  22342295.561      -35874.995        -524.661           0.255  
G04  23607476.303     -144874.477       -2122.161           0.244  
G05  22510838.724      141949.928        2038.108           0.255  
G06  20633258.532      -29924.047        -497.655           0.255  
G07  23400841.296      -76920.388       -1307.690           0.248  
G09  23123463.163      -72445.326       -1427.180           0.251  
> 2023 05 18 00 01 24.5688020  0  7                     
G02  24232841.548      228038.091        2904.464           0.239  
G03  22342308.902      -35927.270        -522.251           0.255  
G04  23607530.008     -145086.402       -2128.346           0.244  
G05  22510786.879      142153.674        2037.976           0.255  
G06  20633271.530      -29973.850        -498.164           0.255  
G07  23400874.656      -77051.188       -1308.258           0.248  
G09  23123499.450      -72588.050       -1426.821           0.252  
> 2023 05 18 00 01 24.6688020  0  7                     
G02  24232767.143      228328.651        2906.275           0.239  
G03  22342321.730      -35980.230        -655.352           0.255  
G04  23607583.898     -145298.958       -2122.730           0.244  
G05  22510735.130      142357.714        2106.237           0.255  
G06  20633284.211      -30023.693        -497.930           0.255  
G07  23400907.851      -77182.061       -1340.250           0.248  
G09  23123536.387      -72731.188       -1436.406           0.252  
> 2023 05 18 00 01 24.7688020  0  7                     
G02  24232692.604      228618.899        2857.187           0.239  
G03  22342335.105      -36031.663        -388.843           0.255  
G04  23607637.978     -145511.203       -2123.582           0.244  
G05  22510683.430      142561.169        2036.781           0.255  
G06  20633297.167      -30073.507        -497.711           0.255  
G07  23400941.356      -77312.786       -1308.067           0.248  
G09  23123572.549      -72873.506       -1391.652           0.251  
> 2023 05 18 00 01 24.8688020  0  7                     
G02  24232619.189      228909.747        2906.260           0.239  
G03  22342348.383      -36084.014        -520.090           0.255  
G04  23607691.577     -145723.430       -2122.175           0.244  
G05  22510631.114      142764.927        2038.185           0.255  
G06  20633309.951      -30123.362        -499.814           0.255  
G07  23400975.632      -77443.594       -1308.127           0.248  
G09  23123609.067      -73016.229       -1426.403           0.251  
> 2023 05 18 00 01 24.9688020  0  7                     
G02  24232545.009      229200.298        2905.497           0.239  
G03  22342362.716      -36136.309        -523.942           0.255  
G04  23607746.344     -145935.665       -2122.062           0.244  
G05  22510579.270      142968.839        2101.170           0.255  
G06  20633321.909      -30173.182        -497.536           0.255  
G07  23401008.228      -77574.400       -1307.514           0.248  
G09  23123644.677      -73158.955       -1426.411           0.251  
> 2023 05 18 00 01 25.0688020  0  7                     
G02  24232471.589      229490.844        2903.935           0.239  
G03  22342376.096      -36188.567        -520.312           0.255  
G04  23607800.630     -146147.909       -2121.282           0.244  
G05  22510527.049      143172.403        2036.941           0.255  
G06  20633334.889      -30223.033        -499.565           0.255  
G07  23401041.401      -77705.247       -1307.886           0.248  
G09  23123680.542      -73301.684       -1428.078           0.252  
> 2023 05 18 00 01 25.1688020  0  7                     
G02  24232396.837      229781.409        2906.145           0.239  
G03  22342388.477      -36240.841        -523.481           0.255  
G04  23607855.013     -146360.156       -2122.911           0.244  
G05  22510475.497      143376.138        2037.346           0.255  
G06  20633347.820      -30272.889        -499.009           0.255  
G07  23401074.405      -77836.032       -1308.095           0.248  
G09  23123718.104      -73444.391       -1426.794           0.252  
> 2023 05 18 00 01 25.2688020  0  7                     
G02  24232322.993      230071.954        2905.092           0.239  
G03  22342401.747      -36293.140        -521.836           0.255  
G04  23607909.337     -146572.400       -2122.397           0.244  
G05  22510423.581      143579.880        2038.052           0.255  
G06  20633360.669      -30322.720        -498.663           0.255  
G07  23401107.749      -77966.846       -1308.175           0.248  
G09  23123754.030      -73587.128       -1428.631           0.251  
> 2023 05 18 00 01 25.3688020  0  7                     
G02  24232248.778      230362.502        2904.106           0.239  
G03  22342414.815      -36344.989        -516.821           0.255  
G04  23607962.864     -146784.634       -2120.796           0.244  
G05  22510371.694      143783.607        2037.583           0.255  
G06  20633373.395      -30372.584        -498.933           0.255  
G07  23401141.312      -78097.680       -1312.807           0.248  
G09  23123791.374      -73729.871       -1427.645           0.252  
> 2023 05 18 00 01 25.4688020  0  7                     
G02  24232174.616      230652.530        2853.148           0.239  
G03  22342428.211      -36397.715        -523.579           0.255  
G04  23608016.577     -146996.891       -2123.073           0.244  
G05  22510320.028      143987.333        2036.164           0.255  
G06  20633385.896      -30422.421        -498.033           0.255  
G07  23401174.935      -78228.499       -1307.941           0.248  
G09  23123826.758      -73872.777       -1465.652           0.252  
> 2023 05 18 00 01 25.5688020  0  7                     
G02  24232101.619      230942.623        2836.979           0.239  
G03  22342442.226      -36450.010        -522.717           0.255  
G04  23608070.343     -147209.135       -2123.253           0.244  
G05  22510267.801      144191.076        2038.293           0.255  
G06  20633398.709      -30472.288        -497.804           0.255  
G07  23401207.594      -78359.328       -1308.239           0.248  
G09  23123862.231      -74015.339       -1428.264           0.251  
> 2023 05 18 00 01 25.6688020  0  7                     
G02  24232028.294      231234.150        2905.971           0.239  
G03  22342455.411      -36502.313        -524.697           0.255  
G04  23608124.132     -147421.384       -2093.900           0.244  
G05  22510215.836      144394.805        2038.123           0.255  
G06  20633410.755      -30522.142        -497.799           0.255  
G07  23401241.102      -78490.155       -1307.807           0.248  
G09  23123900.903      -74158.066       -1426.767           0.251  
> 2023 05 18 00 01 25.7688020  0  7                     
G02  24231954.089      231524.694        2904.444           0.239  
G03  22342468.660      -36554.628        -521.761           0.255  
G04  23608177.773     -147633.639       -2122.423           0.244  
G05  22510164.402      144598.520        2037.774           0.255  
G06  20633423.315      -30572.011        -498.972           0.255  
G07  23401275.050      -78620.995       -1308.116           0.248  
G09  23123937.003      -74300.785       -1425.328           0.251  
> 2023 05 18 00 01 25.8688020  0  7                     
G02  24231879.269      231815.256        2904.639           0.239  
G03  22342481.945      -36606.919        -525.535           0.255  
G04  23608233.130     -147846.025       -2130.199           0.244  
G05  22510111.808      144802.243        2036.638           0.255  
G06  20633436.878      -30621.890        -498.394           0.255  
G07  23401308.027      -78751.808       -1306.745           0.248  
G09  23123971.956      -74443.515       -1426.197           0.252  
> 2023 05 18 00 01 25.9688020  0  7                     
G02  24231804.951      232105.806        2904.198           0.239  
G03  22342494.610      -36659.238        -521.566           0.255  
G04  23608287.428     -148058.140       -2121.219           0.244  
G05  22510059.990      145005.972        2037.957           0.255  
G06  20633449.781      -30671.750        -499.467           0.255  
G07  23401341.183      -78882.677       -1308.476           0.248  
G09  23124008.897      -74586.253       -1427.369           0.252  
> 2023 05 18 00 01 26.0688020  0  7                     
G02  24231730.398      232396.368        2905.699           0.239  
G03  22342508.616      -36711.544        -524.003           0.255  
G04  23608341.814     -148270.397       -2122.005           0.244  
G05  22510008.095      145209.682        2037.609           0.255  
G06  20633462.433      -30721.635        -498.890           0.255  
G07  23401374.456      -79013.520       -1308.537           0.248  
G09  23124045.161      -74728.987       -1427.449           0.251  
> 2023 05 18 00 01 26.1688020  0  7                     
G02  24231656.812      232686.923        2906.988           0.239  
G03  22342521.564      -36763.896        -523.251           0.255  
G04  23608395.959     -148482.654       -2123.008           0.244  
G05  22509956.291      145413.400        2036.505           0.255  
G06  20633474.929      -30771.494        -498.484           0.255  
G07  23401408.202      -79144.363       -1308.250           0.248  
G09  23124081.302      -74871.724       -1427.119           0.252  
> 2023 05 18 00 01 26.2688020  0  7                     
G02  24231582.536      232977.463        2905.101           0.239  
G03  22342534.913      -36815.667        -527.618           0.255  
G04  23608449.972     -148694.629       -2082.790           0.244  
G05  22509904.337      145617.114        2037.365           0.255  
G06  20633487.707      -30821.402        -499.958           0.255  
G07  23401441.408      -79275.212       -1308.489           0.248  
G09  23124117.644      -75014.465       -1427.684           0.252  
> 2023 05 18 00 01 26.3688020  0  7                     
G02  24231509.333      233268.532        2977.382           0.239  
G03  22342548.415      -36869.235        -552.888           0.255  
G04  23608503.488     -148907.158       -2122.122           0.244  
G05  22509852.390      145820.954        2089.138           0.255  
G06  20633500.085      -30871.263        -497.784           0.255  
G07  23401474.639      -79406.117       -1314.392           0.248  
G09  23124154.056      -75157.197       -1427.275           0.252  
> 2023 05 18 00 01 26.4688020  0  7                     
G02  24231434.866      233558.570        2904.190           0.239  
G03  22342561.951      -36920.856        -520.977           0.255  
G04  23608557.684     -149119.419       -2122.394           0.244  
G05  22509800.441      146024.533        2037.129           0.255  
G06  20633512.892      -30921.173        -500.531           0.255  
G07  23401507.917      -79536.922       -1308.887           0.248  
G09  23124190.376      -75299.933       -1426.954           0.251  
> 2023 05 18 00 01 26.5688020  0  7                     
G02  24231360.679      233849.120        2904.266           0.239  
G03  22342575.147      -36973.236        -527.017           0.255  
G04  23608612.086     -149331.673       -2121.942           0.244  
G05  22509748.435      146228.235        2035.998           0.255  
G06  20633525.570      -30971.042        -496.796           0.255  
G07  23401541.129      -79667.776       -1308.567           0.248  
G09  23124226.761      -75442.671       -1426.814           0.252  
> 2023 05 18 00 01 26.6688020  0  7                     
G02  24231286.884      234139.678        2904.385           0.239  
G03  22342588.392      -37025.543        -519.832           0.255  
G04  23608665.981     -149543.939       -2122.516           0.244  
G05  22509696.552      146431.941        2037.773           0.255  
G06  20633538.593      -31020.955        -500.781           0.255  
G07  23401574.500      -79798.702       -1326.307           0.248  
G09  23124263.157      -75585.409       -1427.417           0.251  
> 2023 05 18 00 01 26.7688020  0  7                     
G02  24231212.415      234430.240        2906.410           0.239  
G03  22342601.953      -37077.916        -526.092           0.255  
G04  23608719.971     -149756.198       -2123.276           0.244  
G05  22509644.836      146635.637        2037.182           0.255  
G06  20633551.138      -31070.844        -497.647           0.255  
G07  23401607.894      -79929.505       -1309.106           0.248  
G09  23124299.487      -75728.143       -1426.819           0.251  
> 2023 05 18 00 01 26.8688020  0  7                     
G02  24231138.826      234720.793        2907.756           0.239  
G03  22342615.340      -37130.264        -520.243           0.255  
G04  23608774.279     -149968.455       -2123.810           0.244  
G05  22509592.817      146839.335        2036.334           0.255  
G06  20633563.629      -31120.745        -500.496           0.255  
G07  23401641.178      -80060.371       -1308.698           0.248  
G09  23124336.320      -75870.879       -1427.070           0.252  
> 2023 05 18 00 01 26.9688020  0  7                     
G02  24231064.334      235011.328        2905.351           0.239  
G03  22342628.481      -37182.614        -525.528           0.255  
G04  23608828.518     -150180.713       -2122.663           0.244  
G05  22509540.908      147043.041        2037.628           0.255  
G06  20633576.694      -31170.659        -498.314           0.255  
G07  23401674.840      -80191.235       -1308.656           0.248  
G09  23124372.564      -76013.623       -1427.160           0.252  
> 2023 05 18 00 01 27.0688020  0  7                     
G02  24230990.343      235302.214        2969.348           0.239  
G03  22342641.703      -37234.999        -523.150           0.255  
G04  23608882.360     -150393.343       -2166.946           0.244  
G05  22509489.073      147246.995        2132.978           0.255  
G06  20633589.343      -31220.547        -498.856           0.255  
G07  23401708.016      -80322.107       -1308.886           0.248  
G09  23124408.666      -76156.370       -1427.454           0.252  
> 2023 05 18 00 01 27.1688020  0  7                     
G02  24230916.377      235592.444        2905.519           0.239  
G03  22342655.630      -37287.337        -523.614           0.255  
G04  23608936.909     -150605.296       -2143.806           0.244  
G05  22509436.963      147450.429        2036.399           0.255  
G06  20633602.067      -31270.486        -499.602           0.255  
G07  23401741.542      -80452.974       -1308.341           0.248  
G09  23124445.015      -76299.115       -1427.930           0.252  
> 2023 05 18 00 01 27.2688020  0  7                     
G02  24230842.302      235882.980        2905.549           0.239  
G03  22342668.480      -37339.744        -524.518           0.255  
G04  23608990.904     -150817.508       -2123.260           0.244  
G05  22509385.174      147654.120        2036.429           0.255  
G06  20633614.719      -31320.378        -498.421           0.255  
G07  23401774.886      -80583.855       -1308.688           0.248  
G09  23124481.192      -76441.855       -1427.514           0.252  
> 2023 05 18 00 01 27.3688020  0  7                     
G02  24230768.379      236173.536        2906.218           0.239  
G03  22342681.936      -37391.429        -522.641           0.255  
G04  23609044.510     -151029.773       -2122.992           0.244  
G05  22509333.115      147857.817        2037.277           0.255  
G06  20633627.480      -31370.325        -500.657           0.255  
G07  23401808.117      -80714.666       -1307.358           0.248  
G09  23124517.871      -76584.600       -1427.822           0.252  
> 2023 05 18 00 01 27.4688020  0  7                     
G02  24230694.249      236464.087        2906.377           0.239  
G03  22342695.205      -37444.502        -525.968           0.255  
G04  23609099.202     -151242.038       -2123.424           0.244  
G05  22509281.416      148061.499        2036.780           0.255  
G06  20633640.069      -31420.222        -497.831           0.255  
G07  23401841.481      -80845.616       -1308.734           0.248  
G09  23124554.454      -76727.337       -1427.187           0.252  
> 2023 05 18 00 01 27.5688020  0  7                     
G02  24230620.238      236754.628        2905.895           0.239  
G03  22342708.732      -37496.853        -521.657           0.255  
G04  23609152.729     -151454.302       -2122.606           0.244  
G05  22509229.496      148265.185        2036.302           0.255  
G06  20633652.711      -31470.165        -500.555           0.255  
G07  23401875.293      -80976.503       -1309.280           0.248  
G09  23124590.865      -76870.083       -1427.093           0.251  
> 2023 05 18 00 01 27.6688020  0  7                     
G02  24230546.490      237045.180        2905.882           0.239  
G03  22342721.836      -37549.290        -527.611           0.255  
G04  23609206.951     -151666.568       -2122.258           0.244  
G05  22509177.537      148468.874        2037.627           0.255  
G06  20633665.704      -31520.071        -496.935           0.255  
G07  23401908.324      -81107.390       -1309.053           0.248  
G09  23124627.176      -77012.827       -1427.687           0.252  
> 2023 05 18 00 01 27.7688020  0  7                     
G02  24230472.222      237335.719        2905.597           0.239  
G03  22342734.966      -37601.639        -520.269           0.255  
G04  23609260.961     -151878.911       -2125.272           0.244  
G05  22509125.828      148672.549        2037.188           0.255  
G06  20633678.692      -31570.025        -501.224           0.255  
G07  23401941.649      -81238.394       -1321.912           0.248  
G09  23124663.189      -77155.631       -1411.277           0.252  
> 2023 05 18 00 01 27.8688020  0  7                     
G02  24230398.142      237625.876        2878.583           0.239  
G03  22342748.644      -37654.658        -432.127           0.255  
G04  23609315.289     -152091.310       -2179.240           0.244  
G05  22509073.936      148876.109        2007.199           0.255  
G06  20633691.227      -31619.954        -497.982           0.255  
G07  23401974.952      -81369.094       -1305.088           0.248  
G09  23124700.013      -77298.321       -1427.289           0.252  
> 2023 05 18 00 01 27.9688020  0  7                     
G02  24230324.600      237916.601        2844.397           0.239  
G03  22342762.214      -37706.448        -520.001           0.255  
G04  23609369.157     -152303.237       -2075.890           0.244  
G05  22509022.012      149080.537        2096.896           0.255  
G06  20633703.718      -31669.900        -501.442           0.255  
G07  23402008.257      -81500.155       -1318.824           0.248  
G09  23124735.984      -77441.168       -1446.965           0.252  
> 2023 05 18 00 01 28.0688020  0  7                     
G02  24230250.442      238207.362        2906.126           0.239  
G03  22342775.155      -37758.875        -527.296           0.255  
G04  23609423.379     -152515.663       -2123.379           0.244  
G05  22508970.091      149283.569        2036.765           0.255  
G06  20633716.578      -31719.844        -498.061           0.255  
G07  23402041.540      -81630.976       -1309.216           0.248  
G09  23124772.854      -77583.819       -1427.259           0.252  
> 2023 05 18 00 01 28.1688020  0  7                     
G02  24230175.641      238497.899        2905.270           0.239  
G03  22342788.856      -37811.287        -522.049           0.255  
G04  23609477.808     -152727.931       -2122.592           0.244  
G05  22508918.148      149487.242        2035.764           0.255  
G06  20633729.198      -31769.780        -500.082           0.255  
G07  23402075.248      -81761.875       -1308.758           0.248  
G09  23124809.221      -77726.572       -1427.779           0.252  
> 2023 05 18 00 01 28.2688020  0  7                     
G02  24230102.105      238788.456        2905.316           0.239  
G03  22342802.454      -37863.693        -525.398           0.255  
G04  23609531.465     -152940.206       -2122.076           0.244  
G05  22508866.227      149690.921        2037.729           0.255  
G06  20633741.839      -31819.745        -499.174           0.255  
G07  23402108.317      -81892.786       -1308.973           0.248  
G09  23124845.181      -77869.319       -1427.899           0.252  
> 2023 05 18 00 01 28.3688020  0  7                     
G02  24230027.892      239079.005        2905.831           0.239  
G03  22342815.235      -37916.133        -523.317           0.255  
G04  23609585.591     -153152.484       -2122.934           0.244  
G05  22508814.176      149894.580        2037.009           0.255  
G06  20633754.813      -31869.681        -499.549           0.255  
G07  23402141.825      -82023.692       -1309.188           0.248  
G09  23124881.358      -78012.070       -1427.774           0.252  
> 2023 05 18 00 01 28.4688020  0  7                     
G02  24229953.808      239369.544        2905.264           0.239  
G03  22342828.724      -37968.532        -524.619           0.255  
G04  23609639.424     -153364.760       -2122.601           0.244  
G05  22508762.343      150098.243        2035.670           0.255  
G06  20633767.574      -31919.658        -499.806           0.255  
G07  23402175.146      -82154.607       -1308.994           0.248  
G09  23124918.024      -78154.815       -1427.316           0.252  
> 2023 05 18 00 01 28.5688020  0  7                     
G02  24229880.468      239660.094        2905.283           0.239  
G03  22342842.141      -38020.997        -524.519           0.255  
G04  23609693.709     -153576.770       -2108.375           0.244  
G05  22508710.504      150301.918        2037.569           0.255  
G06  20633780.100      -31969.592        -498.879           0.255  
G07  23402208.621      -82285.540       -1313.925           0.248  
G09  23124954.243      -78297.566       -1427.157           0.252  
> 2023 05 18 00 01 28.6688020  0  7                     
G02  24229806.285      239950.649        2907.002           0.239  
G03  22342855.413      -38073.074        -567.248           0.255  
G04  23609747.667     -153789.330       -2123.945           0.244  
G05  22508658.452      150505.573        2037.168           0.255  
G06  20633793.120      -32019.579        -500.393           0.255  
G07  23402241.775      -82416.443       -1309.502           0.248  
G09  23124990.771      -78440.326       -1428.060           0.251  
> 2023 05 18 00 01 28.7688020  0  7                     
G02  24229732.043      240241.188        2906.317           0.239  
G03  22342868.886      -38125.881        -525.594           0.255  
G04  23609801.812     -154001.597       -2122.714           0.244  
G05  22508606.632      150709.228        2035.966           0.255  
G06  20633805.585      -32069.525        -498.677           0.255  
G07  23402275.096      -82547.364       -1309.100           0.248  
G09  23125027.072      -78583.077       -1427.892           0.251  
> 2023 05 18 00 01 28.8688020  0  7                     
G02  24229657.540      240531.722        2904.235           0.239  
G03  22342882.484      -38178.267        -521.891           0.255  
G04  23609856.163     -154213.877       -2121.977           0.244  
G05  22508554.787      150912.892        2037.335           0.255  
G06  20633818.575      -32119.527        -501.849           0.255  
G07  23402308.512      -82678.292       -1309.451           0.248  
G09  23125063.432      -78725.828       -1427.697           0.252  
> 2023 05 18 00 01 28.9688020  0  7                     
G02  24229584.294      240822.280        2904.702           0.239  
G03  22342895.652      -38230.762        -526.307           0.255  
G04  23609909.850     -154426.097       -2130.247           0.244  
G05  22508502.921      151116.541        2036.770           0.255  
G06  20633831.165      -32169.476        -498.694           0.255  
G07  23402341.913      -82809.273       -1311.975           0.248  
G09  23125100.005      -78868.743       -1453.696           0.252  
> 2023 05 18 00 01 29.0688020  0  7                     
G02  24229509.775      241112.813        2905.191           0.239  
G03  22342908.806      -38283.170        -521.607           0.255  
G04  23609963.969     -154638.451       -2123.091           0.244  
G05  22508451.193      151320.191        2035.861           0.255  
G06  20633844.075      -32219.476        -501.847           0.255  
G07  23402375.281      -82940.150       -1309.280           0.248  
G09  23125136.300      -79011.341       -1427.321           0.251  
> 2023 05 18 00 01 29.1688020  0  7                     
G02  24229435.176      241403.350        2903.663           0.239  
G03  22342922.421      -38335.683        -527.819           0.255  
G04  23610018.878     -154850.729       -2121.645           0.244  
G05  22508399.098      151523.849        2037.328           0.255  
G06  20633856.651      -32269.428        -497.245           0.255  
G07  23402408.681      -83071.081       -1309.099           0.248  
G09  23125172.563      -79154.100       -1428.138           0.251  
> 2023 05 18 00 01 29.2688020  0  7                     
G02  24229361.676      241693.905        2905.051           0.239  
G03  22342935.940      -38388.095        -521.270           0.255  
G04  23610072.534     -155063.023       -2122.725           0.244  
G05  22508347.497      151727.489        2036.163           0.255  
G06  20633869.069      -32319.436        -501.953           0.255  
G07  23402441.987      -83202.023       -1309.508           0.248  
G09  23125209.112      -79296.849       -1427.727           0.252  
> 2023 05 18 00 01 29.3688020  0  7                     
G02  24229287.448      241984.330        2898.879           0.239  
G03  22342949.000      -38440.600        -527.568           0.255  
G04  23610126.838     -155275.041       -2080.313           0.244  
G05  22508295.436      151931.674        2181.950           0.255  
G06  20633881.921      -32369.404        -498.310           0.255  
G07  23402475.587      -83332.957       -1309.252           0.248  
G09  23125245.868      -79439.599       -1426.816           0.251  
> 2023 05 18 00 01 29.4688020  0  7                     
G02  24229213.888      242275.079        2890.320           0.239  
G03  22342962.358      -38493.038        -521.628           0.255  
G04  23610180.619     -155487.604       -2099.273           0.244  
G05  22508243.406      152134.781        2036.820           0.255  
G06  20633895.008      -32419.407        -501.602           0.255  
G07  23402508.621      -83463.900       -1309.545           0.248  
G09  23125281.921      -79582.367       -1426.971           0.252  
> 2023 05 18 00 01 29.5688020  0  7                     
G02  24229139.726      242565.541        2905.377           0.239  
G03  22342976.094      -38545.549        -527.806           0.255  
G04  23610234.385     -155699.884       -2122.200           0.244  
G05  22508191.560      152338.423        2035.839           0.255  
G06  20633907.620      -32469.389        -497.978           0.255  
G07  23402542.270      -83594.845       -1309.496           0.248  
G09  23125318.117      -79725.132       -1428.113           0.252  
> 2023 05 18 00 01 29.6688020  0  7                     
G02  24229065.314      242856.091        2905.056           0.239  
G03  22342989.335      -38597.996        -521.194           0.255  
G04  23610288.621     -155912.178       -2122.370           0.244  
G05  22508139.861      152542.067        2037.079           0.255  
G06  20633920.544      -32519.402        -502.048           0.255  
G07  23402575.601      -83725.788       -1309.313           0.248  
G09  23125354.399      -79867.891       -1428.384           0.252  
> 2023 05 18 00 01 29.7688020  0  7                     
G02  24228991.741      243146.630        2904.052           0.239  
G03  22343002.600      -38651.348        -642.883           0.255  
G04  23610342.912     -156124.469       -2122.247           0.244  
G05  22508087.766      152745.700        2037.158           0.255  
G06  20633933.288      -32569.396        -499.062           0.255  
G07  23402608.745      -83856.681       -1304.977           0.248  
G09  23125391.369      -80010.645       -1427.358           0.252  
> 2023 05 18 00 01 29.8688020  0  7                     
G02  24228918.115      243437.190        2905.249           0.239  
G03  22343015.886      -38702.977        -521.859           0.255  
G04  23610396.906     -156336.766       -2122.625           0.244  
G05  22508035.985      152949.331        2035.422           0.255  
G06  20633945.738      -32619.403        -501.565           0.255  
G07  23402642.165      -83987.692       -1309.571           0.248  
G09  23125427.868      -80153.408       -1426.891           0.251  
> 2023 05 18 00 01 29.9688020  0  7                     
G02  24228843.810      243727.737        2906.217           0.239  
G03  22343029.362      -38755.496        -528.872           0.255  
G04  23610451.505     -156549.057       -2123.097           0.244  
G05  22507984.047      153152.971        2037.008           0.255  
G06  20633958.342      -32669.404        -497.702           0.255  
G07  23402675.827      -84118.649       -1309.570           0.248  
G09  23125463.739      -80296.180       -1428.412           0.251  
> 2023 05 18 00 01 30.0688020  0  7                     
G02  24228769.786      244018.283        2906.876           0.239  
G03  22343042.856      -38807.994        -524.497           0.255  
G04  23610505.435     -156761.353       -2123.599           0.244  
G05  22507932.105      153356.602        2036.560           0.255  
G06  20633971.164      -32719.421        -500.014           0.255  
G07  23402708.932      -84249.601       -1309.278           0.248  
G09  23125499.949      -80438.933       -1428.611           0.251  
> 2023 05 18 00 01 30.1688020  0  7                     
G02  24228696.388      244308.581        2886.688           0.239  
G03  22343056.407      -38860.472        -527.124           0.255  
G04  23610559.541     -156973.552       -2064.074           0.244  
G05  22507879.747      153561.099        2169.970           0.255  
G06  20633984.110      -32769.436        -498.983           0.255  
G07  23402741.955      -84380.466       -1310.624           0.248  
G09  23125536.116      -80581.037       -1275.163           0.252  
> 2023 05 18 00 01 30.2688020  0  7                     
G02  24228621.552      244599.365        2905.075           0.239  
G03  22343069.544      -38912.486        -402.168           0.255  
G04  23610612.992     -157185.945       -2123.392           0.244  
G05  22507827.890      153763.856        2037.192           0.255  
G06  20633997.216      -32819.437        -499.905           0.255  
G07  23402775.654      -84511.529       -1309.221           0.248  
G09  23125572.146      -80724.471       -1427.645           0.251  
> 2023 05 18 00 01 30.3688020  0  7                     
G02  24228547.858      244889.916        2905.607           0.239  
G03  22343082.767      -38965.516        -527.973           0.255  
G04  23610667.121     -157398.240       -2123.241           0.244  
G05  22507776.342      153967.477        2036.419           0.255  
G06  20634009.728      -32869.466        -498.440           0.255  
G07  23402808.920      -84642.500       -1309.471           0.248  
G09  23125609.076      -80867.242       -1428.637           0.252  
> 2023 05 18 00 01 30.4688020  0  7                     
G02  24228472.984      245180.462        2905.396           0.239  
G03  22343096.265      -39017.460        -392.842           0.255  
G04  23610721.666     -157610.539       -2123.123           0.244  
G05  22507724.617      154171.414        2052.834           0.255  
G06  20634022.254      -32919.494        -501.458           0.255  
G07  23402842.274      -84773.581       -1322.541           0.248  
G09  23125645.682      -81010.300       -1426.243           0.252  
> 2023 05 18 00 01 30.5688020  0  7                     
G02  24228399.595      245471.000        2903.798           0.239  
G03  22343110.048      -39071.160        -670.526           0.255  
G04  23610775.734     -157822.834       -2121.789           0.244  
G05  22507672.579      154374.716        2036.505           0.255  
G06  20634034.721      -32969.530        -499.762           0.255  
G07  23402875.841      -84904.447       -1309.873           0.248  
G09  23125681.837      -81153.114       -1492.826           0.252  
> 2023 05 18 00 01 30.6688020  0  7                     
G02  24228326.049      245761.560        2905.322           0.239  
G03  22343123.458      -39123.086        -523.590           0.255  
G04  23610829.541     -158035.139       -2123.012           0.244  
G05  22507620.663      154578.334        2035.190           0.255  
G06  20634047.709      -33019.542        -500.195           0.255  
G07  23402908.881      -85035.419       -1309.804           0.248  
G09  23125717.757      -81295.535       -1427.311           0.251  
> 2023 05 18 00 01 30.7688020  0  7                     
G02  24228251.137      246052.111        2906.370           0.239  
G03  22343136.088      -39175.594        -527.578           0.255  
G04  23610884.402     -158247.444       -2124.035           0.244  
G05  22507568.686      154781.958        2037.015           0.255  
G06  20634060.387      -33069.604        -500.391           0.255  
G07  23402942.824      -85166.408       -1309.997           0.248  
G09  23125754.986      -81438.288       -1425.823           0.251  
> 2023 05 18 00 01 30.8688020  0  7                     
G02  24228177.281      246342.645        2905.443           0.239  
G03  22343149.263      -39228.134        -523.456           0.255  
G04  23610938.675     -158459.745       -2123.411           0.244  
G05  22507516.717      154985.565        2036.535           0.255  
G06  20634073.297      -33119.628        -501.242           0.255  
G07  23402976.303      -85297.385       -1310.124           0.248  
G09  23125791.914      -81581.061       -1428.311           0.252  
> 2023 05 18 00 01 30.9688020  0  7                     
G02  24228103.044      246633.193        2905.367           0.239  
G03  22343163.419      -39280.667        -527.087           0.255  
G04  23610991.460     -158672.055       -2123.599           0.244  
G05  22507465.037      155189.173        2035.335           0.255  
G06  20634086.160      -33169.677        -499.686           0.255  
G07  23403009.153      -85428.373       -1309.662           0.248  
G09  23125827.593      -81723.826       -1427.409           0.251  
> 2023 05 18 00 01 31.0688020  0  7                     
G02  24228028.367      246923.985        2936.742           0.239  
G03  22343176.598      -39333.217        -523.062           0.255  
G04  23611046.364     -158884.353       -2123.487           0.244  
G05  22507413.382      155393.219        2150.703           0.255  
G06  20634098.774      -33219.705        -500.850           0.255  
G07  23403042.616      -85559.358       -1309.820           0.248  
G09  23125863.827      -81866.614       -1427.469           0.252  
> 2023 05 18 00 01 31.1688020  0  7                     
G02  24227954.624      247214.292        2905.537           0.239  
G03  22343190.032      -39385.756        -527.334           0.255  
G04  23611100.289     -159096.584       -2139.448           0.244  
G05  22507361.233      155596.390        2035.223           0.255  
G06  20634111.632      -33269.780        -500.428           0.255  
G07  23403076.053      -85690.446       -1309.029           0.248  
G09  23125900.642      -82009.356       -1427.368           0.251  
> 2023 05 18 00 01 31.2688020  0  7                     
G02  24227881.643      247504.840        2906.797           0.239  
G03  22343203.423      -39438.316        -523.927           0.255  
G04  23611154.439     -159308.672       -2098.148           0.244  
G05  22507309.367      155800.002        2036.831           0.255  
G06  20634124.042      -33319.813        -500.611           0.255  
G07  23403109.514      -85821.323       -1299.108           0.248  
G09  23125937.189      -82152.132       -1429.790           0.251  
> 2023 05 18 00 01 31.3688020  0  7                     
G02  24227806.688      247795.380        2906.645           0.239  
G03  22343217.020      -39490.870        -527.841           0.255  
G04  23611208.082     -159521.274       -2123.777           0.244  
G05  22507257.706      156003.595        2036.598           0.255  
G06  20634137.031      -33369.871        -499.397           0.255  
G07  23403142.962      -85952.349       -1309.928           0.248  
G09  23125972.956      -82294.910       -1426.888           0.252  
> 2023 05 18 00 01 31.4688020  0  7                     
G02  24227732.958      248085.920        2904.866           0.239  
G03  22343230.481      -39542.946        -372.602           0.255  
G04  23611262.952     -159733.586       -2122.591           0.244  
G05  22507205.755      156207.199        2035.818           0.255  
G06  20634150.174      -33419.928        -501.650           0.255  
G07  23403175.985      -86083.347       -1310.258           0.248  
G09  23126008.303      -82436.958       -1302.231           0.252  
> 2023 05 18 00 01 31.5688020  0  7                     
G02  24227658.753      248376.470        2905.605           0.239  
G03  22343243.648      -39595.995        -527.687           0.255  
G04  23611316.833     -159945.895       -2122.572           0.244  
G05  22507153.981      156410.796        2036.708           0.255  
G06  20634162.755      -33470.007        -500.563           0.255  
G07  23403209.466      -86214.342       -1309.750           0.248  
G09  23126045.693      -82580.447       -1427.219           0.252  
> 2023 05 18 00 01 31.6688020  0  7                     
G02  24227584.884      248667.015        2905.600           0.239  
G03  22343256.840      -39648.569        -523.535           0.255  
G04  23611370.629     -160158.200       -2123.184           0.244  
G05  22507102.003      156614.383        2035.311           0.255  
G06  20634175.453      -33520.062        -502.131           0.255  
G07  23403243.214      -86345.354       -1309.914           0.248  
G09  23126082.157      -82723.231       -1426.556           0.251  
> 2023 05 18 00 01 31.7688020  0  7                     
G02  24227510.467      248957.557        2904.640           0.239  
G03  22343270.540      -39701.145        -528.058           0.255  
G04  23611424.325     -160370.511       -2122.745           0.244  
G05  22507050.497      156817.989        2036.855           0.255  
G06  20634188.201      -33570.130        -499.397           0.255  
G07  23403276.314      -86476.359       -1310.180           0.248  
G09  23126118.092      -82866.017       -1427.506           0.252  
> 2023 05 18 00 01 31.8688020  0  7                     
G02  24227436.700      249248.110        2904.806           0.239  
G03  22343283.773      -39753.733        -524.425           0.255  
G04  23611478.041     -160582.828       -2122.608           0.244  
G05  22506998.463      157021.571        2035.966           0.255  
G06  20634201.035      -33620.199        -501.233           0.255  
G07  23403309.665      -86607.371       -1309.488           0.248  
G09  23126155.206      -83008.786       -1427.589           0.252  
> 2023 05 18 00 01 31.9688020  0  7                     
G02  24227363.169      249538.655        2905.262           0.239  
G03  22343297.503      -39807.139        -676.893           0.255  
G04  23611532.648     -160795.225       -2112.000           0.244  
G05  22506946.367      157225.159        2035.494           0.255  
G06  20634213.478      -33670.280        -499.921           0.255  
G07  23403343.118      -86738.383       -1310.356           0.248  
G09  23126191.352      -83151.555       -1428.097           0.251  
> 2023 05 18 00 01 32.0688020  0  7                     
G02  24227288.358      249829.208        2905.417           0.239  
G03  22343310.834      -39858.894        -522.872           0.255  
G04  23611586.859     -161007.465       -2122.901           0.244  
G05  22506894.399      157428.739        2036.211           0.255  
G06  20634226.180      -33720.354        -501.988           0.255  
G07  23403376.792      -86869.399       -1310.130           0.248  
G09  23126227.625      -83294.341       -1427.310           0.252  
> 2023 05 18 00 01 32.1688020  0  7                     
G02  24227214.297      250119.736        2903.701           0.239  
G03  22343323.939      -39911.499        -528.784           0.255  
G04  23611640.880     -161219.778       -2122.313           0.244  
G05  22506842.440      157632.315        2034.684           0.255  
G06  20634239.238      -33770.435        -499.212           0.255  
G07  23403410.093      -87000.419       -1310.378           0.248  
G09  23126264.408      -83437.123       -1428.325           0.252  
> 2023 05 18 00 01 32.2688020  0  7                     
G02  24227140.473      250410.290        2905.903           0.239  
G03  22343337.442      -39964.088        -523.361           0.255  
G04  23611695.402     -161432.102       -2123.473           0.244  
G05  22506790.547      157835.909        2036.375           0.255  
G06  20634251.918      -33820.522        -502.256           0.255  
G07  23403443.526      -87131.504       -1316.588           0.248  
G09  23126300.409      -83579.895       -1427.386           0.251  
> 2023 05 18 00 01 32.3688020  0  7                     
G02  24227066.559      250700.823        2905.532           0.239  
G03  22343350.671      -40016.703        -529.284           0.255  
G04  23611749.302     -161644.415       -2123.399           0.244  
G05  22506738.254      158039.485        2035.645           0.255  
G06  20634264.513      -33870.609        -499.144           0.255  
G07  23403476.930      -87262.470       -1310.483           0.248  
G09  23126337.500      -83722.679       -1427.385           0.251  
> 2023 05 18 00 01 32.4688020  0  7                     
G02  24226992.725      250991.371        2905.227           0.239  
G03  22343364.330      -40069.318        -524.958           0.255  
G04  23611804.085     -161856.740       -2123.305           0.244  
G05  22506687.039      158243.064        2035.985           0.255  
G06  20634277.767      -33920.696        -500.835           0.255  
G07  23403509.901      -87393.498       -1310.309           0.248  
G09  23126372.037      -83865.454       -1426.936           0.252  
> 2023 05 18 00 01 32.5688020  0  7                     
G02  24226918.577      251281.898        2903.677           0.239  
G03  22343377.564      -40121.928        -528.909           0.255  
G04  23611857.930     -162069.056       -2122.044           0.244  
G05  22506634.939      158446.637        2036.158           0.255  
G06  20634290.453      -33970.797        -499.541           0.255  
G07  23403543.598      -87524.528       -1310.398           0.248  
G09  23126409.401      -84008.234       -1427.916           0.251  
> 2023 05 18 00 01 32.6688020  0  7                     
G02  24226844.576      251572.441        2904.373           0.239  
G03  22343390.821      -40174.509        -522.502           0.255  
G04  23611911.898     -162281.514       -2142.489           0.244  
G05  22506583.122      158650.205        2034.608           0.255  
G06  20634303.004      -34020.905        -502.836           0.255  
G07  23403576.940      -87655.564       -1310.255           0.248  
G09  23126445.755      -84151.016       -1427.432           0.252  
> 2023 05 18 00 01 32.7688020  0  7                     
G02  24226770.297      251862.984        2904.988           0.239  
G03  22343404.357      -40227.158        -529.390           0.255  
G04  23611966.124     -162493.705       -2122.728           0.244  
G05  22506531.395      158853.782        2036.167           0.255  
G06  20634315.712      -34070.999        -499.162           0.255  
G07  23403610.273      -87786.603       -1310.168           0.248  
G09  23126482.337      -84293.800       -1428.067           0.252  
> 2023 05 18 00 01 32.8688020  0  7                     
G02  24226696.778      252153.524        2904.537           0.239  
G03  22343417.889      -40279.754        -523.487           0.255  
G04  23612020.229     -162706.026       -2122.676           0.244  
G05  22506479.662      159057.351        2035.094           0.255  
G06  20634328.529      -34121.117        -502.907           0.255  
G07  23403643.501      -87917.644       -1310.694           0.248  
G09  23126519.051      -84436.834       -1474.107           0.252  
> 2023 05 18 00 01 32.9688020  0  7                     
G02  24226621.359      252444.069        2905.516           0.239  
G03  22343431.257      -40332.422        -529.885           0.255  
G04  23612075.121     -162918.354       -2123.850           0.244  
G05  22506427.616      159260.924        2036.459           0.255  
G06  20634340.804      -34171.207        -498.806           0.255  
G07  23403677.224      -88048.682       -1319.887           0.248  
G09  23126556.304      -84579.361       -1427.434           0.252  
> 2023 05 18 00 01 33.0688020  0  7                     
G02  24226547.400      252734.605        2905.257           0.239  
G03  22343444.471      -40385.045        -525.881           0.255  
G04  23612129.169     -163130.672       -2122.627           0.244  
G05  22506375.455      159464.478        2035.289           0.255  
G06  20634354.137      -34221.326        -500.626           0.255  
G07  23403710.370      -88179.737       -1310.801           0.248  
G09  23126590.668      -84722.142       -1427.150           0.252  
> 2023 05 18 00 01 33.1688020  0  7                     
G02  24226474.081      253025.141        2906.104           0.239  
G03  22343458.212      -40437.694        -528.194           0.255  
G04  23612182.555     -163343.003       -2123.695           0.244  
G05  22506323.738      159668.049        2035.955           0.255  
G06  20634366.931      -34271.429        -499.444           0.255  
G07  23403743.870      -88310.784       -1310.766           0.248  
G09  23126627.952      -84864.928       -1427.772           0.252  
> 2023 05 18 00 01 33.2688020  0  7                     
G02  24226400.450      253315.681        2905.648           0.239  
G03  22343471.414      -40490.289        -523.541           0.255  
G04  23612236.466     -163555.336       -2123.539           0.244  
G05  22506271.798      159871.602        2036.021           0.255  
G06  20634379.565      -34321.577        -502.809           0.255  
G07  23403777.256      -88441.842       -1310.943           0.248  
G09  23126664.491      -85007.726       -1427.658           0.252  
> 2023 05 18 00 01 33.3688020  0  7                     
G02  24226326.305      253606.213        2905.649           0.239  
G03  22343485.253      -40542.977        -528.497           0.255  
G04  23612290.850     -163767.894       -2142.708           0.244  
G05  22506219.964      160075.446        2032.148           0.255  
G06  20634392.350      -34371.681        -499.657           0.255  
G07  23403810.684      -88572.889       -1301.527           0.248  
G09  23126700.784      -85150.514       -1428.587           0.252  
> 2023 05 18 00 01 33.4688020  0  7                     
G02  24226252.480      253896.754        2905.088           0.239  
G03  22343498.185      -40596.734        -727.850           0.255  
G04  23612344.457     -163979.993       -2122.501           0.244  
G05  22506168.097      160278.724        2035.945           0.255  
G06  20634405.027      -34421.832        -502.734           0.255  
G07  23403844.091      -88703.903       -1304.786           0.248  
G09  23126737.182      -85293.408       -1472.208           0.252  
> 2023 05 18 00 01 33.5688020  0  7                     
G02  24226178.027      254187.293        2905.159           0.239  
G03  22343511.702      -40648.426        -498.687           0.255  
G04  23612398.664     -164192.320       -2122.780           0.244  
G05  22506116.110      160482.271        2034.400           0.255  
G06  20634417.926      -34471.932        -499.655           0.255  
G07  23403877.222      -88835.016       -1310.799           0.248  
G09  23126773.657      -85436.087       -1428.039           0.252  
> 2023 05 18 00 01 33.6688020  0  7                     
G02  24226104.409      254477.829        2905.175           0.239  
G03  22343525.061      -40700.932        -527.615           0.255  
G04  23612452.390     -164404.647       -2122.253           0.244  
G05  22506064.338      160685.830        2036.230           0.255  
G06  20634430.937      -34522.090        -501.160           0.255  
G07  23403910.768      -88966.084       -1310.866           0.248  
G09  23126809.041      -85578.857       -1427.201           0.252  
> 2023 05 18 00 01 33.7688020  0  7                     
G02  24226030.526      254768.377        2906.130           0.239  
G03  22343538.991      -40753.614        -526.522           0.255  
G04  23612506.514     -164616.995       -2123.661           0.244  
G05  22506012.452      160889.367        2034.666           0.255  
G06  20634443.424      -34572.205        -501.009           0.255  
G07  23403944.136      -89097.148       -1310.358           0.248  
G09  23126846.273      -85721.735       -1483.291           0.252  
> 2023 05 18 00 01 33.8688020  0  7                     
G02  24225955.786      255058.914        2906.346           0.239  
G03  22343551.862      -40806.244        -526.523           0.255  
G04  23612561.165     -164829.326       -2123.683           0.244  
G05  22505960.749      161092.926        2036.310           0.255  
G06  20634456.453      -34622.367        -501.601           0.255  
G07  23403977.695      -89228.215       -1310.488           0.248  
G09  23126882.539      -85864.455       -1428.056           0.252  
> 2023 05 18 00 01 33.9688020  0  7                     
G02  24225881.400      255349.452        2905.610           0.239  
G03  22343565.557      -40858.943        -526.154           0.255  
G04  23612615.538     -165041.660       -2122.987           0.244  
G05  22505908.926      161296.463        2035.084           0.255  
G06  20634469.064      -34672.500        -501.537           0.255  
G07  23404011.049      -89359.287       -1310.831           0.248  
G09  23126919.306      -86007.242       -1428.486           0.252  
> 2023 05 18 00 01 34.0688020  0  7                     
G02  24225807.819      255639.995        2905.477           0.239  
G03  22343579.423      -40911.586        -525.885           0.255  
G04  23612669.614     -165254.000       -2123.190           0.244  
G05  22505857.425      161500.009        2035.992           0.255  
G06  20634481.547      -34722.667        -502.130           0.255  
G07  23404044.239      -89490.358       -1310.348           0.248  
G09  23126955.574      -86150.026       -1426.960           0.252  
> 2023 05 18 00 01 34.1688020  0  7                     
G02  24225735.078      255930.540        2905.312           0.239  
G03  22343592.104      -40964.280        -523.165           0.255  
G04  23612723.288     -165466.249       -2108.361           0.244  
G05  22505805.313      161703.109        1963.531           0.255  
G06  20634494.661      -34772.812        -503.506           0.255  
G07  23404077.612      -89621.333       -1313.583           0.248  
G09  23126992.266      -86292.654       -1360.259           0.252  
> 2023 05 18 00 01 34.2688020  0  7                     
G02  24225656.275      256220.880        2888.384           0.240  
G03  22343605.359      -41016.977        -525.705           0.255  
G04  23612780.770     -165678.679       -2123.037           0.245  
G05  22505753.830      161907.091        2035.982           0.255  
G06  20634507.496      -34822.958        -502.097           0.255  
G07  23404111.289      -89752.515       -1310.545           0.248  
G09  23127027.834      -86435.616       -1427.261           0.252  
> 2023 05 18 00 01 34.3688020  0  7                     
G02  24225584.363      256511.631        2907.069           0.239  
G03  22343618.982      -41068.771        -378.916           0.255  
G04  23612832.708     -165890.944       -2134.482           0.244  
G05  22505701.867      162110.617        2035.759           0.255  
G06  20634520.181      -34873.110        -500.100           0.255  
G07  23404144.882      -89883.630       -1318.763           0.248  
G09  23127064.631      -86578.402       -1426.677           0.251  
> 2023 05 18 00 01 34.4688020  0  7                     
G02  24225511.373      256802.154        2906.310           0.240  
G03  22343633.305      -41122.358        -527.531           0.255  
G04  23612885.243     -166103.062       -2084.642           0.245  
G05  22505649.833      162314.152        2034.981           0.255  
G06  20634532.081      -34923.283        -501.598           0.255  
G07  23404178.747      -90014.661       -1279.299           0.248  
G09  23127101.046      -86720.957       -1398.549           0.251  
> 2023 05 18 00 01 34.5688020  0  7                     
G02  24225437.844      257092.683        2904.669           0.239  
G03  22343646.141      -41175.473        -638.922           0.255  
G04  23612939.681     -166315.699       -2123.615           0.244  
G05  22505597.616      162517.678        2035.862           0.255  
G06  20634545.408      -34973.439        -501.363           0.255  
G07  23404211.294      -90145.784       -1310.795           0.248  
G09  23127138.083      -86863.997       -1428.984           0.252  
> 2023 05 18 00 01 34.6688020  0  7                     
G02  24225363.094      257383.230        2904.104           0.239  
G03  22343659.616      -41227.761        -525.410           0.255  
G04  23612993.301     -166528.036       -2122.271           0.244  
G05  22505545.822      162721.525        2042.738           0.255  
G06  20634558.311      -35023.618        -503.312           0.255  
G07  23404244.679      -90276.829       -1300.182           0.248  
G09  23127174.004      -87006.789       -1427.725           0.252  
> 2023 05 18 00 01 34.7688020  0  7                     
G02  24225289.419      257673.772        2905.026           0.239  
G03  22343672.975      -41280.505        -528.612           0.255  
G04  23613047.344     -166740.388       -2122.893           0.244  
G05  22505494.291      162924.737        2035.700           0.255  
G06  20634571.249      -35073.763        -500.626           0.255  
G07  23404277.970      -90407.969       -1310.782           0.248  
G09  23127210.568      -87149.593       -1427.916           0.252  
> 2023 05 18 00 01 34.8688020  0  7                     
G02  24225215.455      257964.318        2905.969           0.239  
G03  22343685.697      -41333.221        -526.947           0.255  
G04  23613101.843     -166952.754       -2124.329           0.244  
G05  22505442.313      163128.260        2034.067           0.255  
G06  20634584.212      -35123.939        -501.337           0.255  
G07  23404311.427      -90539.071       -1311.394           0.248  
G09  23127246.629      -87292.387       -1428.341           0.252  
> 2023 05 18 00 01 34.9688020  0  7                     
G02  24225141.913      258254.861        2906.118           0.239  
G03  22343699.895      -41385.945        -528.854           0.255  
G04  23613156.416     -167164.847       -2108.969           0.244  
G05  22505390.192      163331.785        2035.589           0.255  
G06  20634597.157      -35174.117        -500.373           0.255  
G07  23404345.141      -90670.063       -1301.114           0.248  
G09  23127283.032      -87435.185       -1427.804           0.252  
> 2023 05 18 00 01 35.0688020  0  7                     
G02  24225068.145      258545.868        2936.519           0.239  
G03  22343713.009      -41438.350        -449.246           0.255  
G04  23613210.036     -167377.444       -2124.146           0.244  
G05  22505338.238      163535.169        1979.874           0.255  
G06  20634609.892      -35224.321        -502.643           0.255  
G07  23404377.953      -90801.347       -1319.439           0.248  
G09  23127319.256      -87578.030       -1442.091           0.252  
> 2023 05 18 00 01 35.1688020  0  7                     
G02  24224993.258      258835.930        2903.957           0.239  
G03  22343726.419      -41491.355        -527.860           0.255  
G04  23613264.785     -167589.798       -2122.685           0.244  
G05  22505286.372      163738.824        2035.617           0.255  
G06  20634622.661      -35274.510        -502.017           0.255  
G07  23404411.684      -90932.394       -1311.029           0.248  
G09  23127355.955      -87720.784       -1428.482           0.252  
> 2023 05 18 00 01 35.2688020  0  7                     
G02  24224918.060      259126.472        2904.470           0.239  
G03  22343739.895      -41544.124        -526.987           0.255  
G04  23613320.366     -167802.298       -2139.092           0.244  
G05  22505234.306      163942.096        1983.134           0.255  
G06  20634635.564      -35324.676        -501.509           0.255  
G07  23404445.007      -91063.502       -1311.295           0.248  
G09  23127392.032      -87863.582       -1428.095           0.251  
> 2023 05 18 00 01 35.3688020  0  7                     
G02  24224845.249      259417.023        2905.421           0.239  
G03  22343753.830      -41596.831        -524.552           0.255  
G04  23613373.696     -168014.503       -2122.985           0.244  
G05  22505182.396      164145.859        2035.765           0.255  
G06  20634647.755      -35374.877        -503.112           0.255  
G07  23404478.981      -91194.616       -1311.073           0.248  
G09  23127428.527      -88006.380       -1427.970           0.251  
> 2023 05 18 00 01 35.4688020  0  7                     
G02  24224772.967      259707.554        2904.837           0.239  
G03  22343767.620      -41649.586        -522.673           0.255  
G04  23613425.975     -168226.850       -2122.924           0.244  
G05  22505130.474      164349.054        1963.631           0.255  
G06  20634660.247      -35425.065        -503.557           0.255  
G07  23404512.881      -91325.734       -1311.270           0.248  
G09  23127463.742      -88149.183       -1428.536           0.251  
> 2023 05 18 00 01 35.5688020  0  7                     
G02  24224697.404      259998.116        2908.240           0.239  
G03  22343780.602      -41702.322        -526.172           0.255  
G04  23613480.642     -168439.211       -2124.655           0.243  
G05  22505078.976      164552.880        2036.255           0.255  
G06  20634672.984      -35475.268        -501.987           0.255  
G07  23404545.408      -91456.856       -1310.983           0.248  
G09  23127502.462      -88291.982       -1428.822           0.251  
> 2023 05 18 00 01 35.6688020  0  7                     
G02  24224622.934      260288.645        2904.173           0.239  
G03  22343793.172      -41755.092        -529.631           0.255  
G04  23613535.367     -168651.562       -2122.546           0.245  
G05  22505027.124      164756.380        2034.553           0.255  
G06  20634686.410      -35525.463        -501.067           0.255  
G07  23404579.262      -91587.979       -1311.553           0.248  
G09  23127537.716      -88434.783       -1427.510           0.252  
> 2023 05 18 00 01 35.7688020  0  7                     
G02  24224549.301      260579.193        2906.308           0.239  
G03  22343806.627      -41807.826        -529.149           0.255  
G04  23613589.297     -168863.926       -2124.810           0.244  
G05  22504975.622      164959.892        2035.872           0.255  
G06  20634699.186      -35575.684        -501.394           0.255  
G07  23404612.789      -91719.111       -1311.654           0.248  
G09  23127573.796      -88577.590       -1427.932           0.251  
> 2023 05 18 00 01 35.8688020  0  7                     
G02  24224475.034      260869.710        2903.684           0.239  
G03  22343820.424      -41860.232        -494.114           0.255  
G04  23613643.734     -169076.260       -2122.021           0.244  
G05  22504923.358      165162.993        1955.828           0.255  
G06  20634711.873      -35625.886        -502.239           0.255  
G07  23404646.303      -91850.233       -1311.287           0.248  
G09  23127610.558      -88720.227       -1416.225           0.251  
> 2023 05 18 00 01 35.9688020  0  7                     
G02  24224400.102      261160.248        2904.821           0.239  
G03  22343834.162      -41913.385        -529.145           0.255  
G04  23613698.115     -169288.635       -2122.711           0.244  
G05  22504871.382      165366.898        2035.672           0.255  
G06  20634724.524      -35676.086        -500.930           0.255  
G07  23404680.156      -91981.361       -1311.069           0.248  
G09  23127647.740      -88863.297       -1454.640           0.251  
> 2023 05 18 00 01 36.0688020  0  7                     
G02  24224327.490      261450.770        2904.478           0.239  
G03  22343848.344      -41966.153        -529.121           0.255  
G04  23613750.762     -169500.993       -2124.135           0.244  
G05  22504819.691      165570.384        2034.075           0.255  
G06  20634736.880      -35726.298        -501.587           0.255  
G07  23404712.839      -92112.495       -1310.958           0.248  
G09  23127684.191      -89006.005       -1428.596           0.252  
> 2023 05 18 00 01 36.1688020  0  7                     
G02  24224253.032      261741.333        2906.566           0.239  
G03  22343860.810      -42018.912        -527.630           0.255  
G04  23613805.077     -169713.365       -2124.141           0.244  
G05  22504768.027      165773.894        2035.999           0.255  
G06  20634750.189      -35776.528        -502.358           0.255  
G07  23404746.531      -92243.629       -1311.249           0.248  
G09  23127720.288      -89148.806       -1428.383           0.252  
> 2023 05 18 00 01 36.2688020  0  7                     
G02  24224179.336      262031.869        2905.571           0.239  
G03  22343873.881      -42071.683        -529.141           0.255  
G04  23613859.501     -169925.720       -2124.335           0.244  
G05  22504715.921      165977.373        2034.323           0.255  
G06  20634763.408      -35826.760        -501.893           0.255  
G07  23404779.777      -92374.824       -1312.149           0.248  
G09  23127756.242      -89291.602       -1427.674           0.252  
> 2023 05 18 00 01 36.3688020  0  7                     
G02  24224104.662      262322.404        2905.549           0.239  
G03  22343887.845      -42124.470        -525.863           0.255  
G04  23613913.999     -170138.072       -2123.744           0.244  
G05  22504663.920      166180.877        2035.937           0.255  
G06  20634776.115      -35876.971        -502.786           0.255  
G07  23404813.202      -92505.913       -1311.483           0.248  
G09  23127792.483      -89434.417       -1427.695           0.252  
> 2023 05 18 00 01 36.4688020  0  7                     
G02  24224031.051      262612.942        2905.407           0.239  
G03  22343901.189      -42177.262        -530.692           0.255  
G04  23613967.846     -170350.436       -2123.553           0.244  
G05  22504612.271      166384.359        2034.059           0.255  
G06  20634789.010      -35927.206        -500.569           0.255  
G07  23404846.486      -92637.059       -1311.545           0.248  
G09  23127828.727      -89577.234       -1428.909           0.251  
> 2023 05 18 00 01 36.5688020  0  7                     
G02  24223956.816      262903.480        2904.569           0.239  
G03  22343914.758      -42230.031        -524.513           0.255  
G04  23614021.964     -170562.795       -2122.684           0.244  
G05  22504560.356      166587.854        2035.723           0.255  
G06  20634801.626      -35977.443        -504.429           0.255  
G07  23404879.693      -92768.205       -1311.478           0.248  
G09  23127864.774      -89720.035       -1427.551           0.252  
> 2023 05 18 00 01 36.6688020  0  7                     
G02  24223882.879      263194.475        2965.717           0.239  
G03  22343928.049      -42282.829        -529.236           0.255  
G04  23614076.312     -170775.169       -2123.606           0.244  
G05  22504508.741      166791.329        2034.070           0.255  
G06  20634814.444      -36027.686        -502.549           0.255  
G07  23404913.564      -92899.347       -1309.156           0.248  
G09  23127902.095      -89862.622       -1429.187           0.251  
> 2023 05 18 00 01 36.7688020  0  7                     
G02  24223808.406      263484.545        2924.078           0.239  
G03  22343942.137      -42335.640        -527.553           0.255  
G04  23614129.917     -170987.532       -2122.758           0.244  
G05  22504457.180      166994.827        2036.003           0.255  
G06  20634826.683      -36077.920        -502.614           0.255  
G07  23404946.856      -93030.508       -1311.364           0.248  
G09  23127938.096      -90005.651       -1427.594           0.251  
