     3.03           OBSERVATION DATA    M: Mixed            RINEX VERSION / TYPE
GNSS-SDRLIB v1.1                        20240331 062644 UTC PGM / RUN BY / DATE 
                                                            MARKER NAME         
                                                            MARKER NUMBER       
                                                            MARKER TYPE         
                                                            OBSERVER / AGENCY   
GNSS-SDRLIB         GNSS-SDRLIB         1.1                 REC # / TYPE / VERS 
                                                            ANT # / TYPE        
        0.0000        0.0000        0.0000                  APPROX POSITION XYZ 
        0.0000        0.0000        0.0000                  ANTENNA: DELTA H/E/N
G    4 C1C L1C D1C S1C                                      SYS / # / OBS TYPES 
R    4 C1C L1C D1C S1C                                      SYS / # / OBS TYPES 
E    4 C1C L1C D1C S1C                                      SYS / # / OBS TYPES 
J    4 C1C L1C D1C S1C                                      SYS / # / OBS TYPES 
S    4 C1C L1C D1C S1C                                      SYS / # / OBS TYPES 
C    4 C1C L1C D1C S1C                                      SYS / # / OBS TYPES 
I    4 C1C L1C D1C S1C                                      SYS / # / OBS TYPES 
  1970    01    01    00    00   00.0000000     GPS         TIME OF FIRST OBS   
  1970    01    01    00    00   00.0000000     GPS         TIME OF LAST OBS    
G L1C                                                       SYS / PHASE SHIFT   
R L1C                                                       SYS / PHASE SHIFT   
E L1C  0.00000                                              SYS / PHASE SHIFT   
J L1C                                                       SYS / PHASE SHIFT   
S L1C                                                       SYS / PHASE SHIFT   
C L1C  0.00000                                              SYS / PHASE SHIFT   
I L1C  0.00000                                              SYS / PHASE SHIFT   
  0                                                         GLONASS SLOT / FRQ #
 C1C    0.000 C1P    0.000 C2C    0.000 C2P    0.000        GLONASS COD/PHS/BIS 
                                                            END OF HEADER       
> 2022 01 01 00 00 36.0688020  0  1                     
G05  20629192.159      -43241.431       -2429.789           0.247  
> 2022 01 01 00 00 36.2688020  0  1                     
G05  20629284.920      -43727.437       -2428.772           0.247  
> 2022 01 01 00 00 36.3688020  0  1                     
G05  20629331.000      -43970.443       -2430.628           0.247  
> 2022 01 01 00 00 36.4688020  0  1                     
G05  20629377.789      -44213.451       -2430.068           0.247  
> 2022 01 01 00 00 36.5688020  0  1                     
G05  20629423.593      -44456.462       -2431.475           0.247  
> 2022 01 01 00 00 36.6688020  0  1                     
G05  20629469.298      -44699.475       -2431.677           0.248  
> 2022 01 01 00 00 36.7688020  0  1                     
G05  20629516.958      -44942.486       -2429.230           0.247  
> 2022 01 01 00 00 36.8688020  0  1                     
G05  20629563.692      -45185.509       -2432.630           0.247  
> 2022 01 01 00 00 36.9688020  0  1                     
G05  20629611.067      -45428.525       -2431.085           0.247  
> 2022 01 01 00 00 37.0688020  0  1                     
G05  20629656.239      -45671.547       -2430.062           0.247  
> 2022 01 01 00 00 37.1688020  0  1                     
G05  20629702.925      -45914.578       -2428.536           0.247  
> 2022 01 01 00 00 37.2688020  0  1                     
G05  20629748.728      -46157.602       -2431.311           0.247  
> 2022 01 01 00 00 37.3688020  0  1                     
G05  20629794.420      -46400.641       -2430.239           0.248  
> 2022 01 01 00 00 37.4688020  0  1                     
G05  20629841.978      -46643.675       -2426.028           0.248  
> 2022 01 01 00 00 37.5688020  0  1                     
G05  20629887.034      -46886.703       -2431.549           0.248  
> 2022 01 01 00 00 37.6688020  0  1                     
G05  20629932.775      -47129.737       -2430.353           0.247  
> 2022 01 01 00 00 37.7688020  0  1                     
G05  20629978.850      -47372.790       -2431.157           0.247  
> 2022 01 01 00 00 37.8688020  0  1                     
G05  20630025.351      -47615.830       -2427.046           0.247  
> 2022 01 01 00 00 37.9688020  0  1                     
G05  20630070.938      -47858.878       -2429.362           0.247  
> 2022 01 01 00 00 38.0688020  0  1                     
G05  20630116.842      -48101.920       -2431.486           0.247  
> 2022 01 01 00 00 38.1688020  0  1                     
G05  20630163.089      -48344.966       -2429.568           0.248  
> 2022 01 01 00 00 38.2688020  0  1                     
G05  20630210.078      -48588.023       -2429.149           0.247  
> 2022 01 01 00 00 38.3688020  0  1                     
G05  20630257.149      -48831.080       -2430.858           0.247  
> 2022 01 01 00 00 38.4688020  0  1                     
G05  20630304.022      -49074.139       -2430.128           0.247  
> 2022 01 01 00 00 38.5688020  0  1                     
G05  20630349.048      -49317.202       -2430.960           0.247  
> 2022 01 01 00 00 38.6688020  0  1                     
G05  20630395.151      -49560.259       -2430.428           0.247  
> 2022 01 01 00 00 38.7688020  0  1                     
G05  20630441.749      -49803.333       -2430.010           0.247  
> 2022 01 01 00 00 38.8688020  0  1                     
G05  20630488.281      -50046.395       -2430.250           0.247  
> 2022 01 01 00 00 38.9688020  0  1                     
G05  20630533.533      -50289.466       -2430.191           0.247  
> 2022 01 01 00 00 39.0688020  0  1                     
G05  20630580.325      -50532.544       -2431.440           0.247  
> 2022 01 01 00 00 39.1688020  0  1                     
G05  20630626.768      -50775.608       -2430.364           0.247  
> 2022 01 01 00 00 39.2688020  0  1                     
G05  20630673.261      -51018.693       -2430.167           0.248  
> 2022 01 01 00 00 39.3688020  0  1                     
G05  20630717.787      -51261.769       -2434.035           0.247  
> 2022 01 01 00 00 39.4688020  0  1                     
G05  20630765.679      -51504.858       -2429.503           0.247  
> 2022 01 01 00 00 39.5688020  0  1                     
G05  20630810.484      -51747.943       -2431.521           0.247  
> 2022 01 01 00 00 39.6688020  0  1                     
G05  20630856.871      -51991.036       -2430.490           0.247  
> 2022 01 01 00 00 39.7688020  0  1                     
G05  20630903.799      -52234.119       -2431.300           0.247  
> 2022 01 01 00 00 39.8688020  0  1                     
G05  20630949.562      -52477.212       -2430.917           0.247  
> 2022 01 01 00 00 39.9688020  0  1                     
G05  20630995.948      -52720.313       -2431.406           0.247  
> 2022 01 01 00 00 40.0688020  0  1                     
G05  20631044.349      -52963.408       -2430.925           0.247  
> 2022 01 01 00 00 40.1688020  0  1                     
G05  20631090.029      -53206.513       -2429.731           0.247  
> 2022 01 01 00 00 40.2688020  0  1                     
G05  20631136.179      -53449.613       -2431.497           0.247  
> 2022 01 01 00 00 40.3688020  0  1                     
G05  20631180.710      -53692.719       -2429.918           0.247  
> 2022 01 01 00 00 40.4688020  0  1                     
G05  20631226.724      -53935.830       -2432.403           0.247  
> 2022 01 01 00 00 40.5688020  0  1                     
G05  20631274.437      -54178.934       -2429.892           0.247  
> 2022 01 01 00 00 40.6688020  0  1                     
G05  20631321.627      -54422.055       -2431.859           0.247  
> 2022 01 01 00 00 40.7688020  0  1                     
G05  20631366.198      -54665.171       -2430.448           0.247  
> 2022 01 01 00 00 40.8688020  0  1                     
G05  20631412.567      -54908.289       -2432.991           0.247  
> 2022 01 01 00 00 40.9688020  0  1                     
G05  20631459.485      -55151.406       -2432.214           0.247  
> 2022 01 01 00 00 41.0688020  0  1                     
G05  20631504.622      -55394.527       -2431.648           0.247  
> 2022 01 01 00 00 41.1688020  0  1                     
G05  20631551.361      -55637.654       -2431.059           0.247  
> 2022 01 01 00 00 41.2688020  0  1                     
G05  20631597.121      -55880.780       -2430.723           0.247  
> 2022 01 01 00 00 41.3688020  0  1                     
G05  20631644.214      -56123.909       -2430.802           0.247  
> 2022 01 01 00 00 41.4688020  0  1                     
G05  20631690.697      -56367.043       -2430.601           0.247  
> 2022 01 01 00 00 41.5688020  0  1                     
G05  20631737.126      -56610.181       -2429.984           0.247  
> 2022 01 01 00 00 41.6688020  0  1                     
G05  20631782.490      -56853.318       -2431.927           0.247  
> 2022 01 01 00 00 41.7688020  0  1                     
G05  20631828.825      -57096.456       -2431.633           0.247  
> 2022 01 01 00 00 41.8688020  0  1                     
G05  20631874.774      -57339.603       -2430.636           0.248  
> 2022 01 01 00 00 41.9688020  0  1                     
G05  20631922.711      -57582.750       -2431.282           0.247  
> 2022 01 01 00 00 42.0688020  0  1                     
G05  20631969.200      -57825.898       -2432.071           0.247  
> 2022 01 01 00 00 42.1688020  0  1                     
G05  20632014.166      -58069.048       -2431.885           0.247  
> 2022 01 01 00 00 42.2688020  0  1                     
G05  20632061.466      -58312.200       -2428.523           0.247  
> 2022 01 01 00 00 42.3688020  0  1                     
G05  20632106.877      -58555.361       -2432.786           0.247  
> 2022 01 01 00 00 42.4688020  0  1                     
G05  20632152.628      -58798.514       -2431.595           0.247  
> 2022 01 01 00 00 42.5688020  0  1                     
G05  20632198.655      -59041.673       -2430.708           0.247  
> 2022 01 01 00 00 42.6688020  0  1                     
G05  20632246.015      -59284.842       -2430.614           0.247  
> 2022 01 01 00 00 42.7688020  0  1                     
G05  20632292.960      -59528.002       -2433.458           0.247  
> 2022 01 01 00 00 42.8688020  0  1                     
G05  20632338.767      -59771.173       -2431.955           0.247  
> 2022 01 01 00 00 42.9688020  0  1                     
G05  20632384.800      -60014.341       -2430.668           0.247  
> 2022 01 01 00 00 43.0688020  0  1                     
G05  20632430.720      -60257.515       -2429.600           0.247  
> 2022 01 01 00 00 43.1688020  0  1                     
G05  20632477.541      -60500.690       -2433.321           0.247  
> 2022 01 01 00 00 43.2688020  0  1                     
G05  20632523.441      -60743.859       -2432.810           0.248  
> 2022 01 01 00 00 43.3688020  0  1                     
G05  20632568.836      -60987.052       -2433.809           0.247  
> 2022 01 01 00 00 43.4688020  0  1                     
G05  20632615.137      -61230.228       -2432.677           0.247  
> 2022 01 01 00 00 43.5688020  0  1                     
G05  20632662.793      -61473.414       -2430.361           0.247  
> 2022 01 01 00 00 43.6688020  0  1                     
G05  20632707.955      -61716.597       -2433.123           0.247  
> 2022 01 01 00 00 43.7688020  0  1                     
G05  20632753.528      -61959.790       -2431.636           0.248  
> 2022 01 01 00 00 43.8688020  0  1                     
G05  20632801.679      -62202.990       -2430.544           0.248  
> 2022 01 01 00 00 43.9688020  0  1                     
G05  20632846.430      -62446.182       -2432.401           0.247  
> 2022 01 01 00 00 44.0688020  0  1                     
G05  20632893.423      -62689.382       -2433.340           0.247  
> 2022 01 01 00 00 44.1688020  0  1                     
G05  20632939.657      -62932.583       -2431.275           0.247  
> 2022 01 01 00 00 44.2688020  0  1                     
G05  20632984.782      -63175.783       -2432.485           0.247  
> 2022 01 01 00 00 44.3688020  0  1                     
G05  20633032.775      -63418.991       -2430.595           0.247  
> 2022 01 01 00 00 44.4688020  0  1                     
G05  20633078.901      -63662.203       -2430.670           0.247  
> 2022 01 01 00 00 44.5688020  0  1                     
G05  20633124.647      -63905.412       -2430.147           0.247  
> 2022 01 01 00 00 44.6688020  0  1                     
G05  20633170.746      -64148.623       -2430.841           0.247  
> 2022 01 01 00 00 44.7688020  0  1                     
G05  20633217.241      -64391.840       -2428.962           0.247  
> 2022 01 01 00 00 44.8688020  0  1                     
G05  20633264.207      -64635.060       -2431.327           0.244  
> 2022 01 01 00 00 44.9688020  0  1                     
G05  20633311.275      -64878.282       -2433.398           0.244  
> 2022 01 01 00 00 45.0688020  0  1                     
G05  20633357.183      -65121.505       -2432.976           0.244  
> 2022 01 01 00 00 45.1688020  0  1                     
G05  20633402.178      -65364.731       -2432.913           0.244  
> 2022 01 01 00 00 45.2688020  0  1                     
G05  20633449.017      -65607.957       -2434.194           0.244  
> 2022 01 01 00 00 45.3688020  0  1                     
G05  20633494.139      -65851.179       -2430.522           0.244  
> 2022 01 01 00 00 45.4688020  0  1                     
G05  20633541.144      -66094.421       -2433.956           0.244  
> 2022 01 01 00 00 45.5688020  0  1                     
G05  20633587.050      -66337.657       -2431.487           0.244  
> 2022 01 01 00 00 45.6688020  0  1                     
G05  20633634.721      -66580.890       -2432.164           0.244  
> 2022 01 01 00 00 45.7688020  0  1                     
G05  20633683.847      -66824.127       -2432.674           0.244  
> 2022 01 01 00 00 45.8688020  0  1                     
G05  20633726.264      -67067.372       -2433.232           0.243  
> 2022 01 01 00 00 45.9688020  0  1                     
G05  20633770.325      -67310.621       -2435.859           0.244  
> 2022 01 01 00 00 46.0688020  0  1                     
G05  20633817.511      -67553.863       -2433.542           0.244  
> 2022 01 01 00 00 46.1688020  0  1                     
G05  20633865.911      -67797.120       -2432.887           0.244  
> 2022 01 01 00 00 46.2688020  0  1                     
G05  20633910.494      -68040.372       -2432.338           0.244  
> 2022 01 01 00 00 46.3688020  0  1                     
G05  20633956.724      -68283.625       -2432.632           0.244  
> 2022 01 01 00 00 46.4688020  0  1                     
G05  20634005.761      -68526.880       -2432.330           0.244  
> 2022 01 01 00 00 46.5688020  0  1                     
G05  20634051.349      -68770.141       -2433.047           0.244  
> 2022 01 01 00 00 46.6688020  0  1                     
G05  20634097.167      -69013.408       -2431.873           0.244  
> 2022 01 01 00 00 46.7688020  0  1                     
G05  20634143.662      -69256.676       -2432.190           0.244  
> 2022 01 01 00 00 46.8688020  0  1                     
G05  20634189.091      -69499.945       -2435.199           0.244  
> 2022 01 01 00 00 46.9688020  0  1                     
G05  20634236.184      -69743.206       -2429.708           0.244  
> 2022 01 01 00 00 47.0688020  0  1                     
G05  20634282.410      -69986.486       -2434.073           0.244  
> 2022 01 01 00 00 47.1688020  0  1                     
G05  20634330.273      -70229.762       -2431.431           0.244  
> 2022 01 01 00 00 47.2688020  0  1                     
G05  20634377.399      -70473.036       -2431.032           0.244  
> 2022 01 01 00 00 47.3688020  0  1                     
G05  20634423.826      -70716.318       -2433.128           0.244  
> 2022 01 01 00 00 47.4688020  0  1                     
G05  20634469.242      -70959.604       -2430.857           0.244  
> 2022 01 01 00 00 47.5688020  0  1                     
G05  20634515.319      -71202.894       -2432.683           0.244  
> 2022 01 01 00 00 47.6688020  0  1                     
G05  20634559.607      -71446.175       -2433.217           0.244  
> 2022 01 01 00 00 47.7688020  0  1                     
G05  20634604.782      -71689.460       -2431.952           0.243  
> 2022 01 01 00 00 47.8688020  0  1                     
G05  20634649.874      -71932.760       -2432.577           0.244  
> 2022 01 01 00 00 47.9688020  0  1                     
G05  20634698.278      -72176.050       -2433.510           0.244  
> 2022 01 01 00 00 48.0688020  0  1                     
G05  20634745.127      -72419.344       -2432.976           0.244  
> 2022 01 01 00 00 48.1688020  0  1                     
G05  20634790.926      -72662.646       -2435.568           0.244  
> 2022 01 01 00 00 48.2688020  0  1                     
G05  20634837.825      -72905.953       -2433.463           0.244  
> 2022 01 01 00 00 48.3688020  0  1                     
G05  20634883.603      -73149.258       -2434.780           0.244  
> 2022 01 01 00 00 48.4688020  0  1                     
G05  20634929.884      -73392.568       -2433.486           0.244  
> 2022 01 01 00 00 48.5688020  0  1                     
G05  20634976.532      -73635.876       -2432.743           0.244  
> 2022 01 01 00 00 48.6688020  0  1                     
G05  20635023.210      -73879.191       -2433.260           0.244  
> 2022 01 01 00 00 48.7688020  0  1                     
G05  20635069.686      -74122.505       -2434.071           0.244  
> 2022 01 01 00 00 48.9688020  0  1                     
G05  20635161.710      -74609.142       -2433.002           0.244  
> 2022 01 01 00 00 49.0688020  0  1                     
G05  20635207.555      -74852.465       -2434.330           0.244  
> 2022 01 01 00 00 49.1688020  0  1                     
G05  20635254.335      -75095.793       -2433.221           0.244  
> 2022 01 01 00 00 49.2688020  0  1                     
G05  20635301.410      -75339.124       -2434.528           0.244  
> 2022 01 01 00 00 49.3688020  0  1                     
G05  20635347.699      -75582.451       -2433.002           0.244  
> 2022 01 01 00 00 49.4688020  0  1                     
G05  20635392.845      -75825.784       -2433.437           0.244  
> 2022 01 01 00 00 49.5688020  0  1                     
G05  20635439.699      -76069.116       -2432.151           0.244  
> 2022 01 01 00 00 49.6688020  0  1                     
G05  20635485.627      -76312.457       -2433.593           0.244  
> 2022 01 01 00 00 49.7688020  0  1                     
G05  20635532.121      -76555.794       -2434.632           0.244  
> 2022 01 01 00 00 49.8688020  0  1                     
G05  20635579.164      -76799.136       -2433.768           0.244  
> 2022 01 01 00 00 49.9688020  0  1                     
G05  20635624.714      -77042.487       -2437.196           0.244  
> 2022 01 01 00 00 50.0688020  0  1                     
G05  20635670.213      -77285.836       -2435.136           0.244  
> 2022 01 01 00 00 50.1688020  0  1                     
G05  20635717.042      -77529.180       -2433.496           0.244  
> 2022 01 01 00 00 50.2688020  0  1                     
G05  20635764.045      -77772.539       -2436.152           0.244  
> 2022 01 01 00 00 50.3688020  0  1                     
G05  20635810.278      -78015.893       -2434.804           0.244  
> 2022 01 01 00 00 50.4688020  0  1                     
G05  20635856.795      -78259.252       -2433.612           0.244  
> 2022 01 01 00 00 50.5688020  0  1                     
G05  20635901.694      -78502.606       -2430.861           0.244  
> 2022 01 01 00 00 50.6688020  0  1                     
G05  20635948.598      -78745.968       -2433.054           0.244  
> 2022 01 01 00 00 50.7688020  0  1                     
G05  20635995.110      -78989.330       -2430.492           0.244  
> 2022 01 01 00 00 50.8688020  0  1                     
G05  20636041.357      -79232.695       -2433.383           0.244  
> 2022 01 01 00 00 50.9688020  0  1                     
G05  20636087.979      -79476.072       -2434.813           0.244  
> 2022 01 01 00 00 51.0688020  0  1                     
G05  20636134.825      -79719.440       -2432.908           0.244  
> 2022 01 01 00 00 51.1688020  0  1                     
G05  20636180.687      -79962.822       -2435.331           0.244  
> 2022 01 01 00 00 51.2688020  0  1                     
G05  20636226.842      -80206.199       -2434.407           0.244  
> 2022 01 01 00 00 51.3688020  0  1                     
G05  20636272.729      -80449.578       -2435.228           0.244  
> 2022 01 01 00 00 51.4688020  0  1                     
G05  20636318.903      -80692.961       -2431.681           0.244  
> 2022 01 01 00 00 51.5688020  0  1                     
G05  20636365.535      -80936.345       -2432.993           0.244  
> 2022 01 01 00 00 51.6688020  0  1                     
G05  20636411.591      -81179.736       -2434.491           0.244  
> 2022 01 01 00 00 51.7688020  0  1                     
G05  20636458.080      -81423.125       -2433.301           0.244  
> 2022 01 01 00 00 51.8688020  0  1                     
G05  20636504.986      -81666.515       -2433.918           0.244  
> 2022 01 01 00 00 51.9688020  0  1                     
G05  20636550.960      -81909.911       -2436.221           0.244  
> 2022 01 01 00 00 52.0688020  0  1                     
G05  20636597.155      -82153.306       -2433.808           0.244  
> 2022 01 01 00 00 52.1688020  0  1                     
G05  20636643.893      -82396.711       -2436.054           0.244  
> 2022 01 01 00 00 52.2688020  0  1                     
G05  20636689.661      -82640.114       -2434.614           0.244  
> 2022 01 01 00 00 52.3688020  0  1                     
G05  20636735.833      -82883.515       -2432.210           0.244  
> 2022 01 01 00 00 52.4688020  0  1                     
G05  20636782.506      -83126.924       -2433.621           0.244  
> 2022 01 01 00 00 52.5688020  0  1                     
G05  20636828.691      -83370.328       -2436.266           0.244  
> 2022 01 01 00 00 52.6688020  0  1                     
G05  20636875.502      -83613.743       -2435.813           0.244  
> 2022 01 01 00 00 52.7688020  0  1                     
G05  20636921.273      -83857.163       -2435.769           0.244  
> 2022 01 01 00 00 52.8688020  0  1                     
G05  20636967.789      -84100.575       -2434.823           0.244  
> 2022 01 01 00 00 52.9688020  0  1                     
G05  20637014.328      -84343.997       -2434.422           0.244  
> 2022 01 01 00 00 53.0688020  0  1                     
G05  20637061.204      -84587.419       -2432.801           0.244  
> 2022 01 01 00 00 53.1688020  0  1                     
G05  20637106.047      -84830.838       -2434.552           0.244  
> 2022 01 01 00 00 53.2688020  0  1                     
G05  20637153.297      -85074.265       -2434.666           0.244  
> 2022 01 01 00 00 53.3688020  0  1                     
G05  20637199.689      -85317.702       -2437.536           0.244  
> 2022 01 01 00 00 53.4688020  0  1                     
G05  20637245.256      -85561.140       -2435.585           0.244  
> 2022 01 01 00 00 53.5688020  0  1                     
G05  20637291.908      -85804.567       -2434.149           0.244  
> 2022 01 01 00 00 53.6688020  0  1                     
G05  20637339.003      -86048.005       -2433.322           0.244  
> 2022 01 01 00 00 53.7688020  0  1                     
G05  20637384.425      -86291.447       -2434.647           0.244  
> 2022 01 01 00 00 53.8688020  0  1                     
G05  20637431.212      -86534.891       -2434.944           0.244  
> 2022 01 01 00 00 53.9688020  0  1                     
G05  20637476.580      -86778.339       -2434.912           0.244  
> 2022 01 01 00 00 54.0688020  0  1                     
G05  20637522.601      -87021.786       -2434.558           0.244  
> 2022 01 01 00 00 54.1688020  0  1                     
G05  20637569.332      -87265.235       -2431.430           0.244  
> 2022 01 01 00 00 54.2688020  0  1                     
G05  20637616.533      -87508.682       -2434.010           0.244  
> 2022 01 01 00 00 54.3688020  0  1                     
G05  20637663.100      -87752.138       -2434.134           0.244  
> 2022 01 01 00 00 54.4688020  0  1                     
G05  20637708.959      -87995.600       -2436.316           0.244  
> 2022 01 01 00 00 54.5688020  0  1                     
G05  20637756.041      -88239.057       -2433.559           0.244  
> 2022 01 01 00 00 54.6688020  0  1                     
G05  20637801.505      -88482.520       -2430.928           0.244  
> 2022 01 01 00 00 54.7688020  0  1                     
G05  20637848.023      -88725.984       -2436.561           0.244  
> 2022 01 01 00 00 54.8688020  0  1                     
G05  20637893.934      -88969.449       -2433.661           0.244  
> 2022 01 01 00 00 54.9688020  0  1                     
G05  20637940.227      -89212.920       -2434.748           0.244  
> 2022 01 01 00 00 55.0688020  0  1                     
G05  20637986.609      -89456.392       -2434.694           0.244  
> 2022 01 01 00 00 55.1688020  0  1                     
G05  20638033.133      -89699.867       -2435.062           0.244  
> 2022 01 01 00 00 55.2688020  0  1                     
G05  20638079.789      -89943.342       -2435.271           0.244  
> 2022 01 01 00 00 55.3688020  0  1                     
G05  20638126.110      -90186.824       -2438.600           0.244  
> 2022 01 01 00 00 55.4688020  0  1                     
G05  20638172.072      -90430.305       -2436.344           0.244  
> 2022 01 01 00 00 55.5688020  0  1                     
G05  20638218.711      -90673.794       -2436.760           0.244  
> 2022 01 01 00 00 55.6688020  0  1                     
G05  20638264.924      -90917.280       -2435.832           0.244  
> 2022 01 01 00 00 55.7688020  0  1                     
G05  20638312.310      -91160.773       -2433.161           0.244  
> 2022 01 01 00 00 55.8688020  0  1                     
G05  20638356.886      -91404.264       -2435.154           0.244  
> 2022 01 01 00 00 55.9688020  0  1                     
G05  20638404.347      -91647.759       -2435.969           0.244  
> 2022 01 01 00 00 56.0688020  0  1                     
G05  20638450.425      -91891.259       -2432.622           0.244  
> 2022 01 01 00 00 56.1688020  0  1                     
G05  20638496.751      -92134.758       -2433.533           0.244  
> 2022 01 01 00 00 56.2688020  0  1                     
G05  20638543.287      -92378.259       -2434.188           0.244  
> 2022 01 01 00 00 56.3688020  0  1                     
G05  20638590.440      -92621.766       -2433.024           0.244  
> 2022 01 01 00 00 56.4688020  0  1                     
G05  20638635.907      -92865.266       -2433.938           0.244  
> 2022 01 01 00 00 56.5688020  0  1                     
G05  20638681.955      -93108.785       -2439.270           0.244  
> 2022 01 01 00 00 56.6688020  0  1                     
G05  20638728.521      -93352.300       -2435.741           0.244  
> 2022 01 01 00 00 56.7688020  0  1                     
G05  20638774.854      -93595.806       -2434.851           0.244  
> 2022 01 01 00 00 56.8688020  0  1                     
G05  20638821.351      -93839.325       -2436.138           0.244  
> 2022 01 01 00 00 56.9688020  0  1                     
G05  20638867.525      -94082.843       -2433.794           0.244  
> 2022 01 01 00 00 57.0688020  0  1                     
G05  20638913.685      -94326.366       -2435.175           0.244  
> 2022 01 01 00 00 57.1688020  0  1                     
G05  20638959.819      -94569.888       -2435.377           0.244  
> 2022 01 01 00 00 57.2688020  0  1                     
G05  20639006.296      -94813.415       -2435.632           0.244  
> 2022 01 01 00 00 57.3688020  0  1                     
G05  20639053.065      -95056.948       -2435.871           0.244  
> 2022 01 01 00 00 57.4688020  0  1                     
G05  20639098.740      -95300.476       -2435.873           0.244  
> 2022 01 01 00 00 57.5688020  0  1                     
G05  20639145.349      -95544.011       -2434.968           0.244  
> 2022 01 01 00 00 57.6688020  0  1                     
G05  20639191.675      -95787.549       -2435.487           0.244  
> 2022 01 01 00 00 57.7688020  0  1                     
G05  20639237.687      -96031.091       -2431.612           0.244  
> 2022 01 01 00 00 57.8688020  0  1                     
G05  20639284.545      -96274.636       -2437.068           0.244  
> 2022 01 01 00 00 57.9688020  0  1                     
G05  20639330.919      -96518.179       -2434.719           0.244  
> 2022 01 01 00 00 58.0688020  0  1                     
G05  20639377.001      -96761.728       -2433.894           0.244  
> 2022 01 01 00 00 58.1688020  0  1                     
G05  20639423.420      -97005.278       -2435.499           0.244  
> 2022 01 01 00 00 58.2688020  0  1                     
G05  20639469.901      -97248.833       -2435.176           0.244  
> 2022 01 01 00 00 58.3688020  0  1                     
G05  20639516.165      -97492.387       -2434.474           0.244  
> 2022 01 01 00 00 58.4688020  0  1                     
G05  20639561.913      -97735.944       -2434.238           0.244  
> 2022 01 01 00 00 58.5688020  0  1                     
G05  20639608.571      -97979.503       -2436.761           0.244  
> 2022 01 01 00 00 58.6688020  0  1                     
G05  20639654.808      -98223.065       -2435.445           0.244  
> 2022 01 01 00 00 58.7688020  0  1                     
G05  20639701.054      -98466.627       -2435.505           0.244  
> 2022 01 01 00 00 58.8688020  0  1                     
G05  20639747.885      -98710.197       -2436.867           0.244  
> 2022 01 01 00 00 58.9688020  0  1                     
G05  20639794.654      -98953.762       -2434.875           0.244  
> 2022 01 01 00 00 59.0688020  0  1                     
G05  20639840.654      -99197.335       -2435.804           0.244  
> 2022 01 01 00 00 59.1688020  0  1                     
G05  20639886.976      -99440.913       -2434.486           0.244  
> 2022 01 01 00 00 59.2688020  0  1                     
G05  20639932.938      -99684.490       -2435.854           0.244  
> 2022 01 01 00 00 59.3688020  0  1                     
G05  20639979.306      -99928.071       -2435.853           0.244  
> 2022 01 01 00 00 59.4688020  0  1                     
G05  20640026.423     -100171.647       -2435.146           0.244  
> 2022 01 01 00 00 59.5688020  0  1                     
G05  20640072.369     -100415.234       -2434.899           0.244  
> 2022 01 01 00 00 59.6688020  0  1                     
G05  20640119.149     -100658.821       -2436.345           0.244  
> 2022 01 01 00 00 59.7688020  0  1                     
G05  20640164.663     -100902.413       -2436.484           0.244  
> 2022 01 01 00 00 59.8688020  0  1                     
G05  20640211.700     -101146.003       -2437.043           0.244  
> 2022 01 01 00 00 59.9688020  0  1                     
G05  20640258.006     -101389.593       -2436.153           0.244  
> 2022 01 01 00 01 00.0688020  0  1                     
G05  20640304.029     -101633.188       -2435.714           0.244  
> 2022 01 01 00 01 00.1688020  0  1                     
G05  20640350.918     -101876.790       -2433.903           0.244  
> 2022 01 01 00 01 00.2688020  0  1                     
G05  20640397.403     -102120.393       -2434.531           0.244  
> 2022 01 01 00 01 00.3688020  0  1                     
G05  20640442.345     -102363.997       -2434.504           0.244  
> 2022 01 01 00 01 00.5688020  0  1                     
G05  20640535.937     -102851.218       -2432.620           0.244  
> 2022 01 01 00 01 00.6688020  0  1                     
G05  20640582.688     -103094.824       -2436.460           0.244  
> 2022 01 01 00 01 00.7688020  0  1                     
G05  20640627.372     -103338.438       -2435.553           0.244  
> 2022 01 01 00 01 00.8688020  0  1                     
G05  20640673.616     -103582.059       -2438.104           0.244  
> 2022 01 01 00 01 00.9688020  0  1                     
G05  20640720.404     -103825.680       -2436.266           0.244  
> 2022 01 01 00 01 01.0688020  0  1                     
G05  20640767.853     -104069.297       -2436.595           0.244  
> 2022 01 01 00 01 01.1688020  0  1                     
G05  20640813.838     -104312.924       -2437.532           0.244  
> 2022 01 01 00 01 01.2688020  0  1                     
G05  20640860.325     -104556.551       -2436.592           0.244  
> 2022 01 01 00 01 01.3688020  0  1                     
G05  20640907.631     -104800.183       -2435.181           0.244  
> 2022 01 01 00 01 01.4688020  0  1                     
G05  20640953.867     -105043.811       -2437.559           0.244  
> 2022 01 01 00 01 01.5688020  0  1                     
G05  20640998.273     -105287.448       -2433.784           0.244  
> 2022 01 01 00 01 01.6688020  0  1                     
G05  20641045.552     -105531.081       -2436.483           0.244  
> 2022 01 01 00 01 01.7688020  0  1                     
G05  20641091.402     -105774.725       -2434.660           0.244  
> 2022 01 01 00 01 01.8688020  0  1                     
G05  20641138.874     -106018.364       -2438.113           0.244  
> 2022 01 01 00 01 01.9688020  0  1                     
G05  20641184.611     -106262.013       -2435.738           0.244  
> 2022 01 01 00 01 02.0688020  0  1                     
G05  20641231.590     -106505.658       -2439.424           0.244  
> 2022 01 01 00 01 02.1688020  0  1                     
G05  20641276.902     -106749.298       -2433.716           0.244  
> 2022 01 01 00 01 02.2688020  0  1                     
G05  20641324.186     -106992.958       -2434.700           0.244  
> 2022 01 01 00 01 02.3688020  0  1                     
G05  20641370.186     -107236.610       -2436.977           0.244  
> 2022 01 01 00 01 02.4688020  0  1                     
G05  20641416.936     -107480.266       -2437.708           0.244  
> 2022 01 01 00 01 02.5688020  0  1                     
G05  20641464.537     -107723.931       -2435.376           0.244  
> 2022 01 01 00 01 02.6688020  0  1                     
G05  20641509.727     -107967.590       -2438.381           0.244  
> 2022 01 01 00 01 02.7688020  0  1                     
G05  20641555.797     -108211.258       -2435.780           0.244  
> 2022 01 01 00 01 02.8688020  0  1                     
G05  20641602.687     -108454.921       -2436.750           0.244  
> 2022 01 01 00 01 02.9688020  0  1                     
G05  20641649.743     -108698.593       -2434.328           0.244  
> 2022 01 01 00 01 03.0688020  0  1                     
G05  20641695.144     -108942.262       -2437.330           0.244  
> 2022 01 01 00 01 03.1688020  0  1                     
G05  20641742.565     -109185.942       -2439.069           0.244  
> 2022 01 01 00 01 03.2688020  0  1                     
G05  20641788.407     -109429.615       -2434.490           0.244  
> 2022 01 01 00 01 03.3688020  0  1                     
G05  20641834.358     -109673.298       -2437.172           0.244  
> 2022 01 01 00 01 03.4688020  0  1                     
G05  20641879.817     -109916.974       -2440.898           0.244  
> 2022 01 01 00 01 03.5688020  0  1                     
G05  20641927.049     -110160.653       -2431.049           0.244  
> 2022 01 01 00 01 03.6688020  0  1                     
G05  20641972.633     -110404.352       -2435.302           0.244  
> 2022 01 01 00 01 03.7688020  0  1                     
G05  20642019.327     -110648.044       -2441.167           0.244  
> 2022 01 01 00 01 03.8688020  0  1                     
G05  20642065.622     -110891.721       -2435.017           0.244  
> 2022 01 01 00 01 03.9688020  0  1                     
G05  20642112.330     -111135.426       -2435.841           0.244  
> 2022 01 01 00 01 04.0688020  0  1                     
G05  20642157.320     -111379.117       -2436.299           0.244  
> 2022 01 01 00 01 04.1688020  0  1                     
G05  20642203.869     -111622.818       -2435.884           0.244  
> 2022 01 01 00 01 04.2688020  0  1                     
G05  20642251.243     -111866.526       -2437.340           0.243  
> 2022 01 01 00 01 04.3688020  0  1                     
G05  20642297.061     -112110.227       -2438.301           0.244  
> 2022 01 01 00 01 04.4688020  0  1                     
G05  20642343.428     -112353.931       -2436.431           0.244  
> 2022 01 01 00 01 04.5688020  0  1                     
G05  20642389.693     -112597.634       -2434.600           0.244  
> 2022 01 01 00 01 04.6688020  0  1                     
G05  20642437.884     -112841.351       -2438.521           0.244  
> 2022 01 01 00 01 04.7688020  0  1                     
G05  20642483.923     -113085.065       -2438.006           0.244  
> 2022 01 01 00 01 04.8688020  0  1                     
G05  20642529.404     -113328.784       -2435.836           0.244  
> 2022 01 01 00 01 04.9688020  0  1                     
G05  20642576.680     -113572.506       -2438.335           0.244  
> 2022 01 01 00 01 05.0688020  0  1                     
G05  20642622.110     -113816.224       -2436.482           0.244  
> 2022 01 01 00 01 05.1688020  0  1                     
G05  20642668.595     -114059.948       -2437.445           0.244  
> 2022 01 01 00 01 05.2688020  0  1                     
G05  20642715.471     -114303.677       -2435.277           0.244  
> 2022 01 01 00 01 05.3688020  0  1                     
G05  20642761.794     -114547.409       -2437.008           0.244  
> 2022 01 01 00 01 05.4688020  0  1                     
G05  20642808.055     -114791.136       -2437.671           0.244  
> 2022 01 01 00 01 05.5688020  0  1                     
G05  20642852.934     -115034.871       -2437.160           0.244  
> 2022 01 01 00 01 05.6688020  0  1                     
G05  20642899.065     -115278.604       -2436.932           0.244  
> 2022 01 01 00 01 05.7688020  0  1                     
G05  20642947.010     -115522.349       -2436.749           0.244  
> 2022 01 01 00 01 05.8688020  0  1                     
G05  20642993.352     -115766.094       -2437.191           0.244  
> 2022 01 01 00 01 05.9688020  0  1                     
G05  20643040.980     -116009.837       -2437.660           0.244  
> 2022 01 01 00 01 06.0688020  0  2                     
G05  23374886.518     -116231.369       -2440.597           0.244  
G18  20626344.905       -5241.604        -514.837           0.255  
> 2022 01 01 00 01 06.0688020  0  3                     
G05  23374886.518     -116231.257       -2417.092           0.244  
G10  24322981.513      108324.366        2901.412           0.239  
G18  20626344.905                                           0.255  
> 2022 01 01 00 01 06.1688020  0  3                     
G05  23375079.299     -116474.735       -1561.508           0.244  
G10  24323073.752      108612.728        2891.204           0.239  
G18  20626500.997       -5293.077        -514.276           0.255  
> 2022 01 01 00 01 06.2688020  0  3                     
G05  23375127.402     -116718.865       -2436.952           0.244  
G10  24323019.576      108901.406        2793.155           0.239  
G18  20626510.757       -5344.554        -515.179           0.255  
> 2022 01 01 00 01 06.3688020  0  3                     
G05  23375173.435     -116962.457       -2356.590           0.244  
G10  24322964.857      109189.664        2360.198           0.239  
G18  20626520.634       -5396.035        -515.382           0.255  
> 2022 01 01 00 01 06.4688020  0  3                     
G05  23375219.637                                           0.244  
G10  24322910.291      109479.225        2886.208           0.239  
G18  20626530.414                                           0.255  
> 2022 01 01 00 01 06.5688020  0  3                     
G05  23375264.854     -117458.415      -13358.940           0.244  
G10  24322854.305      109767.758        2983.644           0.239  
G18  20626540.268       -5499.003        -601.821           0.255  
> 2022 01 01 00 01 06.6688020  0  3                     
G05  23375311.362     -117693.894       -2438.053           0.244  
G10  24322800.062      110056.139        2716.326           0.239  
G18  20626550.394       -5550.547        -522.611           0.255  
> 2022 01 01 00 01 06.7688020  0  3                     
G05  23375358.438     -117937.655       -2435.525           0.244  
G10  24322743.375      110344.875        2734.534           0.239  
G18  20626559.804       -5602.026        -507.380           0.255  
> 2022 01 01 00 01 06.8688020  0  3                     
G05  23375403.557     -118181.316       -2402.161           0.244  
G10  24322689.163      110634.063        2931.067           0.239  
G18  20626569.458                                           0.255  
> 2022 01 01 00 01 06.9688020  0  3                     
G05  23375449.145     -118425.191       -2437.500           0.244  
G10  24322633.411      110921.988        3346.799           0.239  
G18  20626579.828       -5705.077        -515.666           0.255  
> 2022 01 01 00 01 07.0688020  0  3                     
G05  23375494.205     -118668.903       -2431.097           0.244  
G10  24322579.737      111211.512        2921.591           0.239  
G18  20626589.344                                           0.255  
> 2022 01 01 00 01 07.1688020  0  3                     
G05  23375542.577     -118912.654       -2437.275           0.244  
G10  24322524.234      111500.205        2926.651           0.239  
G18  20626598.823                                           0.255  
> 2022 01 01 00 01 07.2688020  0  3                     
G05  23375589.421     -119156.557       -2510.714           0.244  
G10  24322468.378      111788.505        2450.091           0.240  
G18  20626609.039       -5859.690        -515.132           0.255  
> 2022 01 01 00 01 07.3688020  0  3                     
G05  23375637.458     -119400.355       -2647.456           0.244  
G10  24322414.500      112077.224        2853.975           0.239  
G18  20626618.254       -5911.240        -515.725           0.255  
> 2022 01 01 00 01 07.4688020  0  3                     
G05  23375682.958     -119644.090       -2462.728           0.244  
G10  24322359.753      112365.892        2878.083           0.239  
G18  20626628.593       -5962.797        -515.381           0.255  
> 2022 01 01 00 01 07.5688020  0  3                     
G05  23375728.038     -119887.797       -2300.454           0.244  
G10  24322303.804      112654.679        2914.249           0.239  
G18  20626638.533       -6014.330        -469.885           0.255  
> 2022 01 01 00 01 07.6688020  0  3                     
G05  23375774.328     -120131.711       -2524.413           0.244  
G10  24322249.153      112943.368        2881.541           0.239  
G18  20626648.244       -6065.927        -515.955           0.255  
> 2022 01 01 00 01 07.7688020  0  3                     
G05  23375821.032     -120375.371       -2454.545           0.244  
G10  24322194.605      113232.445        2806.435           0.239  
G18  20626658.057                                           0.255  
> 2022 01 01 00 01 07.8688020  0  3                     
G05  23375867.584     -120619.161       -2435.499           0.244  
G10  24322139.415                                           0.239  
G18  20626667.591                                           0.255  
> 2022 01 01 00 01 07.9688020  0  3                     
G05  23375914.270     -120863.322       -2735.775           0.244  
G10  24322084.532      113809.388        2468.718           0.239  
G18  20626677.631       -6220.683        -516.568           0.255  
> 2022 01 01 00 01 08.0688020  0  3                     
G05  23375960.478     -121106.369       -1869.319           0.244  
G10  24322028.515      114098.250        2884.437           0.239  
G18  20626687.305       -6272.300        -554.754           0.255  
> 2022 01 01 00 01 08.1688020  0  3                     
G05  23376005.885                                           0.244  
G10  24321974.743      114398.896        2898.694           0.239  
G18  20626696.587                                           0.255  
> 2022 01 01 00 01 08.2688020  0  3                     
G05  23376053.575     -121594.416       -2441.455           0.244  
G10  24321920.420      114675.834        3110.313           0.239  
G18  20626706.608       -6375.486        -492.570           0.255  
> 2022 01 01 00 01 08.3688020  0  3                     
G05  23376101.024     -121838.256       -2506.278           0.244  
G10  24321865.854      114964.444        2981.397           0.239  
G18  20626716.282       -6427.117        -516.622           0.255  
> 2022 01 01 00 01 08.4688020  0  3                     
G05  23376147.289     -122082.013       -2410.431           0.244  
G10  24321809.786      115253.141        2880.015           0.240  
G18  20626726.436       -6478.741        -516.520           0.255  
> 2022 01 01 00 01 08.5688020  0  3                     
G05  23376193.982     -122325.844       -2436.238           0.244  
G10  24321756.089      115541.862        2897.932           0.238  
G18  20626736.736       -6530.371        -517.174           0.255  
> 2022 01 01 00 01 08.6688020  0  3                     
G05  23376240.108     -122569.590       -2439.168           0.244  
G10  24321700.705                                           0.239  
G18  20626745.917                                           0.255  
> 2022 01 01 00 01 08.7688020  0  3                     
G05  23376285.345     -122812.959       -1362.530           0.244  
G10  24321645.800      116119.281        2869.537           0.239  
G18  20626756.380       -6633.647        -515.788           0.255  
> 2022 01 01 00 01 08.8688020  0  3                     
G05  23376331.723     -123057.215       -2438.127           0.244  
G10  24321590.418                                           0.239  
G18  20626766.300                                           0.255  
> 2022 01 01 00 01 08.9688020  0  3                     
G05  23376378.435     -123300.778       -1991.686           0.244  
G10  24321535.653      116696.691        3135.999           0.239  
G18  20626775.834       -6736.962        -516.543           0.255  
> 2022 01 01 00 01 09.0688020  0  3                     
G05  23376422.761     -123544.834       -2265.122           0.244  
G10  24321479.189      116985.474        2883.264           0.240  
G18  20626785.592       -6788.642        -510.414           0.255  
> 2022 01 01 00 01 09.1688020  0  3                     
G05  23376470.594     -123788.776       -2497.354           0.244  
G10  24321425.672      117274.195        2891.952           0.239  
G18  20626795.548       -6840.297        -510.723           0.255  
> 2022 01 01 00 01 09.2688020  0  3                     
G05  23376517.488     -124032.470       -2270.582           0.244  
G10  24321371.564      117562.940        2895.256           0.239  
G18  20626805.404       -6891.982        -519.533           0.255  
> 2022 01 01 00 01 09.3688020  0  3                     
G05  23376562.620     -124276.667       -2292.760           0.244  
G10  24321316.684      117851.656        2880.339           0.239  
G18  20626815.340       -6943.660        -508.182           0.255  
> 2022 01 01 00 01 09.4688020  0  3                     
G05  23376609.137     -124520.227       -2439.458           0.244  
G10  24321262.085      118140.413        2945.105           0.239  
G18  20626824.907       -6995.356        -522.618           0.255  
> 2022 01 01 00 01 09.5688020  0  3                     
G05  23376656.724     -124764.001       -2438.724           0.244  
G10  24321206.299                                           0.239  
G18  20626834.642                                           0.255  
> 2022 01 01 00 01 09.6688020  0  3                     
G05  23376703.250     -125007.835       -2441.206           0.244  
G10  24321151.115                                           0.239  
G18  20626844.493                                           0.255  
> 2022 01 01 00 01 09.7688020  0  3                     
G05  23376750.771     -125252.118       -3303.041           0.244  
G10  24321097.551      119006.580        2926.891           0.239  
G18  20626854.393       -7150.463        -516.604           0.255  
> 2022 01 01 00 01 09.8688020  0  3                     
G05  23376796.680     -125495.560       -2310.430           0.244  
G10  24321040.725      119295.326        2931.798           0.239  
G18  20626864.145       -7202.177        -516.310           0.255  
> 2022 01 01 00 01 09.9688020  0  3                     
G05  23376842.591     -125739.418       -2438.682           0.244  
G10  24320985.731      119583.944        2773.364           0.239  
G18  20626874.108       -7253.905        -516.070           0.255  
> 2022 01 01 00 01 10.0688020  0  3                     
G05  23376887.852                                           0.244  
G10  24320930.603                                           0.239  
G18  20626884.098                                           0.255  
> 2022 01 01 00 01 10.1688020  0  3                     
G05  23376933.819     -126227.115       -2420.600           0.244  
G10  24320875.601      120161.501        2897.111           0.239  
G18  20626894.020       -7357.377        -517.429           0.255  
> 2022 01 01 00 01 10.2688020  0  3                     
G05  23376981.088     -126470.994       -2442.677           0.244  
G10  24320819.963      120450.201        2831.276           0.239  
G18  20626903.896       -7409.125        -520.039           0.255  
> 2022 01 01 00 01 10.3688020  0  3                     
G05  23377029.240     -126714.206       -1610.767           0.244  
G10  24320763.857      120739.005        3544.259           0.239  
G18  20626914.081       -7460.875        -516.960           0.255  
> 2022 01 01 00 01 10.4688020  0  3                     
G05  23377071.633     -126958.619       -2438.374           0.244  
G10  24320710.297                                           0.239  
G18  20626923.280                                           0.255  
> 2022 01 01 00 01 10.6688020  0  3                     
G05  23377166.032     -127446.391       -2407.404           0.244  
G10  24320600.846      121605.402        3106.892           0.239  
G18  20626942.666       -7616.169        -516.790           0.255  
> 2022 01 01 00 01 10.7688020  0  3                     
G05  23377213.063     -127690.268       -2422.246           0.244  
G10  24320545.285      121893.892        2906.151           0.239  
G18  20626953.062       -7667.944        -517.886           0.255  
> 2022 01 01 00 01 10.8688020  0  3                     
G05  23377260.407     -127934.131       -2434.906           0.244  
G10  24320492.526      122182.619        2879.711           0.239  
G18  20626962.786       -7719.726        -518.922           0.255  
> 2022 01 01 00 01 10.9688020  0  3                     
G05  23377307.061     -128177.986       -2420.768           0.244  
G10  24320437.241      122471.395        2909.396           0.239  
G18  20626972.924       -7771.519        -517.396           0.255  
> 2022 01 01 00 01 11.0688020  0  3                     
G05  23377352.450     -128421.507       -1642.944           0.244  
G10  24320382.515      122760.116        2894.584           0.239  
G18  20626982.618       -7823.371        -575.288           0.255  
> 2022 01 01 00 01 11.1688020  0  3                     
G05  23377399.528     -128665.679       -2436.723           0.244  
G10  24320326.872                                           0.239  
G18  20626992.561                                           0.255  
> 2022 01 01 00 01 11.2688020  0  3                     
G05  23377444.449     -128909.563       -2438.199           0.244  
G10  24320272.153                                           0.238  
G18  20627002.297                                           0.255  
> 2022 01 01 00 01 11.3688020  0  3                     
G05  23377489.993                                           0.244  
G10  24320217.280      123638.234        2886.719           0.239  
G18  20627011.486                                           0.255  
> 2022 01 01 00 01 11.4688020  0  3                     
G05  23377537.257     -129397.334       -2370.008           0.244  
G10  24320162.584      123915.056        2686.196           0.239  
G18  20627021.931       -8030.585        -519.255           0.255  
> 2022 01 01 00 01 11.5688020  0  3                     
G05  23377584.368     -129641.223       -2376.548           0.244  
G10  24320107.437      124203.793        2863.604           0.239  
G18  20627031.620       -8082.410        -508.720           0.255  
> 2022 01 01 00 01 11.6688020  0  3                     
G05  23377631.269     -129885.141       -2437.777           0.244  
G10  24320052.175      124492.571        2923.729           0.239  
G18  20627041.558       -8134.254        -517.420           0.255  
> 2022 01 01 00 01 11.7688020  0  3                     
G05  23377677.613                                           0.244  
G10  24319997.080      124781.671        2917.649           0.239  
G18  20627051.510                                           0.255  
> 2022 01 01 00 01 11.8688020  0  3                     
G05  23377723.928                                           0.244  
G10  24319942.845                                           0.239  
G18  20627061.693                                           0.255  
> 2022 01 01 00 01 12.0688020  0  3                     
G05  23377817.852     -130860.710       -2437.998           0.244  
G10  24319831.656      125647.542        2905.803           0.239  
G18  20627081.391       -8341.669        -517.946           0.255  
> 2022 01 01 00 01 12.1688020  0  3                     
G05  23377863.361     -131104.762       -2642.325           0.244  
G10  24319777.159      125936.308        2904.021           0.239  
G18  20627091.340       -8393.542        -518.819           0.255  
> 2022 01 01 00 01 12.2688020  0  3                     
G05  23377909.539     -131348.506       -2437.787           0.244  
G10  24319722.611      126224.982        2789.661           0.239  
G18  20627101.192       -8445.377        -465.208           0.255  
> 2022 01 01 00 01 12.3688020  0  3                     
G05  23377956.321     -131592.413       -2442.392           0.244  
G10  24319667.862      126513.722        2838.035           0.239  
G18  20627110.992       -8497.288        -517.157           0.255  
> 2022 01 01 00 01 12.4688020  0  3                     
G05  23378002.243     -131836.321       -2436.104           0.244  
G10  24319611.975      126802.512        2876.337           0.239  
G18  20627120.707       -8549.191        -527.451           0.255  
> 2022 01 01 00 01 12.5688020  0  3                     
G05  23378049.534     -132080.179       -2436.500           0.244  
G10  24319556.922                                           0.239  
G18  20627130.503                                           0.255  
> 2022 01 01 00 01 12.6688020  0  3                     
G05  23378095.643                                           0.244  
G10  24319502.817      127380.385        2932.112           0.239  
G18  20627139.861                                           0.255  
> 2022 01 01 00 01 12.7688020  0  3                     
G05  23378141.645     -132568.659       -3380.766           0.244  
G10  24319446.091      127668.761        2867.918           0.239  
G18  20627150.347       -8704.913        -516.796           0.255  
> 2022 01 01 00 01 12.8688020  0  3                     
G05  23378187.434     -132811.628       -1610.875           0.244  
G10  24319391.706      127957.994        3330.913           0.239  
G18  20627160.305       -8756.830        -519.829           0.255  
> 2022 01 01 00 01 12.9688020  0  3                     
G05  23378235.085     -133055.838       -2439.842           0.244  
G10  24319337.392                                           0.239  
G18  20627170.219                                           0.255  
> 2022 01 01 00 01 13.0688020  0  3                     
G05  23378280.984     -133299.812       -2440.914           0.243  
G10  24319282.454      128534.863        2361.267           0.239  
G18  20627180.113       -8860.747        -564.858           0.255  
> 2022 01 01 00 01 13.1688020  0  3                     
G05  23378327.817     -133543.731       -2441.094           0.244  
G10  24319227.063      128823.780        2907.543           0.239  
G18  20627189.833       -8912.629        -519.608           0.255  
> 2022 01 01 00 01 13.2688020  0  3                     
G05  23378374.797     -133787.656       -2436.632           0.244  
G10  24319172.786      129112.521        2907.262           0.239  
G18  20627199.485       -8964.574        -515.513           0.255  
> 2022 01 01 00 01 13.3688020  0  3                     
G05  23378421.021     -134031.537       -2438.665           0.244  
G10  24319116.638      129401.612        2877.875           0.239  
G18  20627209.685                                           0.255  
> 2022 01 01 00 01 13.4688020  0  3                     
G05  23378466.986     -134275.462       -1993.985           0.244  
G10  24319063.250      129690.010        2887.146           0.239  
G18  20627219.427       -9068.479        -512.443           0.255  
> 2022 01 01 00 01 13.6688020  0  3                     
G05  23378559.612     -134763.502       -2413.487           0.244  
G10  24318953.593      130267.534        2848.599           0.239  
G18  20627239.599       -9172.425        -520.140           0.255  
> 2022 01 01 00 01 13.7688020  0  3                     
G05  23378605.868     -135007.324       -2440.524           0.244  
G10  24318897.843      130556.307        2887.364           0.239  
G18  20627249.623       -9224.403        -518.699           0.255  
> 2022 01 01 00 01 13.8688020  0  3                     
G05  23378652.150     -135251.327       -2527.229           0.244  
G10  24318844.472      130845.056        2918.643           0.239  
G18  20627259.471       -9276.387        -519.063           0.255  
> 2022 01 01 00 01 13.9688020  0  3                     
G05  23378698.691     -135495.198       -2424.664           0.244  
G10  24318789.218      131133.779        2824.113           0.239  
G18  20627269.168       -9328.377        -519.826           0.255  
> 2022 01 01 00 01 14.0688020  0  3                     
G05  23378745.666     -135739.114       -2436.572           0.244  
G10  24318732.977      131422.910        2906.793           0.239  
G18  20627278.841                                           0.255  
> 2022 01 01 00 01 14.1688020  0  3                     
G05  23378791.796     -135983.057       -2432.061           0.244  
G10  24318678.147      131711.658        2876.711           0.239  
G18  20627288.713                                           0.255  
> 2022 01 01 00 01 14.2688020  0  3                     
G05  23378838.273     -136227.025       -2472.350           0.244  
G10  24318622.870      132000.412        2863.607           0.239  
G18  20627298.340                                           0.255  
> 2022 01 01 00 01 14.3688020  0  3                     
G05  23378884.687     -136470.960       -2438.576           0.244  
G10  24318568.067      132289.167        2898.982           0.239  
G18  20627308.797                                           0.255  
> 2022 01 01 00 01 14.4688020  0  3                     
G05  23378931.548     -136744.178       -2435.557           0.244  
G10  24318513.416      132577.925        2876.676           0.239  
G18  20627318.093                                           0.255  
> 2022 01 01 00 01 14.5688020  0  3                     
G05  23378977.519     -136958.873       -2438.543           0.244  
G10  24318458.154                                           0.239  
G18  20627328.414                                           0.255  
> 2022 01 01 00 01 14.8688020  0  3                     
G05  23379116.771     -137690.805       -2432.908           0.244  
G10  24318293.981      133732.661        2885.269           0.239  
G18  20627357.956       -9796.613        -521.294           0.255  
> 2022 01 01 00 01 14.9688020  0  3                     
G05  23379163.599                                           0.244  
G10  24318239.258      134021.785        2928.717           0.239  
G18  20627368.088                                           0.255  
> 2022 01 01 00 01 15.0688020  0  3                     
G05  23379208.845     -138178.744       -2443.744           0.244  
G10  24318183.937      134310.171        2853.852           0.239  
G18  20627378.118       -9900.736        -520.654           0.255  
> 2022 01 01 00 01 15.1688020  0  3                     
G05  23379255.160     -138422.568       -1970.008           0.244  
G10  24318129.411      134598.944        2894.994           0.239  
G18  20627387.970       -9952.810        -522.529           0.255  
> 2022 01 01 00 01 15.3688020  0  3                     
G05  23379349.685     -138910.671       -2438.554           0.244  
G10  24318017.946      135176.674        2981.807           0.239  
G18  20627407.745      -10056.944        -499.381           0.255  
> 2022 01 01 00 01 15.4688020  0  3                     
G05  23379395.065     -139154.656       -2440.583           0.244  
G10  24317963.456      135465.310        2888.529           0.239  
G18  20627417.871      -10109.072        -521.953           0.255  
> 2022 01 01 00 01 15.5688020  0  3                     
G05  23379441.619     -139398.640       -2417.840           0.244  
G10  24317909.354      135754.011        2886.214           0.239  
G18  20627427.192      -10161.168        -479.763           0.255  
> 2022 01 01 00 01 15.6688020  0  3                     
G05  23379487.949     -139642.622       -2439.125           0.244  
G10  24317854.063      136042.797        2891.222           0.239  
G18  20627437.052      -10213.278        -520.351           0.255  
> 2022 01 01 00 01 15.7688020  0  3                     
G05  23379533.780     -139886.610       -2438.873           0.244  
G10  24317800.871      136330.258        2413.765           0.239  
G18  20627447.273      -10265.389        -521.207           0.255  
> 2022 01 01 00 01 15.8688020  0  3                     
G05  23379579.972     -140130.598       -2436.813           0.244  
G10  24317744.989      136620.105         643.131           0.239  
G18  20627456.965      -10317.508        -521.700           0.255  
> 2022 01 01 00 01 15.9688020  0  3                     
G05  23379625.747                                           0.244  
G10  24317688.527      136909.423        2859.303           0.239  
G18  20627467.221                                           0.255  
> 2022 01 01 00 01 16.0688020  0  3                     
G05  23379673.662     -140618.581       -2439.239           0.244  
G10  24317634.453      137197.940        2221.943           0.239  
G18  20627477.109      -10421.763        -521.372           0.255  
> 2022 01 01 00 01 16.1688020  0  3                     
G05  23379718.956                                           0.244  
G10  24317580.189      137498.518        2881.546           0.239  
G18  20627487.010                                           0.255  
> 2022 01 01 00 01 16.2688020  0  3                     
G05  23379766.192     -141106.630       -2510.115           0.244  
G10  24317525.297      137775.435        2913.114           0.239  
G18  20627497.008      -10526.056        -541.503           0.255  
> 2022 01 01 00 01 16.3688020  0  3                     
G05  23379811.410     -141350.592       -2458.512           0.244  
G10  24317469.456      138064.190        2870.159           0.239  
G18  20627506.935      -10578.244        -557.427           0.255  
> 2022 01 01 00 01 16.4688020  0  3                     
G05  23379859.024     -141594.593       -2446.560           0.243  
G10  24317415.663      138352.958        2912.412           0.239  
G18  20627516.595      -10630.371        -523.873           0.255  
> 2022 01 01 00 01 16.5688020  0  3                     
G05  23379904.456     -141838.598       -2437.433           0.244  
G10  24317359.463      138641.742        3494.054           0.239  
G18  20627526.650      -10682.535        -521.459           0.255  
> 2022 01 01 00 01 16.6688020  0  3                     
G05  23379952.000     -142082.572       -2631.602           0.244  
G10  24317305.130      138930.510        2872.109           0.239  
G18  20627536.703      -10734.707        -520.748           0.255  
> 2022 01 01 00 01 16.7688020  0  3                     
G05  23379998.150                                           0.244  
G10  24317251.288      139219.592        2887.275           0.239  
G18  20627546.626                                           0.255  
> 2022 01 01 00 01 16.8688020  0  3                     
G05  23380045.405     -142570.612       -2438.419           0.244  
G10  24317195.322                                           0.239  
G18  20627556.493                                           0.255  
> 2022 01 01 00 01 16.9688020  0  3                     
G05  23380091.801     -142814.636       -2439.861           0.243  
G10  24317140.261                                           0.239  
G18  20627566.262                                           0.255  
> 2022 01 01 00 01 17.0688020  0  3                     
G05  23380138.516     -143058.638       -2444.195           0.244  
G10  24317086.023      140085.482        2644.616           0.239  
G18  20627576.267      -10943.460        -521.940           0.255  
> 2022 01 01 00 01 17.1688020  0  3                     
G05  23380186.409     -143302.740       -2457.611           0.244  
G10  24317030.276      140374.389        2854.099           0.239  
G18  20627586.336      -10995.678        -542.867           0.255  
> 2022 01 01 00 01 17.2688020  0  3                     
G05  23380230.770     -143546.733       -2437.756           0.243  
G10  24316974.919      140663.176        2877.317           0.239  
G18  20627596.351      -11047.880        -520.580           0.255  
> 2022 01 01 00 01 17.3688020  0  3                     
G05  23380279.280     -143790.734       -2440.447           0.244  
G10  24316920.462                                           0.239  
G18  20627606.207                                           0.255  
> 2022 01 01 00 01 17.4688020  0  3                     
G05  23380324.806                                           0.244  
G10  24316868.022      141241.074        2915.030           0.239  
G18  20627615.911                                           0.255  
> 2022 01 01 00 01 17.5688020  0  3                     
G05  23380370.714     -144278.735       -2498.322           0.244  
G10  24316810.730      141529.535        2888.550           0.239  
G18  20627626.029      -11204.504        -382.002           0.255  
> 2022 01 01 00 01 17.6688020  0  3                     
G05  23380416.124     -144522.358       -1927.500           0.244  
G10  24316756.277      141818.310        2888.958           0.239  
G18  20627636.246      -11256.805        -522.338           0.255  
> 2022 01 01 00 01 17.7688020  0  3                     
G05  23380461.970     -144766.867       -2438.783           0.244  
G10  24316701.270                                           0.239  
G18  20627646.339                                           0.255  
> 2022 01 01 00 01 17.8688020  0  3                     
G05  23380508.631     -145010.941       -2438.096           0.244  
G10  24316646.937      142395.827        2886.753           0.239  
G18  20627656.358      -11361.295        -492.016           0.255  
> 2022 01 01 00 01 17.9688020  0  3                     
G05  23380555.640     -145254.982       -2437.747           0.244  
G10  24316591.122      142684.621        2845.893           0.239  
G18  20627666.302      -11413.547        -496.826           0.255  
> 2022 01 01 00 01 18.0688020  0  3                     
G05  23380603.258     -145499.029       -2438.828           0.244  
G10  24316534.978      142973.467        2906.537           0.239  
G18  20627676.294      -11465.824        -523.649           0.255  
> 2022 01 01 00 01 18.1688020  0  3                     
G05  23380649.415     -145743.095       -2305.896           0.244  
G10  24316480.626      143262.234        2900.983           0.239  
G18  20627685.960      -11518.094        -523.048           0.255  
> 2022 01 01 00 01 18.2688020  0  3                     
G05  23380694.750     -145987.803       -3368.930           0.244  
G10  24316425.327      143551.014        2896.621           0.239  
G18  20627696.255      -11570.377        -522.540           0.255  
> 2022 01 01 00 01 18.3688020  0  3                     
G05  23380741.253     -146230.590       -1906.644           0.244  
G10  24316370.823      143839.792        2878.671           0.239  
G18  20627705.881      -11622.666        -523.363           0.255  
> 2022 01 01 00 01 18.5688020  0  3                     
G05  23380834.195     -146719.381       -2576.659           0.244  
G10  24316260.394      144416.903        2442.914           0.239  
G18  20627725.489      -11727.263        -523.263           0.255  
> 2022 01 01 00 01 18.6688020  0  3                     
G05  23380880.381     -146963.275       -2236.065           0.244  
G10  24316206.076      144706.236        2948.417           0.239  
G18  20627736.031      -11779.567        -523.376           0.255  
> 2022 01 01 00 01 18.7688020  0  3                     
G05  23380927.653     -147207.388       -2382.952           0.244  
G10  24316150.515      144994.947        2892.432           0.239  
G18  20627745.222      -11831.863        -495.317           0.255  
> 2022 01 01 00 01 18.8688020  0  3                     
G05  23380973.954     -147451.459       -2476.637           0.244  
G10  24316095.431      145284.019        2899.676           0.239  
G18  20627754.900                                           0.255  
> 2022 01 01 00 01 18.9688020  0  3                     
G05  23381019.848     -147695.547       -2441.591           0.244  
G10  24316040.561      145572.331        2707.396           0.239  
G18  20627765.424      -11936.528        -522.803           0.255  
> 2022 01 01 00 01 19.0688020  0  3                     
G05  23381066.844     -147939.730       -2753.816           0.244  
G10  24315985.569      145861.343        2905.614           0.239  
G18  20627775.221      -11988.856        -523.104           0.255  
> 2022 01 01 00 01 19.1688020  0  3                     
G05  23381112.659     -148183.660       -2867.719           0.244  
G10  24315930.020      146150.122        2900.877           0.239  
G18  20627785.186      -12041.286        -630.266           0.255  
> 2022 01 01 00 01 19.2688020  0  3                     
G05  23381159.337     -148427.739       -2440.612           0.244  
G10  24315875.553                                           0.239  
G18  20627795.311                                           0.255  
> 2022 01 01 00 01 19.3688020  0  3                     
G05  23381206.569     -148671.826       -2441.280           0.244  
G10  24315820.914                                           0.239  
G18  20627805.224                                           0.255  
> 2022 01 01 00 01 19.4688020  0  3                     
G05  23381252.579     -148915.926       -2442.063           0.244  
G10  24315766.097      147016.403        2623.300           0.239  
G18  20627815.065      -12198.295        -552.127           0.255  
> 2022 01 01 00 01 19.5688020  0  3                     
G05  23381299.316     -149160.007       -2438.769           0.244  
G10  24315710.750      147305.330        2919.603           0.239  
G18  20627825.477      -12250.637        -515.360           0.255  
> 2022 01 01 00 01 19.7688020  0  3                     
G05  23381391.924     -149648.666       -3883.491           0.244  
G10  24315600.379      147882.880        2872.961           0.239  
G18  20627845.189      -12355.382        -523.277           0.255  
> 2022 01 01 00 01 20.0688020  0  3                     
G05  23381532.234     -150380.459       -2441.571           0.244  
G10  24315436.460      148749.276        2884.074           0.239  
G18  20627874.916      -12512.555        -524.883           0.255  
> 2022 01 01 00 01 20.1688020  0  3                     
G05  23381577.788     -150624.541       -2439.521           0.244  
G10  24315381.651                                           0.239  
G18  20627885.217                                           0.255  
> 2022 01 01 00 01 20.2688020  0  3                     
G05  23381623.666     -150868.544       -2254.900           0.244  
G10  24315327.234      149326.885        2922.783           0.239  
G18  20627895.214      -12617.376        -524.819           0.255  
> 2022 01 01 00 01 20.3688020  0  3                     
G05  23381670.821     -151112.761       -2441.095           0.244  
G10  24315270.379      149615.671        2801.633           0.239  
G18  20627903.972      -12669.785        -499.169           0.255  
> 2022 01 01 00 01 20.6688020  0  3                     
G05  23381809.810     -151845.093       -2448.970           0.244  
G10  24315106.302      150482.352        2867.975           0.239  
G18  20627934.521                                           0.255  
> 2022 01 01 00 01 20.7688020  0  3                     
G05  23381856.177     -152089.531       -3169.212           0.244  
G10  24315051.688      150770.884        2917.433           0.239  
G18  20627944.965      -12879.552        -523.842           0.255  
> 2022 01 01 00 01 20.8688020  0  3                     
G05  23381902.808     -152333.312       -2439.932           0.244  
G10  24314996.002      151060.248        3331.596           0.239  
G18  20627955.161      -12932.006        -479.274           0.255  
> 2022 01 01 00 01 20.9688020  0  3                     
G05  23381948.967     -152577.411       -2440.959           0.244  
G10  24314941.709                                           0.239  
G18  20627964.601                                           0.255  
> 2022 01 01 00 01 21.0688020  0  3                     
G05  23381995.870     -152821.547       -2441.390           0.244  
G10  24314885.436      151637.204        3018.183           0.239  
G18  20627974.162      -13036.933        -525.307           0.255  
> 2022 01 01 00 01 21.1688020  0  3                     
G05  23382042.276     -153065.672       -2442.123           0.244  
G10  24314831.680      151925.995        2793.893           0.239  
G18  20627984.269      -13089.431        -541.863           0.255  
> 2022 01 01 00 01 21.2688020  0  3                     
G05  23382088.825     -153309.743       -2404.956           0.244  
G10  24314777.021      152215.163        2812.528           0.239  
G18  20627994.537                                           0.255  
> 2022 01 01 00 01 21.3688020  0  3                     
G05  23382135.193     -153553.917       -2439.651           0.244  
G10  24314721.211      152503.757        2999.503           0.239  
G18  20628004.790      -13194.367        -524.310           0.255  
> 2022 01 01 00 01 21.4688020  0  3                     
G05  23382181.638                                           0.244  
G10  24314666.432      152792.834        2882.225           0.239  
G18  20628014.858                                           0.255  
> 2022 01 01 00 01 21.5688020  0  3                     
G05  23382228.021     -154042.195       -2449.046           0.244  
G10  24314610.511      153081.644        2916.540           0.239  
G18  20628024.806                                           0.255  
> 2022 01 01 00 01 21.6688020  0  3                     
G05  23382274.532     -154286.252       -2164.445           0.244  
G10  24314555.989      153370.144        2914.389           0.239  
G18  20628034.519      -13351.871        -529.743           0.255  
> 2022 01 01 00 01 21.7688020  0  3                     
G05  23382321.437     -154530.441       -2439.971           0.244  
G10  24314501.840                                           0.239  
G18  20628044.779                                           0.255  
> 2022 01 01 00 01 21.8688020  0  3                     
G05  23382367.577     -154774.594       -2439.653           0.244  
G10  24314447.030      153947.620        2798.696           0.239  
G18  20628054.787      -13456.886        -473.687           0.255  
> 2022 01 01 00 01 21.9688020  0  3                     
G05  23382414.248     -155018.735       -2439.607           0.244  
G10  24314392.381      154236.567        2876.920           0.239  
G18  20628064.765      -13509.467        -564.653           0.255  
> 2022 01 01 00 01 22.0688020  0  3                     
G05  23382460.291     -155262.887       -2446.427           0.244  
G10  24314336.865      154525.408        2900.607           0.239  
G18  20628074.709      -13561.966        -524.178           0.255  
> 2022 01 01 00 01 22.3688020  0  3                     
G05  23382600.174     -155995.405       -2591.434           0.244  
G10  24314172.151      155391.981        2271.399           0.239  
G18  20628104.798      -13719.604        -525.539           0.255  
> 2022 01 01 00 01 22.4688020  0  3                     
G05  23382646.557     -156239.440       -2402.265           0.244  
G10  24314116.720      155680.763        3162.105           0.239  
G18  20628114.563      -13772.168        -525.351           0.255  
> 2022 01 01 00 01 22.5688020  0  3                     
G05  23382692.624     -156483.634       -2440.119           0.244  
G10  24314061.589                                           0.239  
G18  20628124.989                                           0.255  
> 2022 01 01 00 01 22.6688020  0  3                     
G05  23382740.229     -156727.680       -2160.555           0.244  
G10  24314007.682      156258.254        2893.362           0.239  
G18  20628134.742      -13877.390        -664.464           0.255  
> 2022 01 01 00 01 22.7688020  0  3                     
G05  23382786.780     -156972.022       -2534.522           0.244  
G10  24313951.429      156547.064        2883.939           0.239  
G18  20628144.487      -13929.923        -571.243           0.255  
> 2022 01 01 00 01 22.8688020  0  3                     
G05  23382831.523     -157216.128       -2426.692           0.244  
G10  24313897.090      156835.898        2900.723           0.239  
G18  20628155.404      -13982.481        -523.164           0.255  
> 2022 01 01 00 01 22.9688020  0  3                     
G05  23382878.628     -157460.292       -2439.906           0.244  
G10  24313842.187                                           0.239  
G18  20628165.002                                           0.255  
> 2022 01 01 00 01 23.0688020  0  3                     
G05  23382925.505                                           0.244  
G10  24313787.844                                           0.239  
G18  20628174.542                                           0.255  
> 2022 01 01 00 01 23.1688020  0  3                     
G05  23382970.944     -157948.024       -1760.300           0.244  
G10  24313732.590      157702.351        2890.306           0.239  
G18  20628184.966      -14140.221        -474.330           0.255  
> 2022 01 01 00 01 23.2688020  0  3                     
G05  23383017.457     -158193.080       -2495.532           0.244  
G10  24313676.954      157991.023        2794.000           0.239  
G18  20628194.871      -14192.895        -524.835           0.255  
> 2022 01 01 00 01 23.3688020  0  3                     
G05  23383064.208     -158437.007       -2444.941           0.244  
G10  24313621.965      158279.550        2530.341           0.239  
G18  20628204.844      -14245.512        -526.874           0.255  
> 2022 01 01 00 01 23.4688020  0  3                     
G05  23383110.004     -158681.177       -2441.950           0.244  
G10  24313567.717      158568.586        2412.385           0.239  
G18  20628215.106      -14298.241        -699.430           0.255  
> 2022 01 01 00 01 23.5688020  0  3                     
G05  23383156.875     -158925.341       -2440.291           0.244  
G10  24313511.656      158857.666        2969.055           0.239  
G18  20628225.005      -14350.782        -524.904           0.255  
> 2022 01 01 00 01 23.6688020  0  3                     
G05  23383203.885     -159169.537       -2437.954           0.244  
G10  24313456.908      159146.469        2910.664           0.239  
G18  20628235.082      -14403.420        -527.234           0.255  
> 2022 01 01 00 01 23.8688020  0  3                     
G05  23383296.888     -159657.924       -2439.715           0.244  
G10  24313347.496      159724.400        3442.056           0.239  
G18  20628255.023      -14508.729        -524.518           0.255  
> 2022 01 01 00 01 23.9688020  0  3                     
G05  23383343.263                                           0.244  
G10  24313291.000      160013.204        2896.757           0.239  
G18  20628264.876                                           0.255  
> 2022 01 01 00 01 24.1688020  0  3                     
G05  23383436.753     -160390.344       -2212.925           0.244  
G10  24313183.564      160590.562        2867.336           0.239  
G18  20628285.019      -14666.808        -692.772           0.255  
> 2022 01 01 00 01 24.2688020  0  3                     
G05  23383482.591     -160634.691       -2254.389           0.244  
G10  24313128.969      160879.416        2908.334           0.239  
G18  20628295.265      -14719.318        -341.860           0.255  
> 2022 01 01 00 01 24.3688020  0  3                     
G05  23383529.023     -160878.917       -2554.275           0.244  
G10  24313073.412      161168.213        2867.827           0.239  
G18  20628304.946      -14772.101        -534.656           0.255  
> 2022 01 01 00 01 24.4688020  0  3                     
G05  23383576.170     -161230.572       -2387.839           0.244  
G10  24313018.312      161457.325        2895.121           0.239  
G18  20628314.998                                           0.255  
> 2022 01 01 00 01 24.5688020  0  3                     
G05  23383622.024     -161367.320       -2441.989           0.244  
G10  24312962.578                                           0.239  
G18  20628325.100                                           0.255  
> 2022 01 01 00 01 24.6688020  0  3                     
G05  23383667.603     -161611.288       -1929.342           0.244  
G10  24312907.273      162034.701        2882.055           0.239  
G18  20628334.826      -14930.221        -558.323           0.255  
> 2022 01 01 00 01 24.7688020  0  3                     
G05  23383714.763     -161855.737       -2579.823           0.244  
G10  24312852.297      162323.535        2880.377           0.239  
G18  20628344.138      -14982.919        -528.138           0.255  
> 2022 01 01 00 01 24.8688020  0  3                     
G05  23383762.000                                           0.244  
G10  24312797.500      162612.653        2894.407           0.239  
G18  20628354.963                                           0.255  
> 2022 01 01 00 01 24.9688020  0  3                     
G05  23383806.697                                           0.244  
G10  24312742.885      162913.030        2884.010           0.239  
G18  20628365.096                                           0.255  
> 2022 01 01 00 01 25.0688020  0  3                     
G05  23383852.896     -162588.398       -2441.303           0.244  
G10  24312686.951      163190.088        3019.617           0.239  
G18  20628375.057      -15141.171        -634.947           0.255  
> 2022 01 01 00 01 25.1688020  0  3                     
G05  23383901.293     -162832.585       -2446.002           0.244  
G10  24312632.876      163478.797        2811.608           0.239  
G18  20628385.579      -15193.843        -526.327           0.255  
> 2022 01 01 00 01 25.2688020  0  3                     
G05  23383947.456     -163076.842       -2435.900           0.244  
G10  24312577.842      163767.689        2885.110           0.239  
G18  20628395.619      -15246.587        -525.440           0.255  
> 2022 01 01 00 01 25.3688020  0  3                     
G05  23383991.719                                           0.244  
G10  24312522.679      164056.810        2864.708           0.239  
G18  20628405.278                                           0.255  
> 2022 01 01 00 01 25.4688020  0  3                     
G05  23384039.581                                           0.244  
G10  24312466.476      164357.194        2902.977           0.239  
G18  20628415.609                                           0.255  
> 2022 01 01 00 01 25.5688020  0  3                     
G05  23384085.102     -163809.519       -2411.554           0.244  
G10  24312413.797      164634.461        2855.991           0.239  
G18  20628425.363                                           0.255  
> 2022 01 01 00 01 25.6688020  0  3                     
G05  23384133.704                                           0.244  
G10  24312358.839      164923.300        2885.556           0.239  
G18  20628434.987                                           0.255  
> 2022 01 01 00 01 25.7688020  0  3                     
G05  23384180.095     -164298.004       -2443.021           0.244  
G10  24312302.100      165211.951        2397.420           0.239  
G18  20628445.120      -15510.440        -585.220           0.255  
> 2022 01 01 00 01 25.8688020  0  3                     
G05  23384225.486     -164542.253       -2457.495           0.244  
G10  24312248.174      165500.680        2869.482           0.239  
G18  20628455.685      -15563.149        -480.465           0.255  
> 2022 01 01 00 01 25.9688020  0  3                     
G05  23384272.584     -164786.485       -2439.559           0.244  
G10  24312193.526      165789.423        2743.743           0.239  
G18  20628465.526      -15616.009        -502.162           0.255  
> 2022 01 01 00 01 26.0688020  0  3                     
G05  23384318.943     -165030.736       -2448.983           0.244  
G10  24312138.762      166078.381        2871.106           0.239  
G18  20628475.712      -15668.820        -524.992           0.255  
> 2022 01 01 00 01 26.1688020  0  3                     
G05  23384365.827     -165274.971       -2443.540           0.244  
G10  24312083.547      166367.070        4481.394           0.239  
G18  20628485.822      -15721.632        -544.984           0.255  
> 2022 01 01 00 01 26.4688020  0  3                     
G05  23384504.944     -166007.750       -2473.327           0.244  
G10  24311918.275      167233.356        2619.576           0.239  
G18  20628515.979      -15880.085        -528.135           0.255  
> 2022 01 01 00 01 26.5688020  0  3                     
G05  23384551.895                                           0.244  
G10  24311862.668      167534.409        2888.860           0.239  
G18  20628525.900                                           0.255  
> 2022 01 01 00 01 26.6688020  0  3                     
G05  23384597.948     -166496.094       -2217.939           0.244  
G10  24311808.289      167811.422        2874.721           0.239  
G18  20628536.020      -15985.739        -520.408           0.255  
> 2022 01 01 00 01 26.7688020  0  3                     
G05  23384644.150     -166740.577       -2549.302           0.244  
G10  24311753.934      168100.269        2893.114           0.239  
G18  20628546.225      -16038.634        -562.393           0.255  
> 2022 01 01 00 01 26.8688020  0  3                     
G05  23384690.631     -166984.813       -2586.233           0.244  
G10  24311698.199      168389.081        2839.425           0.239  
G18  20628556.126      -16091.478        -512.237           0.255  
> 2022 01 01 00 01 26.9688020  0  3                     
G05  23384736.979     -167229.053       -2434.049           0.244  
G10  24311644.014      168678.212        2891.061           0.239  
G18  20628566.204                                           0.255  
> 2022 01 01 00 01 27.0688020  0  3                     
G05  23384784.071                                           0.244  
G10  24311588.626      168967.055        2872.698           0.239  
G18  20628576.229                                           0.255  
> 2022 01 01 00 01 27.2688020  0  3                     
G05  23384877.098     -167961.865       -2441.881           0.244  
G10  24311478.828                                           0.239  
G18  20628596.299                                           0.255  
> 2022 01 01 00 01 27.3688020  0  3                     
G05  23384922.791     -168206.139       -2440.150           0.244  
G10  24311423.177                                           0.239  
G18  20628606.259                                           0.255  
> 2022 01 01 00 01 27.4688020  0  3                     
G05  23384970.313     -168450.428       -2583.519           0.244  
G10  24311369.517      170122.169        2869.759           0.239  
G18  20628616.686      -16408.737        -528.832           0.255  
> 2022 01 01 00 01 27.5688020  0  3                     
G05  23385017.117     -168694.700       -2442.384           0.244  
G10  24311313.732      170411.026        2849.019           0.239  
G18  20628626.481      -16461.621        -517.113           0.255  
> 2022 01 01 00 01 27.6688020  0  3                     
G05  23385063.217     -168938.986       -2450.581           0.244  
G10  24311259.015      170699.860        2871.965           0.239  
G18  20628636.652      -16514.549        -531.813           0.255  
> 2022 01 01 00 01 27.8688020  0  3                     
G05  23385156.054                                           0.244  
G10  24311149.917      171277.794        2806.924           0.239  
G18  20628656.822                                           0.255  
> 2022 01 01 00 01 27.9688020  0  3                     
G05  23385203.291     -169671.853       -2445.095           0.244  
G10  24311094.064      171566.405        2923.811           0.239  
G18  20628666.931      -16673.256        -397.593           0.255  
> 2022 01 01 00 01 28.0688020  0  3                     
G05  23385249.084     -169916.140       -2449.998           0.244  
G10  24311038.928      171855.277        2897.996           0.239  
G18  20628677.118      -16726.255        -529.056           0.255  
> 2022 01 01 00 01 28.1688020  0  3                     
G05  23385295.012                                           0.244  
G10  24310984.069      172155.935        2878.858           0.239  
G18  20628687.003                                           0.255  
> 2022 01 01 00 01 28.2688020  0  3                     
G05  23385341.528     -170404.745       -2444.214           0.244  
G10  24310929.194      172432.825        2746.458           0.239  
G18  20628697.026      -16832.144        -528.592           0.255  
> 2022 01 01 00 01 28.3688020  0  3                     
G05  23385387.771     -170649.044       -2480.965           0.244  
G10  24310873.448      172721.813        2872.585           0.239  
G18  20628707.183      -16885.114        -537.032           0.255  
> 2022 01 01 00 01 28.4688020  0  3                     
G05  23385434.781     -170893.344       -2438.242           0.244  
G10  24310819.359      173010.690        2902.218           0.239  
G18  20628717.127      -16938.060        -529.744           0.255  
> 2022 01 01 00 01 28.5688020  0  3                     
G05  23385481.563     -171138.099       -1948.725           0.244  
G10  24310764.604      173299.542        2890.836           0.239  
G18  20628727.261      -16991.025        -528.977           0.255  
> 2022 01 01 00 01 28.6688020  0  3                     
G05  23385528.034     -171381.961       -2440.908           0.244  
G10  24310709.753      173588.395        2901.552           0.239  
G18  20628737.373      -17043.998        -530.535           0.255  
> 2022 01 01 00 01 28.7688020  0  3                     
G05  23385574.526     -171626.309       -2515.956           0.244  
G10  24310654.413      173877.245        2886.162           0.239  
G18  20628747.572      -17096.983        -530.033           0.255  
> 2022 01 01 00 01 28.8688020  0  3                     
G05  23385621.037                                           0.244  
G10  24310599.094      174166.374        2891.237           0.239  
G18  20628757.580                                           0.255  
> 2022 01 01 00 01 28.9688020  0  3                     
G05  23385667.210     -172114.795       -2306.985           0.244  
G10  24310545.363      174454.952        2859.469           0.239  
G18  20628767.673      -17202.970        -530.065           0.255  
> 2022 01 01 00 01 29.0688020  0  3                     
G05  23385714.170     -172359.225       -2443.272           0.244  
G10  24310488.947      174743.738        2850.485           0.239  
G18  20628777.697      -17256.031        -536.534           0.255  
> 2022 01 01 00 01 29.1688020  0  3                     
G05  23385760.222     -172603.549       -2448.450           0.244  
G10  24310434.035      175032.616        2771.388           0.239  
G18  20628787.715      -17308.982        -529.840           0.255  
> 2022 01 01 00 01 29.2688020  0  3                     
G05  23385806.626                                           0.244  
G10  24310379.346      175321.845        3009.418           0.239  
G18  20628797.998                                           0.255  
> 2022 01 01 00 01 29.3688020  0  3                     
G05  23385853.548     -173092.200       -2442.605           0.244  
G10  24310324.861      175610.393        2960.297           0.239  
G18  20628807.962      -17415.003        -515.766           0.255  
> 2022 01 01 00 01 29.4688020  0  3                     
G05  23385899.727     -173336.550       -2445.659           0.244  
G10  24310269.933                                           0.239  
G18  20628817.941                                           0.255  
> 2022 01 01 00 01 29.5688020  0  3                     
G05  23385946.136     -173581.506       -3016.837           0.244  
G10  24310215.001      176188.113        2884.182           0.239  
G18  20628828.255      -17521.079        -530.055           0.255  
> 2022 01 01 00 01 29.6688020  0  3                     
G05  23385993.047     -173825.213       -2442.434           0.244  
G10  24310160.773                                           0.239  
G18  20628838.231                                           0.255  
> 2022 01 01 00 01 29.7688020  0  3                     
G05  23386039.425     -174069.549       -2443.590           0.244  
G10  24310105.557                                           0.239  
G18  20628848.349                                           0.255  
> 2022 01 01 00 01 29.8688020  0  3                     
G05  23386085.524     -174313.875       -2444.876           0.244  
G10  24310050.101      177054.885        3145.343           0.239  
G18  20628858.640      -17680.314        -710.901           0.255  
> 2022 01 01 00 01 29.9688020  0  3                     
G05  23386132.846     -174558.212       -2443.368           0.244  
G10  24309994.955      177343.457        2802.553           0.239  
G18  20628868.608      -17733.302        -523.377           0.255  
> 2022 01 01 00 01 30.0688020  0  3                     
G05  23386179.226     -174802.555       -2428.312           0.244  
G10  24309940.817      177632.419        2869.485           0.239  
G18  20628878.578      -17786.363        -530.763           0.255  
> 2022 01 01 00 01 30.1688020  0  3                     
G05  23386225.650                                           0.244  
G10  24309885.627                                           0.239  
G18  20628888.783                                           0.255  
> 2022 01 01 00 01 30.3688020  0  3                     
G05  23386318.589     -175535.611       -2441.078           0.244  
G10  24309775.054      178499.718        3370.355           0.239  
G18  20628908.839      -17945.610        -531.136           0.255  
> 2022 01 01 00 01 30.4688020  0  3                     
G05  23386364.054     -175779.967       -2446.103           0.244  
G10  24309719.876      178787.543        2955.902           0.239  
G18  20628919.015      -17998.703        -531.060           0.255  
> 2022 01 01 00 01 30.5688020  0  3                     
G05  23386409.975     -176024.318       -2442.851           0.244  
G10  24309665.917      179076.426        2440.983           0.239  
G18  20628929.230      -18051.804        -529.225           0.255  
> 2022 01 01 00 01 30.6688020  0  3                     
G05  23386458.834     -176268.684       -2442.526           0.244  
G10  24309609.537      179365.810        3239.295           0.239  
G18  20628939.539      -18104.916        -515.846           0.255  
> 2022 01 01 00 01 30.7688020  0  3                     
G05  23386504.699     -176512.962       -2341.250           0.244  
G10  24309554.453      179654.499        2896.796           0.239  
G18  20628949.655      -18158.015        -506.285           0.255  
> 2022 01 01 00 01 30.8688020  0  3                     
G05  23386550.661     -176757.416       -2455.522           0.244  
G10  24309498.946      179943.362        2875.621           0.239  
G18  20628959.650      -18211.120        -479.355           0.255  
> 2022 01 01 00 01 30.9688020  0  3                     
G05  23386596.491     -177001.954       -2709.957           0.244  
G10  24309444.216      180232.250        2916.688           0.239  
G18  20628969.894      -18264.281        -529.768           0.255  
> 2022 01 01 00 01 31.1688020  0  3                     
G05  23386691.496     -177490.517       -2443.812           0.244  
G10  24309334.365      180809.120        2129.968           0.239  
G18  20628989.861      -18370.558        -547.932           0.255  
> 2022 01 01 00 01 31.2688020  0  3                     
G05  23386736.784     -177735.129       -2441.141           0.244  
G10  24309279.067      181098.954        3019.700           0.239  
G18  20628999.984      -18423.711        -531.041           0.255  
> 2022 01 01 00 01 31.4688020  0  3                     
G05  23386828.193     -178223.635       -2444.684           0.244  
G10  24309170.360      181676.606        2890.322           0.239  
G18  20629020.292      -18530.070        -615.745           0.255  
> 2022 01 01 00 01 31.6688020  0  3                     
G05  23386922.104                                           0.244  
G10  24309060.242      182254.560        2872.562           0.239  
G18  20629040.410                                           0.255  
> 2022 01 01 00 01 32.0688020  0  3                     
G05  23387108.364     -179689.993       -2442.412           0.244  
G10  24308840.484                                           0.239  
G18  20629081.085                                           0.255  
> 2022 01 01 00 01 32.1688020  0  3                     
G05  23387155.375                                           0.244  
G10  24308785.844      183710.535        2890.688           0.239  
G18  20629091.153                                           0.255  
> 2022 01 01 00 01 32.2688020  0  3                     
G05  23387201.643     -180178.803       -2367.900           0.244  
G10  24308730.251      183987.624        2929.064           0.239  
G18  20629101.215      -18955.630        -614.791           0.255  
> 2022 01 01 00 01 32.3688020  0  3                     
G05  23387248.233     -180423.152       -2459.474           0.244  
G10  24308675.108      184276.488        2886.960           0.239  
G18  20629111.325      -19008.821        -546.916           0.255  
> 2022 01 01 00 01 32.4688020  0  3                     
G05  23387294.447     -180667.572       -2448.352           0.244  
G10  24308619.898      184565.368        2887.723           0.239  
G18  20629121.820      -19062.021        -529.597           0.255  
> 2022 01 01 00 01 32.5688020  0  3                     
G05  23387341.270     -180912.085       -2650.930           0.244  
G10  24308564.867      184854.249        2893.040           0.239  
G18  20629131.551      -19115.259        -532.622           0.255  
> 2022 01 01 00 01 32.6688020  0  3                     
G05  23387388.212     -181156.415       -2447.826           0.244  
G10  24308510.124                                           0.239  
G18  20629141.511                                           0.255  
> 2022 01 01 00 01 32.7688020  0  3                     
G05  23387434.128     -181400.757       -2485.297           0.244  
G10  24308454.730      185431.458        2015.276           0.239  
G18  20629151.849      -19221.746        -530.938           0.255  
> 2022 01 01 00 01 32.8688020  0  3                     
G05  23387481.484     -181645.208       -2446.001           0.244  
G10  24308399.641      185720.619        2664.523           0.239  
G18  20629162.034      -19275.000        -533.120           0.255  
> 2022 01 01 00 01 33.0688020  0  3                     
G05  23387574.074     -182134.069       -2462.348           0.244  
G10  24308290.986      186298.673        2899.346           0.239  
G18  20629182.422      -19381.542        -503.979           0.255  
> 2022 01 01 00 01 33.1688020  0  3                     
G05  23387620.268     -182378.455       -2428.302           0.244  
G10  24308235.776      186587.553        2893.497           0.239  
G18  20629192.284      -19434.810        -538.625           0.255  
> 2022 01 01 00 01 33.2688020  0  3                     
G05  23387666.786     -182622.916       -2484.057           0.244  
G10  24308179.712      186876.700        2947.909           0.239  
G18  20629202.469                                           0.255  
> 2022 01 01 00 01 33.3688020  0  3                     
G05  23387713.423     -182867.352       -2445.840           0.244  
G10  24308124.632                                           0.239  
G18  20629212.614                                           0.255  
> 2022 01 01 00 01 33.5688020  0  3                     
G05  23387806.771                                           0.244  
G10  24308016.802      187743.329        2898.853           0.239  
G18  20629232.857                                           0.255  
> 2022 01 01 00 01 33.6688020  0  3                     
G05  23387852.434     -183600.642       -2444.663           0.244  
G10  24307961.741                                           0.239  
G18  20629242.764                                           0.255  
> 2022 01 01 00 01 33.7688020  0  3                     
G05  23387899.296     -183845.111       -2786.279           0.244  
G10  24307907.081      188320.897        2916.317           0.239  
G18  20629253.132      -19754.609        -533.035           0.255  
> 2022 01 01 00 01 33.8688020  0  3                     
G05  23387945.685     -184089.455       -2447.434           0.244  
G10  24307852.401      188609.780        2916.680           0.239  
G18  20629263.318      -19807.896        -504.882           0.255  
> 2022 01 01 00 01 33.9688020  0  3                     
G05  23387992.712     -184333.926       -2444.847           0.244  
G10  24307796.638      188898.587        2843.159           0.239  
G18  20629273.584      -19861.277        -561.113           0.255  
> 2022 01 01 00 01 34.0688020  0  3                     
G05  23388038.210     -184578.240       -2472.999           0.244  
G10  24307740.481      189187.536        2888.087           0.239  
G18  20629283.636      -19914.601        -535.238           0.255  
> 2022 01 01 00 01 34.1688020  0  3                     
G05  23388084.799     -184822.857       -2135.753           0.244  
G10  24307685.525      189476.436        2879.469           0.239  
G18  20629293.332      -19967.901        -417.304           0.255  
> 2022 01 01 00 01 34.2688020  0  3                     
G05  23388131.718                                           0.244  
G10  24307630.136      189765.584        2908.288           0.239  
G18  20629303.529                                           0.255  
> 2022 01 01 00 01 34.3688020  0  3                     
G05  23388179.251     -185311.711       -2441.600           0.244  
G10  24307576.401      190054.183        3079.933           0.239  
G18  20629313.868      -20074.654        -535.163           0.255  
> 2022 01 01 00 01 34.4688020  0  3                     
G05  23388224.923     -185556.220       -3058.083           0.244  
G10  24307521.111      190343.385        3035.917           0.239  
G18  20629324.444      -20128.015        -533.116           0.255  
> 2022 01 01 00 01 34.5688020  0  3                     
G05  23388271.689     -185800.655       -2627.983           0.244  
G10  24307466.315      190632.067        2990.716           0.239  
G18  20629334.374      -20181.385        -533.740           0.255  
> 2022 01 01 00 01 34.6688020  0  3                     
G05  23388318.882     -186045.000       -2391.717           0.244  
G10  24307410.687      190920.874        2850.033           0.239  
G18  20629344.307      -20234.809        -627.749           0.255  
> 2022 01 01 00 01 34.7688020  0  3                     
G05  23388364.622     -186289.599       -2515.051           0.244  
G10  24307357.233      191209.791        2894.178           0.239  
G18  20629354.631      -20288.131        -535.207           0.255  
> 2022 01 01 00 01 34.8688020  0  3                     
G05  23388411.386                                           0.244  
G10  24307300.658                                           0.239  
G18  20629364.718                                           0.255  
> 2022 01 01 00 01 34.9688020  0  3                     
G05  23388458.338                                           0.244  
G10  24307246.108      191787.798        2856.499           0.239  
G18  20629374.852                                           0.255  
> 2022 01 01 00 01 35.1688020  0  3                     
G05  23388551.202     -187267.415       -2446.045           0.244  
G10  24307136.210      192365.384        2885.452           0.239  
G18  20629395.535      -20501.710        -485.717           0.255  
> 2022 01 01 00 01 35.2688020  0  3                     
G05  23388597.679     -187511.956       -2535.354           0.244  
G10  24307081.363      192654.496        3158.573           0.239  
G18  20629405.725      -20555.159        -534.613           0.255  
> 2022 01 01 00 01 35.3688020  0  3                     
G05  23388644.174     -187756.414       -2476.370           0.244  
G10  24307025.725      192942.966        2949.901           0.239  
G18  20629415.592      -20608.584        -533.832           0.255  
> 2022 01 01 00 01 35.4688020  0  3                     
G05  23388690.048     -188000.844       -2446.201           0.244  
G10  24306971.229      193231.782        2513.396           0.239  
G18  20629425.926      -20661.977        -508.764           0.255  
> 2022 01 01 00 01 35.6688020  0  3                     
G05  23388782.806                                           0.244  
G10  24306861.909      193810.134        2896.377           0.239  
G18  20629446.427                                           0.255  
> 2022 01 01 00 01 35.7688020  0  3                     
G05  23388830.829     -188734.342       -2444.889           0.244  
G10  24306807.532                                           0.239  
G18  20629456.383                                           0.255  
> 2022 01 01 00 01 35.8688020  0  3                     
G05  23388876.326     -188993.498       -2449.464           0.244  
G10  24306752.384      194387.908        2885.974           0.239  
G18  20629466.393                                           0.255  
> 2022 01 01 00 01 36.0688020  0  4                     
G05  24050182.648                                           0.244  
G10  24967853.521                                           0.239  
G18  21290699.469                                           0.255  
G24  20625073.015                                           0.255  
> 2022 01 01 00 01 36.0688020  0  5                     
G05  24050182.648                                           0.244  
G10  24967853.521                                           0.239  
G18  21290699.469                                           0.255  
G23  22212152.702       63079.462        2150.816           0.255  
G24  20625073.015                                           0.255  
> 2022 01 01 00 01 36.0688020  0  7                     
G05  24050182.648                                           0.244  
G10  24967853.521                                           0.239  
G18  21290699.469                                           0.255  
G20  26153146.322                                           0.228  
G23  22212152.702       63079.447        2123.484           0.255  
G24  20625073.015                                           0.255  
G28  26160131.024       -1649.514        -141.835           0.228  
> 2022 01 01 00 01 36.1688020  0  7                     
G05  24050227.288                                           0.243  
G10  24967798.470                                           0.239  
G18  21290709.343      -21035.041        -536.672           0.255  
G20  26153205.097                                           0.228  
G23  22212111.826                                           0.255  
G24  20625061.782                                           0.255  
G28  26160132.951                                           0.228  
> 2022 01 01 00 01 36.4688020  0  7                     
G05  24050367.209     -190439.768       -1190.290           0.244  
G10  24967632.846      196114.099          87.730           0.239  
G18  21290739.832      -21195.488        -522.729           0.255  
G20  26153383.051      -97988.584       -2987.313           0.228  
G23  22211989.903       63932.543        2130.967           0.255  
G24  20625027.660       16918.568         563.382           0.255  
G28  26160142.445       -1709.580        1781.418           0.228  
> 2022 01 01 00 01 36.5688020  0  7                     
G05  24050413.249     -190684.893       -2463.887           0.244  
G10  24967577.943      196403.593        2835.485           0.239  
G18  21290750.068      -21249.306        -980.712           0.255  
G20  26153442.108      -98297.411       -2736.976           0.228  
G23  22211949.322       64145.963        2209.920           0.255  
G24  20625016.042       16980.417         631.581           0.255  
G28  26160145.765       -1726.737         539.923           0.228  
> 2022 01 01 00 01 36.6688020  0  7                     
G05  24050458.427     -190929.384       -2453.681           0.244  
G10  24967523.222      196692.646        3127.259           0.239  
G18  21290760.181      -21302.818        -743.591           0.255  
G20  26153501.974      -98605.945       -2411.683           0.228  
G23  22211908.663       64359.206        2152.010           0.255  
G24  20625005.279       17042.150         479.805           0.255  
G28  26160148.450       -1741.991        1469.436           0.228  
> 2022 01 01 00 01 36.7688020  0  7                     
G05  24050508.496     -191174.446       -2428.715           0.244  
G10  24967468.614                                           0.239  
G18  21290770.718                                           0.255  
G20  26153558.665                                           0.228  
G23  22211867.929                                           0.255  
G24  20624992.560                                           0.255  
G28  26160152.704                                           0.228  
> 2022 01 01 00 01 36.8688020  0  7                     
G05  24050554.779                                           0.244  
G10  24967415.195                                           0.239  
G18  21290780.558                                           0.255  
G20  26153617.058                                           0.228  
G23  22211827.422                                           0.255  
G24  20624980.772                                           0.255  
G28  26160155.655       -1778.475        -157.850           0.228  
> 2022 01 01 00 01 36.9688020  0  7                     
G05  24050601.123     -191663.478       -2446.307           0.244  
G10  24967358.579                                           0.239  
G18  21290790.694                                           0.255  
G20  26153676.908                                           0.228  
G23  22211787.366                                           0.255  
G24  20624967.976                                           0.255  
G28  26160158.165                                           0.228  
> 2022 01 01 00 01 37.0688020  0  7                     
G05  24050647.880                                           0.244  
G10  24967303.764                                           0.239  
G18  21290801.107                                           0.255  
G20  26153736.392                                           0.228  
G23  22211746.443       65212.638        2135.579           0.255  
G24  20624955.574                                           0.255  
G28  26160160.464                                           0.228  
> 2022 01 01 00 01 37.5688020  0  7                     
G05  24050880.539     -193130.083       -2392.989           0.244  
G10  24967028.910      199293.273        3526.265           0.239  
G18  21290852.021      -21784.147        -151.297           0.255  
G20  26154030.579     -101389.233       -5618.631           0.228  
G23  22211541.760       66278.956        2134.852           0.255  
G24  20624898.198       17598.117         618.535           0.255  
G28  26160176.905       -1888.894         -13.329           0.228  
> 2022 01 01 00 01 37.6688020  0  7                     
G05  24050926.786                                           0.244  
G10  24966973.757                                           0.239  
G18  21290862.138                                           0.255  
G20  26154090.103                                           0.228  
G23  22211500.223       66526.562        2102.739           0.255  
G24  20624886.576                                           0.255  
G28  26160179.752       -1907.788        -221.815           0.228  
> 2022 01 01 00 01 37.7688020  0  7                     
G05  24050971.392     -193619.693       -2434.040           0.244  
G10  24966919.085                                           0.239  
G18  21290872.271                                           0.255  
G20  26154148.339                                           0.228  
G23  22211461.387                                           0.255  
G24  20624874.774                                           0.255  
G28  26160183.059                                           0.228  
> 2022 01 01 00 01 37.9688020  0  7                     
G05  24051067.185     -194108.350       -2788.350           0.244  
G10  24966809.435      200448.482        2947.177           0.239  
G18  21290892.428      -21998.792        -597.061           0.255  
G20  26154264.739     -102624.040       -3281.533           0.228  
G23  22211381.146       67133.788        2079.112           0.255  
G24  20624851.714       17844.783         215.101           0.255  
G28  26160187.922       -1952.673        1671.728           0.228  
> 2022 01 01 00 01 38.0688020  0  7                     
G05  24051112.895                                           0.244  
G10  24966754.155                                           0.239  
G18  21290902.885                                           0.255  
G20  26154322.590                                           0.228  
G23  22211340.544                                           0.255  
G24  20624839.865                                           0.255  
G28  26160191.148                                           0.228  
> 2022 01 01 00 01 38.1688020  0  7                     
G05  24051160.563     -194597.847       -2380.450           0.244  
G10  24966698.270      201026.990        2851.938           0.239  
G18  21290913.155                                           0.255  
G20  26154384.193                                           0.228  
G23  22211300.249       67558.970        2172.547           0.255  
G24  20624827.226                                           0.255  
G28  26160194.006                                           0.228  
> 2022 01 01 00 01 38.3688020  0  7                     
G05  24051252.725     -195086.978       -2463.821           0.244  
G10  24966589.264                                           0.239  
G18  21290933.302                                           0.255  
G20  26154499.643                                           0.227  
G23  22211219.479                                           0.255  
G24  20624804.698                                           0.255  
G28  26160200.216                                           0.228  
> 2022 01 01 00 01 38.4688020  0  7                     
G05  24051299.179                                           0.244  
G10  24966534.250                                           0.239  
G18  21290943.616      -22266.793        -482.171           0.255  
G20  26154560.836                                           0.228  
G23  22211177.814       68198.805        2143.016           0.255  
G24  20624792.757                                           0.255  
G28  26160203.866                                           0.228  
> 2022 01 01 00 01 38.5688020  0  7                     
G05  24051346.506                                           0.244  
G10  24966479.304                                           0.239  
G18  21290953.790      -22320.490        -532.319           0.255  
G20  26154619.069                                           0.227  
G23  22211137.198       68412.112        2155.923           0.255  
G24  20624780.629                                           0.255  
G28  26160207.261                                           0.228  
> 2022 01 01 00 01 38.6688020  0  7                     
G05  24051391.293                                           0.244  
G10  24966424.562                                           0.239  
G18  21290964.176                                           0.255  
G20  26154678.109                                           0.228  
G23  22211096.360                                           0.255  
G24  20624769.205                                           0.255  
G28  26160210.741                                           0.228  
> 2022 01 01 00 01 38.7688020  0  7                     
G05  24051437.613                                           0.244  
G10  24966368.979      202760.561        2893.555           0.239  
G18  21290974.734      -22427.778        -534.145           0.255  
G20  26154736.848     -105097.345       -3111.298           0.228  
G23  22211055.660       68838.645        2138.095           0.255  
G24  20624757.272                                           0.255  
G28  26160214.265       -2083.353         -90.001           0.228  
> 2022 01 01 00 01 38.9688020  0  7                     
G05  24051531.587     -196551.811         614.544           0.244  
G10  24966259.052      203338.375        3929.208           0.239  
G18  21290995.084      -22535.450       -1511.761           0.255  
G20  26154853.603     -105714.690       -3068.515           0.228  
G23  22210975.341       69265.029        2138.235           0.255  
G24  20624733.978       18461.754         613.874           0.255  
G28  26160220.522       -2117.524       -3609.225           0.228  
> 2022 01 01 00 01 39.0688020  0  7                     
G05  24051576.734                                           0.244  
G10  24966204.128                                           0.239  
G18  21291005.239                                           0.255  
G20  26154913.053                                           0.228  
G23  22210936.004       69478.464        2116.470           0.255  
G24  20624722.283                                           0.255  
G28  26160222.484       -2132.182        -219.235           0.228  
> 2022 01 01 00 01 39.3688020  0  7                     
G05  24051717.558     -197532.059       -2440.407           0.244  
G10  24966038.446      204493.734        3413.108           0.239  
G18  21291035.970      -22749.501        -107.757           0.255  
G20  26155090.452     -106950.433       -2788.001           0.228  
G23  22210812.553       70118.065        1925.136           0.255  
G24  20624686.865       18708.259         811.119           0.255  
G28  26160231.604       -2180.953         539.222           0.228  
> 2022 01 01 00 01 39.4688020  0  7                     
G05  24051763.491                                           0.244  
G10  24965984.107                                           0.239  
G18  21291046.056                                           0.255  
G20  26155146.919                                           0.228  
G23  22210772.193                                           0.255  
G24  20624675.633                                           0.255  
G28  26160235.267                                           0.228  
> 2022 01 01 00 01 39.5688020  0  7                     
G05  24051810.495     -198021.766       -2411.443           0.244  
G10  24965929.630                                           0.239  
G18  21291056.224      -22857.229        -546.470           0.255  
G20  26155206.005     -107569.815       -3095.747           0.228  
G23  22210730.916       70544.864        2156.832           0.255  
G24  20624663.572                                           0.255  
G28  26160237.529       -2213.369        -169.147           0.228  
> 2022 01 01 00 01 39.7688020  0  7                     
G05  24051903.550                                           0.244  
G10  24965820.295                                           0.239  
G18  21291076.638                                           0.255  
G20  26155323.126                                           0.228  
G23  22210649.961                                           0.255  
G24  20624641.171                                           0.255  
G28  26160244.079                                           0.228  
> 2022 01 01 00 01 39.8688020  0  7                     
G05  24051950.428     -198755.152       -2544.338           0.244  
G10  24965765.338      205937.883        2802.534           0.239  
G18  21291086.961      -23018.500        -998.717           0.255  
G20  26155381.159     -108492.147        2863.979           0.228  
G23  22210609.526       71184.422        1437.019           0.255  
G24  20624628.982       19016.182         469.113           0.255  
G28  26160248.999       -2260.681        1001.459           0.228  
> 2022 01 01 00 01 40.0688020  0  7                     
G05  24052042.302     -199244.107       -1817.890           0.244  
G10  24965653.909      206516.043        2903.319           0.239  
G18  21291107.173      -23125.755        -350.930           0.255  
G20  26155500.645     -109114.450       -3024.583           0.228  
G23  22210528.701       71611.597        4089.526           0.255  
G24  20624604.914       19139.204         208.698           0.255  
G28  26160254.111       -2294.575         151.218           0.228  
> 2022 01 01 00 01 40.1688020  0  7                     
G05  24052088.145     -199488.729       -2456.068           0.244  
G10  24965600.196      206804.717        2548.192           0.239  
G18  21291117.516      -23179.624        -654.030           0.255  
G20  26155556.495     -109424.196       -4303.306           0.229  
G23  22210487.887       71824.233        2099.969           0.255  
G24  20624593.796       19201.166         987.851           0.255  
G28  26160258.238       -2311.050        -335.790           0.228  
> 2022 01 01 00 01 40.2688020  0  7                     
G05  24052136.529                                           0.244  
G10  24965544.141                                           0.239  
G18  21291127.698      -23233.333        -540.614           0.255  
G20  26155618.050                                           0.228  
G23  22210447.264                                           0.255  
G24  20624581.895                                           0.255  
G28  26160259.534                                           0.228  
> 2022 01 01 00 01 40.3688020  0  7                     
G05  24052182.551     -199978.517       -2425.885           0.244  
G10  24965490.169      207383.433        2882.902           0.239  
G18  21291137.811      -23287.089        -540.615           0.255  
G20  26155674.795     -110042.430       -3100.193           0.228  
G23  22210407.571       72250.896        2079.991           0.255  
G24  20624570.177                                           0.255  
G28  26160261.965                                           0.228  
> 2022 01 01 00 01 40.5688020  0  7                     
G05  24052274.344     -200467.750       -2457.995           0.244  
G10  24965378.456                                           0.239  
G18  21291158.438      -23394.648        -556.170           0.255  
G20  26155795.669                                           0.228  
G23  22210326.408       72677.405        2123.316           0.255  
G24  20624547.027                                           0.255  
G28  26160268.682       -2376.212        -127.306           0.228  
> 2022 01 01 00 01 40.6688020  0  7                     
G05  24052320.957                                           0.244  
G10  24965324.915                                           0.239  
G18  21291168.621                                           0.255  
G20  26155854.399                                           0.228  
G23  22210285.410       72958.921        2157.110           0.255  
G24  20624535.167                                           0.255  
G28  26160271.027       -2392.536        -163.794           0.228  
> 2022 01 01 00 01 40.7688020  0  7                     
G05  24052370.239                                           0.244  
G10  24965269.286                                           0.239  
G18  21291178.956                                           0.255  
G20  26155911.292     -111278.773       -3084.176           0.228  
G23  22210244.612                                           0.255  
G24  20624523.581                                           0.255  
G28  26160275.259                                           0.228  
> 2022 01 01 00 01 40.8688020  0  7                     
G05  24052416.222     -201200.828       -1777.110           0.243  
G10  24965215.177      208827.332        3091.200           0.239  
G18  21291189.258      -23555.972        -538.517           0.255  
G20  26155968.701     -111586.681       -2466.447           0.227  
G23  22210204.068       73317.046        2319.642           0.255  
G24  20624511.991       19631.673         540.040           0.255  
G28  26160278.152       -2425.053         164.104           0.228  
> 2022 01 01 00 01 41.1688020  0  7                     
G05  24052558.062                                           0.244  
G10  24965049.157                                           0.239  
G18  21291219.690                                           0.255  
G20  26156147.896                                           0.227  
G23  22210082.477                                           0.255  
G24  20624475.696                                           0.255  
G28  26160287.938                                           0.228  
> 2022 01 01 00 01 41.2688020  0  7                     
G05  24052602.015                                           0.243  
G10  24964994.895                                           0.239  
G18  21291230.026                                           0.255  
G20  26156205.332                                           0.228  
G23  22210041.535                                           0.255  
G24  20624463.645                                           0.255  
G28  26160290.785                                           0.228  
> 2022 01 01 00 01 41.3688020  0  7                     
G05  24052647.553                                           0.244  
G10  24964939.402                                           0.239  
G18  21291240.344      -23825.039        -510.465           0.255  
G20  26156263.967     -113133.300       -3098.500           0.228  
G23  22210000.095                                           0.255  
G24  20624452.733                                           0.255  
G28  26160294.195                                           0.228  
> 2022 01 01 00 01 41.4688020  0  7                     
G05  24052694.186     -202669.293       -2409.764           0.244  
G10  24964886.173                                           0.239  
G18  21291250.566      -23878.868        -538.243           0.255  
G20  26156322.817                                           0.228  
G23  22209960.742                                           0.255  
G24  20624440.917                                           0.255  
G28  26160296.910                                           0.228  
> 2022 01 01 00 01 41.5688020  0  7                     
G05  24052741.126     -202913.360       -2453.762           0.244  
G10  24964829.846      210849.696        2574.043           0.239  
G18  21291260.896      -23932.681        -533.051           0.255  
G20  26156382.872     -113750.215       -2014.519           0.228  
G23  22209920.133       74810.104        2140.021           0.255  
G24  20624429.492       20062.046         767.163           0.255  
G28  26160301.117       -2539.389         898.061           0.228  
> 2022 01 01 00 01 41.8688020  0  7                     
G05  24052880.178     -203647.242       -2287.827           0.244  
G10  24964665.447      211716.527        2595.966           0.239  
G18  21291291.580      -24094.185        -464.753           0.255  
G20  26156558.395     -114677.920       -2875.693           0.228  
G23  22209798.208       75449.371        2118.682           0.255  
G24  20624394.750       20246.472         731.080           0.255  
G28  26160309.723       -2588.610        -292.287           0.228  
> 2022 01 01 00 01 41.9688020  0  7                     
G05  24052928.328     -203892.466       -2403.628           0.244  
G10  24964609.471                                           0.239  
G18  21291301.918                                           0.255  
G20  26156618.339                                           0.228  
G23  22209758.278                                           0.255  
G24  20624382.592                                           0.255  
G28  26160312.244       -2604.969         -65.800           0.228  
> 2022 01 01 00 01 42.1688020  0  7                     
G05  24053026.514                                           0.244  
G10  24964500.010      212584.248        2878.381           0.239  
G18  21291322.383      -24255.880        -570.160           0.255  
G20  26156735.571                                           0.228  
G23  22209676.513       76089.208        2144.322           0.255  
G24  20624358.598                                           0.255  
G28  26160318.521                                           0.228  
> 2022 01 01 00 01 42.2688020  0  7                     
G05  24053069.343                                           0.244  
G10  24964444.822      212873.221        2909.749           0.239  
G18  21291332.433                                           0.255  
G20  26156794.950                                           0.228  
G23  22209635.157                                           0.255  
G24  20624347.233                                           0.255  
G28  26160321.131                                           0.228  
> 2022 01 01 00 01 42.3688020  0  7                     
G05  24053114.346     -204871.062       -2448.320           0.244  
G10  24964389.037                                           0.239  
G18  21291342.909                                           0.255  
G20  26156853.839     -116224.337       -3069.202           0.228  
G23  22209595.511                                           0.255  
G24  20624335.886                                           0.255  
G28  26160324.390       -2674.481        -172.789           0.228  
> 2022 01 01 00 01 42.4688020  0  7                     
G05  24053159.817                                           0.244  
G10  24964334.145                                           0.239  
G18  21291353.333                                           0.255  
G20  26156912.687                                           0.228  
G23  22209554.969       76728.896        2149.127           0.255  
G24  20624324.457                                           0.255  
G28  26160328.311                                           0.228  
> 2022 01 01 00 01 42.5688020  0  7                     
G05  24053206.725                                           0.244  
G10  24964279.551                                           0.239  
G18  21291363.387                                           0.255  
G20  26156971.469                                           0.228  
G23  22209514.249                                           0.255  
G24  20624312.925                                           0.255  
G28  26160331.877                                           0.228  
> 2022 01 01 00 01 42.6688020  0  7                     
G05  24053253.186                                           0.244  
G10  24964224.721                                           0.240  
G18  21291373.473                                           0.255  
G20  26157030.554                                           0.228  
G23  22209473.725                                           0.255  
G24  20624301.250                                           0.255  
G28  26160334.367                                           0.228  
> 2022 01 01 00 01 42.8688020  0  7                     
G05  24053346.423     -206094.376       -2462.158           0.244  
G10  24964115.472                                           0.239  
G18  21291394.262                                           0.255  
G20  26157147.885     -117769.976       -3286.102           0.228  
G23  22209393.244       77581.808        2187.977           0.255  
G24  20624277.557                                           0.255  
G28  26160340.227       -2752.472        -108.687           0.228  
> 2022 01 01 00 01 43.2688020  0  7                     
G05  24053532.807     -207072.333       -2949.200           0.244  
G10  24963895.211      215761.235        1216.578           0.239  
G18  21291435.169      -24849.128        -954.093           0.255  
G20  26157381.408     -119005.382       -2648.188           0.228  
G23  22209230.180       78434.252        1895.244           0.255  
G24  20624230.835       21106.001         957.957           0.255  
G28  26160352.325       -2818.578        -181.326           0.228  
> 2022 01 01 00 01 43.3688020  0  7                     
G05  24053579.907     -207317.089       -2459.775           0.244  
G10  24963840.832      216050.272        1560.599           0.239  
G18  21291445.399      -24902.920        -430.615           0.255  
G20  26157440.598     -119314.845       -3247.235           0.228  
G23  22209189.658       78647.587        2128.277           0.255  
G24  20624219.647       21167.327         636.184           0.255  
G28  26160356.330       -2834.577         -86.745           0.228  
> 2022 01 01 00 01 43.5688020  0  7                     
G05  24053671.668                                           0.244  
G10  24963730.900                                           0.240  
G18  21291466.191                                           0.255  
G20  26157556.465                                           0.228  
G23  22209110.251                                           0.255  
G24  20624196.275                                           0.255  
G28  26160363.444                                           0.228  
> 2022 01 01 00 01 43.6688020  0  7                     
G05  24053719.460                                           0.243  
G10  24963675.691                                           0.239  
G18  21291475.977                                           0.255  
G20  26157616.259                                           0.228  
G23  22209069.440                                           0.255  
G24  20624183.968                                           0.255  
G28  26160365.913                                           0.228  
> 2022 01 01 00 01 43.7688020  0  7                     
G05  24053764.689     -208394.283       -2380.016           0.244  
G10  24963621.464                                           0.239  
G18  21291486.132      -25118.815        -541.461           0.255  
G20  26157675.317     -120552.054       -3091.258           0.228  
G23  22209028.234                                           0.255  
G24  20624172.735                                           0.255  
G28  26160368.372       -2900.464        -159.776           0.228  
> 2022 01 01 00 01 43.8688020  0  7                     
G05  24053812.073                                           0.244  
G10  24963567.376                                           0.239  
G18  21291496.845      -25172.821        -545.762           0.255  
G20  26157734.025                                           0.228  
G23  22208988.295                                           0.255  
G24  20624161.177                                           0.255  
G28  26160371.504       -2916.920        -209.216           0.228  
> 2022 01 01 00 01 44.1688020  0  7                     
G05  24053953.900                                           0.243  
G10  24963399.678                                           0.239  
G18  21291527.839                                           0.255  
G20  26157911.396                                           0.228  
G23  22208865.088                                           0.255  
G24  20624125.811                                           0.255  
G28  26160382.321                                           0.228  
> 2022 01 01 00 01 44.2688020  0  7                     
G05  24053997.531                                           0.244  
G10  24963346.113                                           0.240  
G18  21291537.983                                           0.255  
G20  26157968.802                                           0.228  
G23  22208824.259                                           0.255  
G24  20624114.360                                           0.255  
G28  26160384.824                                           0.228  
> 2022 01 01 00 01 44.3688020  0  7                     
G05  24054043.449                                           0.244  
G10  24963291.015                                           0.239  
G18  21291548.368                                           0.255  
G20  26158028.132                                           0.228  
G23  22208784.237                                           0.255  
G24  20624103.452                                           0.255  
G28  26160388.409                                           0.228  
> 2022 01 01 00 01 44.4688020  0  7                     
G05  24054091.363     -210008.753       -2503.890           0.244  
G10  24963236.056      219229.317        2733.377           0.239  
G18  21291558.606      -25496.872        -529.530           0.255  
G20  26158088.628     -122715.272       -3379.286           0.228  
G23  22208743.370       80992.781        2177.415           0.255  
G24  20624090.968       21841.624         554.074           0.255  
G28  26160392.065       -3015.742        -215.480           0.228  
> 2022 01 01 00 01 44.6688020  0  7                     
G05  24054184.440     -210498.005       -2784.583           0.244  
G10  24963125.275      219807.311        2923.378           0.239  
G18  21291579.022      -25604.962        -536.816           0.255  
G20  26158207.239     -123332.561       -1500.677           0.228  
G23  22208662.604       81419.078        2136.536           0.255  
G24  20624067.330       21964.144         668.330           0.255  
G28  26160397.198       -3047.954        1323.252           0.228  
> 2022 01 01 00 01 44.8688020  0  7                     
G05  24054278.107                                           0.244  
G10  24963016.071                                           0.239  
G18  21291599.631                                           0.255  
G20  26158320.966                                           0.228  
G23  22208581.129                                           0.255  
G24  20624044.303                                           0.255  
G28  26160404.047       -3084.327        -133.346           0.228  
> 2022 01 01 00 01 45.0688020  0  7                     
G05  24054370.088                                           0.244  
G10  24962904.855                                           0.239  
G18  21291619.862                                           0.255  
G20  26158441.933                                           0.228  
G23  22208500.246                                           0.255  
G24  20624021.249                                           0.255  
G28  26160410.172                                           0.228  
> 2022 01 01 00 01 45.2688020  0  7                     
G05  24054463.886                                           0.244  
G10  24962795.156                                           0.239  
G18  21291640.728                                           0.255  
G20  26158559.871                                           0.228  
G23  22208418.702                                           0.255  
G24  20623997.054                                           0.255  
G28  26160414.464       -3147.759        -139.995           0.228  
> 2022 01 01 00 01 45.4688020  0  7                     
G05  24054558.305                                           0.244  
G10  24962685.188                                           0.239  
G18  21291661.154                                           0.255  
G20  26158675.925     -125807.473       -3125.506           0.228  
G23  22208338.048                                           0.255  
G24  20623973.335                                           0.255  
G28  26160422.016                                           0.228  
> 2022 01 01 00 01 45.5688020  0  7                     
G05  24054603.813     -212700.750       -3365.760           0.244  
G10  24962630.717      222407.972        2819.370           0.239  
G18  21291671.866      -26091.778        -699.436           0.255  
G20  26158735.222     -126116.309       -3912.744           0.228  
G23  22208296.277       83337.112        2004.493           0.255  
G24  20623961.638       22515.097         491.542           0.255  
G28  26160425.244       -3197.549        -532.979           0.228  
> 2022 01 01 00 01 45.6688020  0  7                     
G05  24054650.320     -212945.277       -2333.365           0.244  
G10  24962574.988      222696.595        2170.913           0.239  
G18  21291681.674      -26145.717        -442.495           0.255  
G20  26158795.376     -126424.262       -2708.339           0.228  
G23  22208256.489       83550.797        2131.791           0.255  
G24  20623951.082       22576.344         617.440           0.255  
G28  26160427.717       -3213.957        -921.411           0.228  
> 2022 01 01 00 01 45.7688020  0  7                     
G05  24054698.133                                           0.244  
G10  24962520.206      223009.781        2895.725           0.239  
G18  21291692.135                                           0.255  
G20  26158852.651                                           0.228  
G23  22208216.917                                           0.255  
G24  20623939.293                                           0.255  
G28  26160431.920                                           0.228  
> 2022 01 01 00 01 45.8688020  0  7                     
G05  24054743.014                                           0.244  
G10  24962463.522                                           0.239  
G18  21291702.555                                           0.255  
G20  26158914.241                                           0.228  
G23  22208176.175                                           0.255  
G24  20623928.278                                           0.255  
G28  26160436.389                                           0.228  
> 2022 01 01 00 01 46.0688020  0  7                     
G05  24054836.897     -213924.892       -2428.734           0.244  
G10  24962354.517                                           0.239  
G18  21291723.306      -26362.305        -540.301           0.255  
G20  26159029.690     -127662.432       -3102.540           0.227  
G23  22208097.200                                           0.255  
G24  20623904.605                                           0.255  
G28  26160442.146                                           0.228  
> 2022 01 01 00 01 46.5688020  0  7                     
G05  24055069.623                                           0.244  
G10  24962079.741      225321.543        2900.133           0.239  
G18  21291775.113      -26633.089        -541.469           0.255  
G20  26159324.370                                           0.228  
G23  22207890.832       85469.355        2132.150           0.255  
G24  20623847.000                                           0.255  
G28  26160457.482                                           0.228  
> 2022 01 01 00 01 46.6688020  0  7                     
G05  24055116.504     -215392.805       -2448.531           0.245  
G10  24962026.163      225586.531        2964.444           0.239  
G18  21291785.164      -26687.320        -586.752           0.255  
G20  26159381.021     -129516.581       -3024.553           0.228  
G23  22207851.055       85682.377        2129.323           0.255  
G24  20623834.740       23187.745         727.796           0.255  
G28  26160458.617       -3379.594        -228.279           0.228  
> 2022 01 01 00 01 46.7688020  0  7                     
G05  24055162.917                                           0.244  
G10  24961969.974                                           0.239  
G18  21291794.945                                           0.255  
G20  26159440.766                                           0.228  
G23  22207809.948                                           0.255  
G24  20623823.537                                           0.255  
G28  26160462.113                                           0.228  
> 2022 01 01 00 01 46.9688020  0  7                     
G05  24055256.216                                           0.244  
G10  24961861.215                                           0.239  
G18  21291816.041                                           0.255  
G20  26159557.804                                           0.228  
G23  22207729.491                                           0.255  
G24  20623799.996                                           0.255  
G28  26160470.244                                           0.228  
> 2022 01 01 00 01 47.0688020  0  7                     
G05  24055304.994     -216372.080       -2432.675           0.244  
G10  24961806.184      226742.240        4226.410           0.239  
G18  21291826.264      -26904.053        -559.368           0.255  
G20  26159617.228     -130750.452         696.777           0.228  
G23  22207689.014       86534.657        2239.523           0.255  
G24  20623787.882       23432.229         614.083           0.255  
G28  26160472.749       -3445.808        -276.014           0.228  
> 2022 01 01 00 01 47.2688020  0  7                     
G05  24055398.375                                           0.244  
G10  24961694.914                                           0.239  
G18  21291847.336                                           0.255  
G20  26159737.655                                           0.228  
G23  22207607.640                                           0.255  
G24  20623764.918                                           0.255  
G28  26160479.408                                           0.228  
> 2022 01 01 00 01 47.4688020  0  7                     
G05  24055488.786                                           0.243  
G10  24961584.929                                           0.239  
G18  21291867.397                                           0.255  
G20  26159856.077                                           0.227  
G23  22207527.085                                           0.255  
G24  20623741.741                                           0.255  
G28  26160486.077                                           0.228  
> 2022 01 01 00 01 47.6688020  0  7                     
G05  24055581.613     -217840.445       -2281.136           0.244  
G10  24961475.241      228477.428        4752.557           0.239  
G18  21291888.188      -27229.374        -483.165           0.255  
G20  26159970.954     -132608.806       -3633.780           0.228  
G23  22207445.955       87813.789        1975.277           0.255  
G24  20623718.687       23798.725         761.168           0.255  
G28  26160492.463       -3545.717        -810.440           0.228  
> 2022 01 01 00 01 47.7688020  0  7                     
G05  24055627.381     -218085.900       -2410.397           0.244  
G10  24961420.208      228766.133        2860.431           0.239  
G18  21291898.293                                           0.255  
G20  26160029.012                                           0.228  
G23  22207405.312       88026.956        2081.659           0.255  
G24  20623706.945                                           0.255  
G28  26160495.465                                           0.228  
> 2022 01 01 00 01 47.8688020  0  7                     
G05  24055675.145                                           0.244  
G10  24961364.560      229055.138        2912.010           0.239  
G18  21291908.488      -27337.925        -529.651           0.255  
G20  26160088.632                                           0.228  
G23  22207364.237       88240.099        2087.586           0.255  
G24  20623695.322                                           0.255  
G28  26160497.237                                           0.228  
> 2022 01 01 00 01 48.0688020  0  7                     
G05  24055766.970                                           0.243  
G10  24961254.478      229633.050        2846.257           0.239  
G18  21291929.149                                           0.255  
G20  26160205.325                                           0.228  
G23  22207282.534       88666.363        2126.531           0.255  
G24  20623673.117                                           0.255  
G28  26160505.139                                           0.228  
> 2022 01 01 00 01 48.1688020  0  7                     
G05  24055814.072     -219064.466       -2452.447           0.244  
G10  24961198.872      229922.160        4273.167           0.239  
G18  21291939.838      -27500.671        -387.529           0.255  
G20  26160264.096     -134155.090       -4358.033           0.228  
G23  22207243.113       88879.010        1571.241           0.255  
G24  20623660.948       24103.744         553.393           0.255  
G28  26160509.154       -3628.277        1161.814           0.228  
> 2022 01 01 00 01 48.2688020  0  7                     
G05  24055861.331                                           0.244  
G10  24961144.795                                           0.239  
G18  21291950.467                                           0.255  
G20  26160324.648                                           0.228  
G23  22207202.050                                           0.255  
G24  20623648.781                                           0.255  
G28  26160512.028                                           0.228  
> 2022 01 01 00 01 48.3688020  0  7                     
G05  24055908.161     -219554.676       -2482.569           0.244  
G10  24961090.171      230500.015        2887.578           0.239  
G18  21291960.627                                           0.255  
G20  26160383.641                                           0.228  
G23  22207161.181       89305.733        2142.153           0.255  
G24  20623637.126                                           0.255  
G28  26160514.274       -3664.748        -155.430           0.228  
> 2022 01 01 00 01 48.5688020  0  7                     
G05  24056001.118     -220044.260       -2441.181           0.244  
G10  24960980.613                                           0.239  
G18  21291981.302                                           0.255  
G20  26160500.580                                           0.229  
G23  22207080.457                                           0.255  
G24  20623613.898                                           0.255  
G28  26160520.359                                           0.228  
> 2022 01 01 00 01 48.8688020  0  7                     
G05  24056140.118                                           0.244  
G10  24960816.749                                           0.239  
G18  21292012.100                                           0.255  
G20  26160676.921                                           0.228  
G23  22206959.354                                           0.255  
G24  20623579.311                                           0.255  
G28  26160531.558       -3748.158        -197.030           0.228  
> 2022 01 01 00 01 48.9688020  0  7                     
G05  24056186.377                                           0.244  
G10  24960759.638                                           0.239  
G18  21292022.888                                           0.255  
G20  26160735.532                                           0.228  
G23  22206918.313                                           0.255  
G24  20623567.626                                           0.255  
G28  26160532.699                                           0.228  
> 2022 01 01 00 01 49.0688020  0  7                     
G05  24056233.904                                           0.244  
G10  24960704.973                                           0.239  
G18  21292032.981                                           0.255  
G20  26160794.401                                           0.228  
G23  22206877.693                                           0.255  
G24  20623557.162                                           0.255  
G28  26160535.862                                           0.228  
> 2022 01 01 00 01 49.1688020  0  7                     
G05  24056280.768     -221512.533       -2423.855           0.244  
G10  24960650.837      232811.052        2645.789           0.239  
G18  21292043.041      -28043.891        -841.775           0.255  
G20  26160852.454     -137246.582       -2115.006           0.228  
G23  22206837.060       91011.856        2648.084           0.255  
G24  20623544.836       24713.704         790.157           0.255  
G28  26160539.576       -3795.707        -422.565           0.228  
> 2022 01 01 00 01 49.3688020  0  7                     
G05  24056372.992     -222027.256       -2436.290           0.244  
G10  24960540.524                                           0.239  
G18  21292064.007                                           0.255  
G20  26160970.334                                           0.228  
G23  22206755.575                                           0.255  
G24  20623521.212                                           0.255  
G28  26160546.403                                           0.228  
> 2022 01 01 00 01 49.4688020  0  7                     
G05  24056419.511     -222246.361       -2246.059           0.244  
G10  24960485.963      233678.126        2932.365           0.239  
G18  21292074.366      -28207.009        -563.760           0.255  
G20  26161029.606     -138173.632       -3293.715           0.228  
G23  22206715.146       91649.897        2421.473           0.255  
G24  20623509.839       24896.343         607.848           0.255  
G28  26160549.165       -3845.478         124.145           0.228  
> 2022 01 01 00 01 49.6688020  0  7                     
G05  24056513.708                                           0.245  
G10  24960374.095                                           0.239  
G18  21292094.985                                           0.255  
G20  26161149.437                                           0.228  
G23  22206634.294                                           0.255  
G24  20623486.621                                           0.255  
G28  26160554.266                                           0.228  
> 2022 01 01 00 01 49.8688020  0  7                     
G05  24056607.307     -223226.342       -2436.894           0.244  
G10  24960264.751      234834.144        2979.295           0.239  
G18  21292115.876      -28424.581        -661.448           0.255  
G20  26161264.589     -139410.713       -2838.807           0.228  
G23  22206553.424       92502.114        2145.240           0.255  
G24  20623463.125       25139.986         609.302           0.255  
G28  26160560.129       -3912.334           0.662           0.228  
> 2022 01 01 00 01 50.2688020  0  7                     
G05  24056793.028     -224205.722       -2404.022           0.244  
G10  24960047.414      235989.142         949.624           0.239  
G18  21292157.120      -28642.112        -534.326           0.255  
G20  26161498.343     -140648.290       -3918.792           0.228  
G23  22206390.914       93354.288        2437.849           0.255  
G24  20623417.108       25383.585         714.983           0.255  
G28  26160574.096       -3979.393         253.838           0.228  
> 2022 01 01 00 01 50.4688020  0  7                     
G05  24056886.064     -224695.468       -2196.368           0.244  
G10  24959936.087      236568.506        3035.651           0.239  
G18  21292177.658      -28750.989        -543.709           0.255  
G20  26161618.373     -141266.447       -2992.507           0.228  
G23  22206310.693       93780.471        1486.660           0.255  
G24  20623394.368       25505.235         611.795           0.255  
G28  26160581.901       -4013.207       -1454.647           0.228  
> 2022 01 01 00 01 50.5688020  0  7                     
G05  24056932.942                                           0.244  
G10  24959881.220                                           0.239  
G18  21292188.074                                           0.255  
G20  26161678.826                                           0.228  
G23  22206269.864                                           0.255  
G24  20623382.317                                           0.255  
G28  26160582.862                                           0.228  
> 2022 01 01 00 01 50.6688020  0  7                     
G05  24056980.828                                           0.244  
G10  24959826.133                                           0.239  
G18  21292198.234                                           0.255  
G20  26161736.186                                           0.228  
G23  22206229.191                                           0.255  
G24  20623370.447                                           0.255  
G28  26160587.236                                           0.228  
> 2022 01 01 00 01 50.7688020  0  7                     
G05  24057026.582     -225430.259       -3012.079           0.244  
G10  24959771.362      237437.204        6443.321           0.239  
G18  21292208.829      -28914.368        -401.943           0.255  
G20  26161795.655     -142193.788       -2768.476           0.228  
G23  22206188.582       94421.305        3829.174           0.255  
G24  20623358.891       25687.731         780.606           0.255  
G28  26160590.363       -4061.904        3436.717           0.228  
> 2022 01 01 00 01 50.8688020  0  7                     
G05  24057072.145     -225675.466       -2444.958           0.244  
G10  24959716.102      237747.963        2906.034           0.239  
G18  21292219.443                                           0.255  
G20  26161852.738                                           0.228  
G23  22206147.775                                           0.255  
G24  20623347.596                                           0.255  
G28  26160594.086                                           0.228  
> 2022 01 01 00 01 50.9688020  0  7                     
G05  24057119.112     -225919.930       -2892.560           0.244  
G10  24959661.324      238013.118        2904.294           0.239  
G18  21292229.275      -29023.285        -574.573           0.255  
G20  26161911.231     -142812.240       -2857.702           0.227  
G23  22206106.846       94846.571        3901.170           0.255  
G24  20623335.825       25809.396         558.724           0.255  
G28  26160596.176       -4096.737        -384.719           0.228  
> 2022 01 01 00 01 51.0688020  0  7                     
G05  24057165.166                                           0.244  
G10  24959606.095      238302.841        2890.495           0.239  
G18  21292239.813      -29077.733        -540.451           0.255  
G20  26161971.863                                           0.228  
G23  22206066.735                                           0.255  
G24  20623324.558                                           0.255  
G28  26160600.329                                           0.228  
> 2022 01 01 00 01 51.1688020  0  7                     
G05  24057211.921                                           0.244  
G10  24959551.479      238591.831        2888.044           0.239  
G18  21292250.456                                           0.255  
G20  26162029.570                                           0.228  
G23  22206025.972                                           0.255  
G24  20623312.924                                           0.255  
G28  26160603.031                                           0.228  
> 2022 01 01 00 01 51.2688020  0  7                     
G05  24057258.620     -226654.331       -2435.454           0.244  
G10  24959496.308      238879.957        3037.923           0.239  
G18  21292260.883      -29186.642        -204.558           0.255  
G20  26162088.534     -143741.108       -3753.925           0.228  
G23  22205985.819       95485.378        1921.853           0.255  
G24  20623301.440       25991.651         192.428           0.255  
G28  26160605.960       -4147.151        -190.841           0.228  
> 2022 01 01 00 01 51.3688020  0  7                     
G05  24057306.039                                           0.244  
G10  24959441.274                                           0.239  
G18  21292270.997                                           0.255  
G20  26162147.337                                           0.228  
G23  22205945.109                                           0.255  
G24  20623289.599                                           0.255  
G28  26160609.811                                           0.228  
> 2022 01 01 00 01 51.5688020  0  7                     
G05  24057398.143                                           0.244  
G10  24959331.366                                           0.239  
G18  21292292.016                                           0.255  
G20  26162265.680                                           0.228  
G23  22205864.480                                           0.255  
G24  20623266.665                                           0.255  
G28  26160615.823                                           0.228  
> 2022 01 01 00 01 51.6688020  0  7                     
G05  24057446.820                                           0.244  
G10  24959276.472                                           0.240  
G18  21292302.096                                           0.255  
G20  26162323.887                                           0.228  
G23  22205823.401       96350.413        2130.644           0.255  
G24  20623255.376                                           0.255  
G28  26160619.687                                           0.228  
> 2022 01 01 00 01 51.7688020  0  7                     
G05  24057491.745     -227879.050       -3464.550           0.244  
G10  24959220.602      240325.111        2856.486           0.239  
G18  21292312.498      -29459.180        -155.154           0.255  
G20  26162383.858     -145289.167       -6036.432           0.228  
G23  22205782.920       96550.541        2134.003           0.255  
G24  20623243.639       26295.707         795.992           0.255  
G28  26160622.709       -4230.654         814.298           0.228  
> 2022 01 01 00 01 51.9688020  0  7                     
G05  24057584.785                                           0.244  
G10  24959110.417                                           0.239  
G18  21292333.318      -29568.299        -553.749           0.255  
G20  26162500.719     -145905.612       -3048.915           0.228  
G23  22205701.833                                           0.255  
G24  20623220.298                                           0.255  
G28  26160629.130                                           0.228  
> 2022 01 01 00 01 52.1688020  0  7                     
G05  24057678.402     -228858.291       -2442.104           0.244  
G10  24959000.837      241480.429        2112.626           0.239  
G18  21292354.041      -29677.350        -502.215           0.255  
G20  26162618.870     -146523.330       -3180.189           0.228  
G23  22205621.183       97402.932        2263.009           0.255  
G24  20623197.238       26538.772         605.622           0.255  
G28  26160634.490       -4298.494        -304.799           0.228  
> 2022 01 01 00 01 52.2688020  0  7                     
G05  24057725.110                                           0.244  
G10  24958945.271                                           0.239  
G18  21292364.231                                           0.255  
G20  26162678.850                                           0.228  
G23  22205580.062       97615.964        2135.738           0.255  
G24  20623185.740                                           0.255  
G28  26160638.117                                           0.228  
> 2022 01 01 00 01 52.3688020  0  7                     
G05  24057771.798     -229348.694       -2432.325           0.244  
G10  24958890.667      242059.910        2970.369           0.239  
G18  21292374.835                                           0.255  
G20  26162736.642     -147142.653       -3104.221           0.228  
G23  22205539.288                                           0.255  
G24  20623174.167                                           0.255  
G28  26160641.118                                           0.228  
> 2022 01 01 00 01 52.7688020  0  7                     
G05  24057957.592                                           0.244  
G10  24958669.937      243215.977        2919.875           0.239  
G18  21292416.269                                           0.255  
G20  26162972.595                                           0.228  
G23  22205377.920                                           0.255  
G24  20623128.135                                           0.255  
G28  26160655.246                                           0.228  
> 2022 01 01 00 01 53.0688020  0  7                     
G05  24058096.097                                           0.244  
G10  24958505.880                                           0.239  
G18  21292447.732                                           0.255  
G20  26163150.199                                           0.228  
G23  22205256.320                                           0.255  
G24  20623093.620                                           0.255  
G28  26160664.261                                           0.228  
> 2022 01 01 00 01 53.1688020  0  7                     
G05  24058143.439     -231307.382       -2496.943           0.244  
G10  24958450.597      244371.664        4139.865           0.239  
G18  21292457.933      -30223.652        -855.509           0.255  
G20  26163207.593     -149616.319       -2418.363           0.228  
G23  22205215.767       99533.186        2082.511           0.255  
G24  20623082.186       27145.629         180.235           0.255  
G28  26160667.782       -4466.976          -7.376           0.228  
> 2022 01 01 00 01 53.5688020  0  7                     
G05  24058331.797                                           0.244  
G10  24958232.200      245574.333        2915.145           0.239  
G18  21292499.543                                           0.255  
G20  26163440.448     -150903.293       -3108.196           0.228  
G23  22205052.774                                           0.255  
G24  20623034.874                                           0.255  
G28  26160678.968                                           0.228  
> 2022 01 01 00 01 53.8688020  0  7                     
G05  24058470.916                                           0.244  
G10  24958066.034                                           0.239  
G18  21292530.704                                           0.255  
G20  26163619.846                                           0.228  
G23  22204931.118                                           0.255  
G24  20623000.859                                           0.255  
G28  26160689.894                                           0.228  
> 2022 01 01 00 01 53.9688020  0  7                     
G05  24058518.022     -233267.451       -2480.266           0.244  
G10  24958010.345                                           0.239  
G18  21292541.169      -30660.326        -542.308           0.255  
G20  26163678.393     -152090.905       -3128.457           0.228  
G23  22204891.081      101237.572        2172.475           0.255  
G24  20622989.394                                           0.255  
G28  26160692.908                                           0.228  
> 2022 01 01 00 01 54.3688020  0  7                     
G05  24058703.557     -234246.796       -2044.655           0.244  
G10  24957791.756      247839.124        2424.511           0.239  
G18  21292582.730      -30878.912        -396.607           0.255  
G20  26163914.252     -153327.138       -2858.590           0.228  
G23  22204728.923      102089.471        2130.758           0.255  
G24  20622943.448       27873.355         625.830           0.255  
G28  26160705.964       -4669.293         523.377           0.228  
> 2022 01 01 00 01 54.4688020  0  7                     
G05  24058750.722                                           0.244  
G10  24957737.491      248129.276        2913.466           0.239  
G18  21292592.994                                           0.255  
G20  26163973.969                                           0.228  
G23  22204688.606                                           0.255  
G24  20622931.882                                           0.255  
G28  26160709.129                                           0.228  
> 2022 01 01 00 01 54.5688020  0  7                     
G05  24058797.662                                           0.244  
G10  24957683.109                                           0.239  
G18  21292603.302                                           0.255  
G20  26164030.465                                           0.228  
G23  22204647.737                                           0.255  
G24  20622920.285                                           0.255  
G28  26160712.444                                           0.228  
> 2022 01 01 00 01 54.7688020  0  7                     
G05  24058891.069                                           0.244  
G10  24957570.374                                           0.239  
G18  21292625.021                                           0.255  
G20  26164150.057     -154565.115       -3085.019           0.228  
G23  22204567.499                                           0.255  
G24  20622896.756                                           0.255  
G28  26160718.895       -4742.842        -152.464           0.228  
> 2022 01 01 00 01 55.0688020  0  7                     
G05  24059031.238                                           0.244  
G10  24957405.902                                           0.239  
G18  21292655.573                                           0.255  
G20  26164325.534                                           0.228  
G23  22204445.497                                           0.255  
G24  20622862.778                                           0.255  
G28  26160727.672       -4788.578        -167.765           0.228  
> 2022 01 01 00 01 55.1688020  0  7                     
G05  24059076.514                                           0.244  
G10  24957352.754                                           0.239  
G18  21292666.491                                           0.255  
G20  26164385.229                                           0.228  
G23  22204404.279                                           0.255  
G24  20622850.936                                           0.255  
G28  26160731.223       -4805.600        -182.242           0.228  
> 2022 01 01 00 01 55.2688020  0  7                     
G05  24059123.335                                           0.244  
G10  24957296.062                                           0.239  
G18  21292676.638                                           0.255  
G20  26164443.053                                           0.228  
G23  22204364.040                                           0.255  
G24  20622839.420                                           0.255  
G28  26160734.655       -4825.255        -158.917           0.228  
> 2022 01 01 00 01 55.3688020  0  7                     
G05  24059170.016                                           0.244  
G10  24957240.528                                           0.239  
G18  21292686.839      -31426.364        -547.162           0.255  
G20  26164502.306                                           0.228  
G23  22204323.237                                           0.255  
G24  20622828.043                                           0.255  
G28  26160738.209                                           0.228  
> 2022 01 01 00 01 55.4688020  0  7                     
G05  24059216.947     -236941.041       -2038.464           0.244  
G10  24957184.658      251018.817        2924.102           0.239  
G18  21292697.390      -31481.018        -384.599           0.255  
G20  26164561.905     -156729.570       -3542.013           0.228  
G23  22204282.589      104432.520        2081.205           0.255  
G24  20622816.087       28539.539         736.909           0.255  
G28  26160741.872       -4856.738        -428.560           0.228  
> 2022 01 01 00 01 55.5688020  0  7                     
G05  24059263.489     -237186.304       -2638.408           0.245  
G10  24957130.671      251307.893        2936.653           0.239  
G18  21292707.887      -31536.088       -1315.496           0.255  
G20  26164620.586     -157038.686       -3290.080           0.228  
G23  22204242.234      104645.370        1954.004           0.255  
G24  20622804.831       28599.935         758.968           0.255  
G28  26160744.528       -4873.050         -87.090           0.228  
> 2022 01 01 00 01 55.6688020  0  7                     
G05  24059308.842     -237431.742       -3865.743           0.244  
G10  24957077.499      251592.813        2270.169           0.239  
G18  21292718.037      -31590.735        -489.952           0.255  
G20  26164679.676     -157347.910       -2942.532           0.228  
G23  22204201.656      104858.132        1285.929           0.255  
G24  20622793.730       28660.332         405.789           0.255  
G28  26160747.828       -4890.176        -804.655           0.228  
> 2022 01 01 00 01 55.7688020  0  7                     
G05  24059356.271                                           0.243  
G10  24957021.289                                           0.239  
G18  21292728.276                                           0.255  
G20  26164738.426                                           0.228  
G23  22204161.635                                           0.255  
G24  20622782.397                                           0.255  
G28  26160752.279                                           0.228  
> 2022 01 01 00 01 55.9688020  0  7                     
G05  24059448.843     -238165.732       -1962.259           0.244  
G10  24956911.800      252463.980        2920.540           0.239  
G18  21292749.488      -31755.041        -546.675           0.255  
G20  26164855.262     -158276.370       -3551.072           0.228  
G23  22204080.065      105497.469        2140.935           0.255  
G24  20622759.174       28841.974         710.295           0.255  
G28  26160757.339       -4941.581       -1272.701           0.228  
> 2022 01 01 00 01 56.0688020  0  7                     
G05  24059496.375     -238410.644       -1437.225           0.244  
G10  24956856.623      252753.031        2894.312           0.239  
G18  21292759.856      -31809.721        -583.415           0.255  
G20  26164915.153     -158584.992       -3041.961           0.228  
G23  22204039.934      105710.516        2102.598           0.255  
G24  20622747.697       28902.211         284.178           0.255  
G28  26160761.328       -4959.876       -1417.326           0.228  
> 2022 01 01 00 01 56.1688020  0  7                     
G05  24059542.951                                           0.244  
G10  24956801.223                                           0.239  
G18  21292770.392                                           0.255  
G20  26164971.708                                           0.228  
G23  22203998.556                                           0.255  
G24  20622736.191                                           0.255  
G28  26160765.261                                           0.228  
> 2022 01 01 00 01 56.2688020  0  7                     
G05  24059589.814                                           0.244  
G10  24956746.098                                           0.239  
G18  21292780.839      -31919.495        -561.427           0.255  
G20  26165031.958                                           0.228  
G23  22203958.593                                           0.255  
G24  20622724.469                                           0.255  
G28  26160768.542                                           0.228  
> 2022 01 01 00 01 56.4688020  0  7                     
G05  24059682.826     -239391.112       -2446.524           0.244  
G10  24956635.760      253906.743         256.028           0.239  
G18  21292801.612      -32029.142        -481.904           0.255  
G20  26165149.499     -159822.254       -3038.693           0.228  
G23  22203877.743      106562.368        2110.093           0.255  
G24  20622701.434       29144.234         670.491           0.255  
G28  26160774.142       -5026.236         -12.813           0.228  
> 2022 01 01 00 01 57.0688020  0  7                     
G05  24059963.564                                           0.244  
G10  24956305.398                                           0.239  
G18  21292864.184                                           0.255  
G20  26165503.051                                           0.228  
G23  22203634.704                                           0.255  
G24  20622632.446                                           0.255  
G28  26160792.807                                           0.228  
> 2022 01 01 00 01 57.2688020  0  7                     
G05  24060055.996                                           0.244  
G10  24956196.883                                           0.239  
G18  21292885.133                                           0.255  
G20  26165619.795                                           0.228  
G23  22203553.671                                           0.255  
G24  20622609.300                                           0.255  
G28  26160799.681                                           0.228  
> 2022 01 01 00 01 57.3688020  0  7                     
G05  24060102.388                                           0.244  
G10  24956142.563                                           0.239  
G18  21292895.657                                           0.255  
G20  26165678.547                                           0.228  
G23  22203513.321                                           0.255  
G24  20622597.905                                           0.255  
G28  26160803.303                                           0.228  
> 2022 01 01 00 01 57.4688020  0  7                     
G05  24060149.165     -241841.372       -2661.774           0.244  
G10  24956084.915      256799.612        2946.644           0.239  
G18  21292906.140      -32578.244       -1293.249           0.255  
G20  26165737.946     -162915.366       -2674.855           0.228  
G23  22203472.220      108692.244        3164.850           0.255  
G24  20622586.652       29748.159         274.301           0.255  
G28  26160805.887       -5196.436         517.430           0.228  
> 2022 01 01 00 01 57.5688020  0  7                     
G05  24060195.177     -242086.850       -2405.754           0.244  
G10  24956031.581      257089.304        2913.819           0.239  
G18  21292916.560      -32632.769        -562.411           0.255  
G20  26165796.539                                           0.228  
G23  22203431.850      108905.149        2122.107           0.255  
G24  20622574.748                                           0.255  
G28  26160808.985       -5214.168        -155.809           0.228  
> 2022 01 01 00 01 57.6688020  0  7                     
G05  24060242.713                                           0.244  
G10  24955974.930                                           0.239  
G18  21292926.825                                           0.255  
G20  26165857.588                                           0.228  
G23  22203391.212                                           0.255  
G24  20622563.534                                           0.255  
G28  26160813.137                                           0.228  
> 2022 01 01 00 01 57.7688020  0  7                     
G05  24060288.660     -242575.917       -1634.915           0.244  
G10  24955920.429      257666.678        2887.330           0.239  
G18  21292937.419      -32742.592        -561.444           0.255  
G20  26165915.179     -163843.525       -2976.429           0.228  
G23  22203350.930      109330.779        1973.746           0.255  
G24  20622552.147       29929.389         603.435           0.255  
G28  26160815.410       -5248.472        -459.148           0.228  
> 2022 01 01 00 01 58.1688020  0  7                     
G05  24060475.346     -243556.328       -2215.364           0.244  
G10  24955701.817      258822.576        2340.870           0.239  
G18  21292979.221      -32962.322        -550.378           0.255  
G20  26166149.756     -165080.920       -2873.314           0.228  
G23  22203188.808      110182.884        2266.790           0.255  
G24  20622506.218       30170.946         948.906           0.255  
G28  26160828.941       -5319.292       -4169.926           0.228  
> 2022 01 01 00 01 58.4688020  0  7                     
G05  24060615.551                                           0.244  
G10  24955535.302                                           0.239  
G18  21293010.577      -33127.212        -540.736           0.255  
G20  26166327.583     -166059.352       -3053.814           0.229  
G23  22203067.380                                           0.255  
G24  20622471.820                                           0.255  
G28  26160839.346                                           0.228  
> 2022 01 01 00 01 58.5688020  0  7                     
G05  24060661.727     -244537.337       -2449.453           0.244  
G10  24955480.245      260002.903        2881.817           0.239  
G18  21293020.978                                           0.255  
G20  26166385.671                                           0.228  
G23  22203026.578                                           0.255  
G24  20622460.305                                           0.255  
G28  26160843.023                                           0.228  
> 2022 01 01 00 01 58.6688020  0  7                     
G05  24060708.678                                           0.244  
G10  24955425.355                                           0.239  
G18  21293031.580      -33237.198        -605.354           0.255  
G20  26166444.492                                           0.228  
G23  22202986.093                                           0.255  
G24  20622448.659                                           0.255  
G28  26160845.876                                           0.228  
> 2022 01 01 00 01 58.8688020  0  7                     
G05  24060802.520     -245271.942       -2274.399           0.244  
G10  24955316.876      260846.234        2904.815           0.239  
G18  21293052.384      -33347.184        -677.372           0.255  
G20  26166561.945     -167245.238        -921.087           0.228  
G23  22202905.283      111674.081        3272.595           0.255  
G24  20622425.708       30592.845         517.488           0.255  
G28  26160850.872       -5437.184       -1724.328           0.228  
> 2022 01 01 00 01 59.1688020  0  7                     
G05  24060942.006                                           0.244  
G10  24955151.313                                           0.239  
G18  21293083.844                                           0.255  
G20  26166739.449                                           0.228  
G23  22202783.441                                           0.255  
G24  20622391.266                                           0.255  
G28  26160861.797       -5488.012        -141.480           0.228  
> 2022 01 01 00 01 59.2688020  0  7                     
G05  24060988.333                                           0.244  
G10  24955095.428                                           0.239  
G18  21293094.267      -33567.180        -538.119           0.255  
G20  26166797.780                                           0.228  
G23  22202742.958      112525.180        2128.612           0.255  
G24  20622379.911                                           0.255  
G28  26160864.886       -5507.927        -166.655           0.228  
> 2022 01 01 00 01 59.3688020  0  7                     
G05  24061035.165     -246497.368       -2612.996           0.244  
G10  24955040.436      262291.069        2594.954           0.239  
G18  21293104.848      -33622.297        -500.030           0.255  
G20  26166857.195     -168793.428       -3503.238           0.228  
G23  22202702.474      112737.913        1928.149           0.255  
G24  20622368.419       30893.883         -24.854           0.255  
G28  26160869.185       -5522.369          -5.151           0.228  
> 2022 01 01 00 01 59.4688020  0  7                     
G05  24061081.927     -246742.282       -2244.363           0.244  
G10  24954986.194      262580.480        2957.679           0.239  
G18  21293115.331      -33677.178        -561.855           0.255  
G20  26166914.005     -169102.603       -3301.589           0.228  
G23  22202662.243      112950.906        2127.397           0.255  
G24  20622356.877       30954.441         601.869           0.255  
G28  26160872.754       -5539.694        -390.218           0.228  
> 2022 01 01 00 01 59.5688020  0  7                     
G05  24061128.622     -246987.395       -2407.426           0.244  
G10  24954931.470      262869.618        3090.612           0.239  
G18  21293125.692      -33732.258        -524.468           0.255  
G20  26166974.328     -169411.983       -3246.019           0.228  
G23  22202622.069      113163.801        2007.323           0.255  
G24  20622345.386       31014.804         778.254           0.255  
G28  26160875.255       -5558.047       -2039.612           0.228  
> 2022 01 01 00 01 59.6688020  0  7                     
G05  24061175.440     -247232.746       -2897.061           0.244  
G10  24954875.945      263158.545        2815.772           0.239  
G18  21293136.156      -33787.326        -541.610           0.255  
G20  26167033.117     -169721.005       -2942.345           0.228  
G23  22202580.866      113376.746        2110.776           0.255  
G24  20622334.114       31074.950         788.294           0.255  
G28  26160878.426       -5573.955        -550.233           0.228  
> 2022 01 01 00 02 00.2688020  0  7                     
G05  24061454.969                                           0.244  
G10  24954545.790                                           0.239  
G18  21293199.099                                           0.255  
G20  26167386.895                                           0.228  
G23  22202338.121                                           0.255  
G24  20622264.917                                           0.255  
G28  26160897.817                                           0.228  
> 2022 01 01 00 02 00.3688020  0  7                     
G05  24061501.392     -248948.108       -2439.712           0.244  
G10  24954489.941      265182.124        2943.029           0.239  
G18  21293209.618      -34172.811        -524.511           0.255  
G20  26167445.887     -171887.612       -3987.172           0.228  
G23  22202297.356      114867.174        2096.666           0.255  
G24  20622253.636       31496.167         301.867           0.255  
G28  26160901.111       -5694.277        -762.535           0.228  
> 2022 01 01 00 02 00.4688020  0  7                     
G05  24061547.944     -249193.166       -2617.688           0.244  
G10  24954434.368      265471.196        2923.498           0.239  
G18  21293220.178      -34227.945        -547.750           0.255  
G20  26167506.321     -172196.397       -3084.117           0.228  
G23  22202257.216      115080.094        2136.818           0.255  
G24  20622242.532       31556.501         650.847           0.255  
G28  26160905.003       -5711.720        -386.863           0.228  
> 2022 01 01 00 02 00.6688020  0  7                     
G05  24061642.022     -249683.399       -2346.972           0.244  
G10  24954325.043      266049.242        2843.649           0.239  
G18  21293240.625      -34338.348        -831.383           0.255  
G20  26167624.675     -172813.970       -1746.344           0.227  
G23  22202176.174      115505.877        2117.982           0.255  
G24  20622219.259       31676.822         600.438           0.255  
G28  26160910.388       -5746.912         308.873           0.228  
> 2022 01 01 00 02 00.7688020  0  7                     
G05  24061688.238                                           0.244  
G10  24954269.636      266339.037        2861.621           0.239  
G18  21293250.600      -34393.294        -548.137           0.255  
G20  26167683.187     -173125.121       -3076.384           0.228  
G23  22202135.556                                           0.255  
G24  20622208.674                                           0.255  
G28  26160915.134                                           0.228  
> 2022 01 01 00 02 00.8688020  0  7                     
G05  24061734.216                                           0.244  
G10  24954214.950                                           0.239  
G18  21293261.755      -34448.421        -555.927           0.255  
G20  26167741.359                                           0.228  
G23  22202095.165                                           0.255  
G24  20622197.051                                           0.255  
G28  26160917.517       -5782.989        -174.817           0.228  
> 2022 01 01 00 02 00.9688020  0  7                     
G05  24061781.734                                           0.244  
G10  24954160.100                                           0.239  
G18  21293272.802                                           0.255  
G20  26167798.578                                           0.228  
G23  22202054.656                                           0.255  
G24  20622185.094                                           0.255  
G28  26160922.028                                           0.228  
> 2022 01 01 00 02 01.0688020  0  7                     
G05  24061829.482                                           0.244  
G10  24954105.069                                           0.239  
G18  21293282.824                                           0.255  
G20  26167857.798                                           0.228  
G23  22202013.883                                           0.255  
G24  20622173.457                                           0.255  
G28  26160924.798                                           0.228  
> 2022 01 01 00 02 01.1688020  0  7                     
G05  24061874.973                                           0.244  
G10  24954050.716                                           0.239  
G18  21293293.412                                           0.255  
G20  26167916.922                                           0.228  
G23  22201972.917                                           0.255  
G24  20622162.496                                           0.255  
G28  26160927.328                                           0.228  
> 2022 01 01 00 02 01.5688020  0  7                     
G05  24062061.989     -251888.897       -1940.545           0.244  
G10  24953828.322      268651.479        4277.776           0.239  
G18  21293335.630      -34834.624        -503.833           0.255  
G20  26168153.340     -175599.424       -3545.330           0.228  
G23  22201811.154      117422.120        1949.403           0.255  
G24  20622116.189       32217.764         201.559           0.255  
G28  26160939.829       -5900.811         -30.502           0.228  
> 2022 01 01 00 02 01.6688020  0  7                     
G05  24062107.988                                           0.244  
G10  24953775.902                                           0.239  
G18  21293346.072                                           0.255  
G20  26168208.776                                           0.228  
G23  22201770.755                                           0.255  
G24  20622104.889                                           0.255  
G28  26160943.271                                           0.228  
> 2022 01 01 00 02 02.0688020  0  7                     
G05  24062293.800     -253115.117       -1790.990           0.244  
G10  24953555.012      270096.282        2946.626           0.239  
G18  21293387.997      -35110.576        -719.988           0.255  
G20  26168446.253     -177148.937       -8159.152           0.228  
G23  22201608.436      118486.166        1565.497           0.255  
G24  20622059.576       32518.367         632.607           0.255  
G28  26160956.182       -5987.634        -683.270           0.228  
> 2022 01 01 00 02 02.2688020  0  7                     
G05  24062387.113     -253604.800        -852.006           0.244  
G10  24953445.140      270674.424        3588.900           0.240  
G18  21293408.978      -35221.094        -986.597           0.255  
G20  26168563.249     -177765.334       -3702.948           0.228  
G23  22201527.700      118913.185        5047.805           0.255  
G24  20622036.575       32638.467         610.954           0.255  
G28  26160962.145       -6020.188        3518.829           0.228  
> 2022 01 01 00 02 02.3688020  0  7                     
G05  24062434.016                                           0.244  
G10  24953390.267                                           0.239  
G18  21293419.543                                           0.255  
G20  26168623.098                                           0.228  
G23  22201487.202                                           0.255  
G24  20622024.963                                           0.255  
G28  26160966.262                                           0.228  
> 2022 01 01 00 02 02.4688020  0  7                     
G05  24062481.085                                           0.244  
G10  24953335.093                                           0.239  
G18  21293429.827                                           0.255  
G20  26168683.007                                           0.228  
G23  22201446.581      119338.034        2160.289           0.255  
G24  20622013.919                                           0.255  
G28  26160969.744                                           0.228  
> 2022 01 01 00 02 02.5688020  0  7                     
G05  24062527.813                                           0.244  
G10  24953282.393                                           0.239  
G18  21293440.435                                           0.255  
G20  26168739.312                                           0.228  
G23  22201406.241                                           0.255  
G24  20622002.516                                           0.255  
G28  26160972.924                                           0.228  
> 2022 01 01 00 02 02.6688020  0  7                     
G05  24062574.450                                           0.244  
G10  24953225.851                                           0.239  
G18  21293451.058                                           0.255  
G20  26168800.449                                           0.228  
G23  22201365.557                                           0.255  
G24  20621990.844                                           0.255  
G28  26160976.389                                           0.228  
> 2022 01 01 00 02 02.7688020  0  7                     
G05  24062621.019                                           0.244  
G10  24953170.147      272120.542        2943.846           0.239  
G18  21293461.441                                           0.255  
G20  26168858.418     -179309.781       -2909.708           0.228  
G23  22201324.905      119976.579        2009.294           0.255  
G24  20621979.320                                           0.255  
G28  26160979.498       -6108.359        -159.478           0.228  
> 2022 01 01 00 02 02.8688020  0  7                     
G05  24062667.606                                           0.244  
G10  24953115.589                                           0.239  
G18  21293472.081      -35552.376        -564.335           0.255  
G20  26168917.270     -179619.325       -3245.196           0.228  
G23  22201285.019                                           0.255  
G24  20621968.239                                           0.255  
G28  26160982.527       -6125.793        -333.032           0.228  
> 2022 01 01 00 02 03.0688020  0  7                     
G05  24062760.987                                           0.244  
G10  24953004.422                                           0.239  
G18  21293492.741                                           0.255  
G20  26169034.452                                           0.228  
G23  22201203.495                                           0.255  
G24  20621945.346                                           0.255  
G28  26160991.432                                           0.228  
> 2022 01 01 00 02 03.1688020  0  7                     
G05  24062807.675                                           0.244  
G10  24952950.189                                           0.239  
G18  21293503.629      -35731.445        -532.450           0.255  
G20  26169093.442                                           0.228  
G23  22201163.284                                           0.255  
G24  20621933.854                                           0.255  
G28  26160993.647       -6177.735        -252.230           0.228  
> 2022 01 01 00 02 03.3688020  0  7                     
G05  24062901.023     -256302.366       -2699.228           0.244  
G10  24952841.225      273854.324        2972.696           0.239  
G18  21293524.484      -35828.747        -552.224           0.255  
G20  26169210.864     -181168.292       -3042.527           0.228  
G23  22201082.117      121253.686        2126.182           0.255  
G24  20621911.007       33298.572         606.945           0.255  
G28  26160999.977       -6212.738        -294.775           0.228  
> 2022 01 01 00 02 03.4688020  0  7                     
G05  24062947.246     -256547.440       -2654.447           0.244  
G10  24952785.812      274143.277        2334.282           0.239  
G18  21293534.996      -35884.161        -677.319           0.255  
G20  26169270.561     -181478.028       -3254.437           0.228  
G23  22201041.615      121466.549        2130.275           0.255  
G24  20621899.732       33358.534         598.239           0.255  
G28  26161002.503       -6229.421         298.083           0.228  
> 2022 01 01 00 02 03.5688020  0  7                     
G05  24062994.730                                           0.244  
G10  24952729.427      274433.120        2942.922           0.239  
G18  21293545.466      -35939.381        -550.388           0.255  
G20  26169330.919                                           0.228  
G23  22201001.064      121679.548        2167.546           0.255  
G24  20621888.326                                           0.255  
G28  26161006.593       -6247.080        -199.730           0.228  
> 2022 01 01 00 02 03.7688020  0  7                     
G05  24063087.978     -257283.529       -2438.727           0.244  
G10  24952620.177      275011.261        2870.350           0.239  
G18  21293567.019      -36049.975        -531.760           0.255  
G20  26169447.620                                           0.228  
G23  22200920.100                                           0.255  
G24  20621865.422                                           0.255  
G28  26161012.448       -6281.780        -131.414           0.228  
> 2022 01 01 00 02 03.8688020  0  7                     
G05  24063134.612     -257528.732       -2435.772           0.244  
G10  24952565.829      275300.403        2878.887           0.239  
G18  21293577.355                                           0.255  
G20  26169506.626                                           0.228  
G23  22200879.894      122318.079        2118.721           0.255  
G24  20621853.948                                           0.255  
G28  26161015.567       -6299.130        -152.623           0.228  
> 2022 01 01 00 02 04.0688020  0  7                     
G05  24063227.121                                           0.244  
G10  24952453.544                                           0.239  
G18  21293598.322      -36224.876        -569.462           0.255  
G20  26169625.056     -183387.979       -3122.795           0.228  
G23  22200798.546                                           0.255  
G24  20621831.097                                           0.255  
G28  26161022.732                                           0.228  
> 2022 01 01 00 02 04.1688020  0  7                     
G05  24063273.385     -258263.676       -2511.484           0.244  
G10  24952399.308      276167.507        4098.900           0.239  
G18  21293609.135      -36271.264        -214.157           0.255  
G20  26169682.498     -183643.665       -2761.546           0.228  
G23  22200757.912      122955.939        1443.282           0.255  
G24  20621819.993       33778.220         769.556           0.255  
G28  26161026.711       -6351.878       -1717.143           0.228  
> 2022 01 01 00 02 04.2688020  0  7                     
G05  24063320.876                                           0.244  
G10  24952345.035                                           0.239  
G18  21293619.271                                           0.255  
G20  26169742.961                                           0.228  
G23  22200717.800                                           0.255  
G24  20621808.651                                           0.255  
G28  26161028.510                                           0.228  
> 2022 01 01 00 02 04.3688020  0  7                     
G05  24063366.444                                           0.244  
G10  24952289.938      276745.812        2920.362           0.239  
G18  21293630.342      -36382.071        -550.472           0.255  
G20  26169801.450     -184260.555       -3135.640           0.227  
G23  22200676.980      123382.284        2127.322           0.255  
G24  20621797.198                                           0.255  
G28  26161032.530                                           0.228  
> 2022 01 01 00 02 04.5688020  0  7                     
G05  24063461.047     -259243.787       -1205.185           0.244  
G10  24952180.468      277323.393        2888.118           0.239  
G18  21293651.297      -36492.885        -602.560           0.255  
G20  26169918.545     -184877.818        4802.694           0.228  
G23  22200595.746      123807.993        2290.627           0.255  
G24  20621773.923       34017.540         175.586           0.255  
G28  26161038.877       -6421.093        -879.117           0.228  
> 2022 01 01 00 02 04.7688020  0  7                     
G05  24063554.831                                           0.244  
G10  24952069.873                                           0.239  
G18  21293672.241      -36603.535        -467.826           0.255  
G20  26170035.053                                           0.228  
G23  22200514.889      124233.649        2146.442           0.255  
G24  20621751.053                                           0.255  
G28  26161044.956       -6455.636        -178.913           0.228  
> 2022 01 01 00 02 04.8688020  0  7                     
G05  24063600.434                                           0.244  
G10  24952014.346      278191.230        2868.650           0.239  
G18  21293682.326                                           0.255  
G20  26170095.305                                           0.228  
G23  22200474.559                                           0.255  
G24  20621739.891                                           0.255  
G28  26161049.725                                           0.228  
> 2022 01 01 00 02 05.0688020  0  7                     
G05  24063694.028                                           0.244  
G10  24951904.163                                           0.239  
G18  21293703.642                                           0.255  
G20  26170214.377                                           0.228  
G23  22200393.834                                           0.255  
G24  20621717.073                                           0.255  
G28  26161054.893                                           0.228  
> 2022 01 01 00 02 05.1688020  0  7                     
G05  24063740.582                                           0.244  
G10  24951850.397      279058.481        2824.066           0.239  
G18  21293714.330      -36825.195        -545.632           0.255  
G20  26170272.050                                           0.228  
G23  22200353.076                                           0.255  
G24  20621705.918                                           0.255  
G28  26161058.426       -6525.329        -312.713           0.228  
> 2022 01 01 00 02 05.5688020  0  7                     
G05  24063925.112                                           0.244  
G10  24951631.115      280214.877        2886.861           0.239  
G18  21293756.313                                           0.255  
G20  26170507.825                                           0.229  
G23  22200191.266                                           0.255  
G24  20621660.078                                           0.255  
G28  26161073.205                                           0.228  
> 2022 01 01 00 02 05.7688020  0  7                     
G05  24064019.671     -262187.733       -2448.931           0.243  
G10  24951522.735                                           0.239  
G18  21293777.633                                           0.255  
G20  26170622.497                                           0.228  
G23  22200109.474                                           0.255  
G24  20621637.855                                           0.255  
G28  26161078.998                                           0.228  
> 2022 01 01 00 02 05.8688020  0  7                     
G05  24064065.736                                           0.244  
G10  24951464.434                                           0.239  
G18  21293788.347                                           0.255  
G20  26170684.020                                           0.228  
G23  22200069.811                                           0.255  
G24  20621626.732                                           0.255  
G28  26161082.498                                           0.228  
> 2022 01 01 00 02 05.9688020  0  7                     
G05  24064114.340     -262677.610       -2649.053           0.244  
G10  24951409.248      281370.616        2971.562           0.239  
G18  21293798.934      -37268.727        -556.695           0.255  
G20  26170743.528     -189213.732       -2247.098           0.228  
G23  22200030.043      126787.333        1975.289           0.255  
G24  20621614.791       34855.423         359.033           0.255  
G28  26161084.575       -6664.839        -421.214           0.228  
> 2022 01 01 00 02 06.1688020  0  7                     
G05  24064205.002                                           0.245  
G10  24951299.684      281949.502        2913.798           0.239  
G18  21293820.048                                           0.255  
G20  26170859.675     -189830.564       -3148.096           0.228  
G23  22199948.296      127213.143        2126.252           0.255  
G24  20621592.097                                           0.255  
G28  26161093.033       -6699.712        -193.521           0.228  
> 2022 01 01 00 02 06.6688020  0  7                     
G05  24064437.236                                           0.244  
G10  24951026.455                                           0.239  
G18  21293872.463                                           0.255  
G20  26171155.391                                           0.228  
G23  22199745.050                                           0.255  
G24  20621535.668                                           0.255  
G28  26161109.103                                           0.228  
> 2022 01 01 00 02 06.7688020  0  7                     
G05  24064481.405                                           0.245  
G10  24950970.900                                           0.239  
G18  21293882.986                                           0.255  
G20  26171212.517                                           0.228  
G23  22199704.854                                           0.255  
G24  20621524.691                                           0.255  
G28  26161112.472                                           0.228  
> 2022 01 01 00 02 07.0688020  0  7                     
G05  24064626.590     -265375.680       -3888.117           0.244  
G10  24950803.775      284550.752        2853.037           0.239  
G18  21293914.440      -37879.602        -983.039           0.255  
G20  26171392.206     -192618.111       -3548.838           0.228  
G23  22199584.451      129128.239        2115.010           0.255  
G24  20621490.218       35512.872         595.603           0.255  
G28  26161121.956       -6857.389        -236.844           0.228  
> 2022 01 01 00 02 07.1688020  0  7                     
G05  24064673.791     -265621.262       -2435.178           0.244  
G10  24950750.516                                           0.239  
G18  21293925.401                                           0.255  
G20  26171448.168     -192925.080       -3064.598           0.227  
G23  22199542.775      129341.151        2128.048           0.255  
G24  20621478.235                                           0.255  
G28  26161125.448                                           0.228  
> 2022 01 01 00 02 07.3688020  0  7                     
G05  24064767.016     -266110.966       -2441.733           0.243  
G10  24950638.061      285417.669        2660.567           0.239  
G18  21293946.994      -38046.016        -685.632           0.255  
G20  26171568.823     -193546.499       -3703.629           0.227  
G23  22199461.598      129766.786        2610.511           0.255  
G24  20621455.505       35691.998         610.440           0.255  
G28  26161132.729       -6908.695        1654.608           0.228  
> 2022 01 01 00 02 07.4688020  0  7                     
G05  24064813.461     -266356.408       -2448.071           0.244  
G10  24950584.805      285707.464        3164.439           0.239  
G18  21293957.696      -38101.636        -813.519           0.255  
G20  26171626.396     -193855.915       -3532.770           0.228  
G23  22199421.736      129979.536        2244.395           0.255  
G24  20621443.884       35751.793         706.258           0.255  
G28  26161135.515       -6927.008         -87.683           0.228  
> 2022 01 01 00 02 07.5688020  0  7                     
G05  24064859.966                                           0.244  
G10  24950530.464                                           0.239  
G18  21293967.844                                           0.255  
G20  26171685.827                                           0.228  
G23  22199381.370                                           0.255  
G24  20621432.718                                           0.255  
G28  26161138.734                                           0.228  
> 2022 01 01 00 02 07.9688020  0  7                     
G05  24065046.652                                           0.244  
G10  24950309.279                                           0.239  
G18  21294010.687                                           0.255  
G20  26171920.307                                           0.228  
G23  22199219.092      131043.432        2129.272           0.255  
G24  20621387.304                                           0.255  
G28  26161152.281                                           0.228  
> 2022 01 01 00 02 08.1688020  0  7                     
G05  24065139.515     -268072.980       -1616.470           0.244  
G10  24950199.695      287731.013        2977.416           0.239  
G18  21294031.231      -38490.539        -304.105           0.255  
G20  26172038.202     -196022.088       -3218.994           0.228  
G23  22199138.096      131468.897        2198.813           0.255  
G24  20621365.290       36169.223         285.577           0.255  
G28  26161158.658       -7049.869        -120.698           0.228  
> 2022 01 01 00 02 08.2688020  0  7                     
G05  24065186.269     -268318.535       -2264.846           0.244  
G10  24950144.972      288020.123        2917.716           0.239  
G18  21294041.993      -38546.451        -742.457           0.255  
G20  26172097.152     -196331.568       -3425.934           0.228  
G23  22199098.620      131681.597        2045.849           0.255  
G24  20621353.792       36229.031         812.328           0.255  
G28  26161162.274       -7067.627        -285.928           0.228  
> 2022 01 01 00 02 08.3688020  0  7                     
G05  24065233.561                                           0.244  
G10  24950090.644                                           0.239  
G18  21294052.686                                           0.255  
G20  26172156.015                                           0.228  
G23  22199057.061                                           0.255  
G24  20621342.391                                           0.255  
G28  26161165.681                                           0.228  
> 2022 01 01 00 02 08.5688020  0  7                     
G05  24065327.797                                           0.244  
G10  24949979.459      288888.036        2872.448           0.239  
G18  21294073.587      -38713.225        -536.849           0.255  
G20  26172272.976     -197257.855       -3174.470           0.227  
G23  22198976.014      132320.033        2121.371           0.255  
G24  20621319.473                                           0.255  
G28  26161170.706       -7120.273        -252.804           0.228  
> 2022 01 01 00 02 08.6688020  0  7                     
G05  24065374.485                                           0.244  
G10  24949924.719      289177.160        2837.615           0.239  
G18  21294084.187                                           0.255  
G20  26172332.563                                           0.228  
G23  22198936.084                                           0.255  
G24  20621308.004                                           0.255  
G28  26161175.813                                           0.228  
> 2022 01 01 00 02 08.8688020  0  7                     
G05  24065466.733                                           0.244  
G10  24949813.803                                           0.239  
G18  21294105.589                                           0.255  
G20  26172450.026                                           0.228  
G23  22198855.198                                           0.255  
G24  20621285.031                                           0.255  
G28  26161181.711       -7175.871        -183.672           0.228  
> 2022 01 01 00 02 08.9688020  0  7                     
G05  24065513.007     -270035.828       -2444.274           0.244  
G10  24949758.905      290043.821        2867.125           0.239  
G18  21294115.839      -38935.855        -553.500           0.255  
G20  26172512.712     -198497.487       -2197.817           0.229  
G23  22198813.589      133171.323        2369.094           0.255  
G24  20621273.977       36646.270         655.448           0.255  
G28  26161185.105       -7190.610        -271.387           0.228  
> 2022 01 01 00 02 09.0688020  0  7                     
G05  24065559.685                                           0.244  
G10  24949704.813                                           0.239  
G18  21294126.289                                           0.255  
G20  26172569.884                                           0.228  
G23  22198773.572                                           0.255  
G24  20621262.989                                           0.255  
G28  26161188.537                                           0.228  
> 2022 01 01 00 02 09.1688020  0  7                     
G05  24065608.114     -270526.088       -1275.587           0.244  
G10  24949649.139      290621.372        1819.284           0.239  
G18  21294137.068      -39047.169        -526.472           0.255  
G20  26172627.538     -199116.647       -2614.756           0.228  
G23  22198733.360      133596.070         681.163           0.255  
G24  20621251.134       36765.282         228.966           0.255  
G28  26161192.512       -7226.012        -376.990           0.228  
> 2022 01 01 00 02 09.2688020  0  7                     
G05  24065655.666                                           0.244  
G10  24949595.462                                           0.239  
G18  21294147.920                                           0.255  
G20  26172685.492                                           0.229  
G23  22198692.782                                           0.255  
G24  20621239.807                                           0.255  
G28  26161195.282                                           0.228  
> 2022 01 01 00 02 09.3688020  0  7                     
G05  24065701.826                                           0.244  
G10  24949540.631                                           0.239  
G18  21294158.318                                           0.255  
G20  26172744.371                                           0.228  
G23  22198652.769                                           0.255  
G24  20621228.711                                           0.255  
G28  26161200.711                                           0.228  
> 2022 01 01 00 02 09.4688020  0  7                     
G05  24065748.549                                           0.244  
G10  24949484.992      291513.244        2896.441           0.239  
G18  21294168.987                                           0.255  
G20  26172803.735                                           0.228  
G23  22198612.130                                           0.255  
G24  20621217.014                                           0.255  
G28  26161204.247                                           0.228  
> 2022 01 01 00 02 09.5688020  0  7                     
G05  24065794.499     -271507.836       -2709.721           0.244  
G10  24949429.391      291778.576        2822.362           0.239  
G18  21294179.610      -39269.891        -597.830           0.255  
G20  26172864.464     -200355.441       -4353.453           0.228  
G23  22198570.447      134447.554        2146.214           0.255  
G24  20621205.979       37003.710         596.218           0.255  
G28  26161207.437       -7296.546        -391.856           0.228  
> 2022 01 01 00 02 09.7688020  0  7                     
G05  24065886.030                                           0.244  
G10  24949321.009                                           0.239  
G18  21294200.874                                           0.255  
G20  26172978.593                                           0.228  
G23  22198490.131      134873.160        2135.640           0.255  
G24  20621183.796                                           0.255  
G28  26161211.889                                           0.228  
> 2022 01 01 00 02 09.9688020  0  7                     
G05  24065980.007     -272489.079       -2563.195           0.244  
G10  24949207.747      292935.526        3924.112           0.239  
G18  21294221.930      -39492.933        -679.933           0.255  
G20  26173099.985     -201593.021       -3020.219           0.227  
G23  22198409.786      135298.576        2304.815           0.255  
G24  20621160.938       37242.035         883.199           0.255  
G28  26161219.954       -7366.586          90.464           0.229  
> 2022 01 01 00 02 10.1688020  0  7                     
G05  24066071.929                                           0.244  
G10  24949099.240                                           0.239  
G18  21294243.209      -39604.411        -556.949           0.255  
G20  26173217.133                                           0.228  
G23  22198329.063                                           0.255  
G24  20621138.492                                           0.255  
G28  26161226.379                                           0.229  
> 2022 01 01 00 02 10.2688020  0  7                     
G05  24066122.206     -273225.061       -2317.745           0.244  
G10  24949043.438      293802.459        2847.102           0.239  
G18  21294254.002      -39659.960        -344.268           0.255  
G20  26173275.808     -202521.739       -3835.858           0.228  
G23  22198288.624      135936.775        2124.844           0.255  
G24  20621126.491       37420.379         594.531           0.255  
G28  26161230.020       -7418.364        2412.453           0.228  
> 2022 01 01 00 02 10.4688020  0  7                     
G05  24066214.415     -273716.092       -2328.334           0.244  
G10  24948933.159      294380.718        2926.301           0.239  
G18  21294275.087      -39771.517        -466.511           0.255  
G20  26173391.639     -203140.684       -3264.429           0.227  
G23  22198207.272      136362.363        2233.673           0.255  
G24  20621104.215       37539.387         812.117           0.255  
G28  26161236.631       -7454.472         798.567           0.228  
> 2022 01 01 00 02 10.5688020  0  7                     
G05  24066262.019                                           0.244  
G10  24948879.726                                           0.239  
G18  21294285.845                                           0.255  
G20  26173451.993                                           0.228  
G23  22198166.101                                           0.255  
G24  20621092.185                                           0.255  
G28  26161238.984                                           0.228  
> 2022 01 01 00 02 10.6688020  0  7                     
G05  24066310.344     -274206.886       -3037.668           0.244  
G10  24948824.898      294959.168        2789.519           0.239  
G18  21294296.213      -39883.209        -483.283           0.255  
G20  26173512.469     -203759.698       -3468.805           0.228  
G23  22198126.699      136787.843        2287.756           0.255  
G24  20621080.853       37658.330         593.038           0.255  
G28  26161242.716       -7490.241         290.069           0.228  
> 2022 01 01 00 02 10.7688020  0  7                     
G05  24066356.888                                           0.244  
G10  24948769.521      295289.227        2900.829           0.239  
G18  21294306.747      -39946.850        -550.885           0.255  
G20  26173570.591                                           0.228  
G23  22198085.806                                           0.255  
G24  20621070.062                                           0.255  
G28  26161245.509                                           0.228  
> 2022 01 01 00 02 10.8688020  0  7                     
G05  24066403.281                                           0.244  
G10  24948715.154                                           0.239  
G18  21294317.626                                           0.255  
G20  26173627.457                                           0.228  
G23  22198045.104                                           0.255  
G24  20621058.351                                           0.255  
G28  26161249.197                                           0.228  
> 2022 01 01 00 02 11.2688020  0  7                     
G05  24066587.558                                           0.244  
G10  24948493.600                                           0.239  
G18  21294360.365                                           0.255  
G20  26173864.201     -205670.274       -3113.064           0.228  
G23  22197883.110                                           0.255  
G24  20621013.238                                           0.255  
G28  26161262.453                                           0.228  
> 2022 01 01 00 02 11.4688020  0  7                     
G05  24066681.024                                           0.244  
G10  24948383.443                                           0.239  
G18  21294381.148                                           0.255  
G20  26173981.807                                           0.228  
G23  22197802.633                                           0.255  
G24  20620991.243                                           0.255  
G28  26161269.543                                           0.228  
> 2022 01 01 00 02 11.5688020  0  7                     
G05  24066726.998                                           0.244  
G10  24948328.788      297561.784        2916.074           0.239  
G18  21294391.783                                           0.255  
G20  26174041.295     -206543.181       -3165.241           0.228  
G23  22197761.941                                           0.255  
G24  20620980.008                                           0.255  
G28  26161272.770                                           0.228  
> 2022 01 01 00 02 11.7688020  0  7                     
G05  24066826.846     -276904.579        -760.279           0.244  
G10  24948220.392      298139.390        2820.319           0.239  
G18  21294412.959      -40497.192        -513.936           0.255  
G20  26174157.288     -207165.622       -4734.621           0.228  
G23  22197681.253      139127.629        2185.803           0.255  
G24  20620955.406       38312.125         596.828           0.255  
G28  26161280.147       -7684.662        -688.569           0.228  
> 2022 01 01 00 02 12.0688020  0  7                     
G05  24066960.962     -277641.739       -2180.615           0.244  
G10  24948054.833      299006.891        3014.136           0.239  
G18  21294445.425      -40664.805        -356.047           0.255  
G20  26174334.388     -208093.214       -3622.127           0.228  
G23  22197558.938      139766.132        2571.875           0.255  
G24  20620922.733       38490.398         760.911           0.255  
G28  26161290.075       -7738.364        -419.020           0.228  
> 2022 01 01 00 02 12.1688020  0  7                     
G05  24067005.577     -277887.081       -2895.378           0.245  
G10  24948000.008      299295.958        2902.325           0.239  
G18  21294456.405      -40720.824        -645.729           0.255  
G20  26174392.564     -208402.830       -3713.135           0.228  
G23  22197519.046      139978.520        2156.861           0.255  
G24  20620911.727       38549.732         705.949           0.255  
G28  26161293.123       -7755.738         232.960           0.228  
> 2022 01 01 00 02 12.2688020  0  7                     
G05  24067053.011     -278132.753       -2937.180           0.244  
G10  24947944.526      299585.148        3115.510           0.239  
G18  21294466.600      -40776.798        -695.457           0.255  
G20  26174452.198     -208712.072       -3188.676           0.228  
G23  22197478.403      140191.248        2332.878           0.255  
G24  20620900.388       38609.102         625.603           0.255  
G28  26161297.129       -7773.652        -166.221           0.228  
> 2022 01 01 00 02 12.3688020  0  7                     
G05  24067101.372     -278377.557       -1516.355           0.244  
G10  24947888.814      299874.155        2739.046           0.239  
G18  21294477.065      -40832.529        -483.673           0.255  
G20  26174512.579     -209021.498       -2900.962           0.228  
G23  22197438.370      140404.240        2912.772           0.255  
G24  20620889.311       38668.433         550.305           0.255  
G28  26161299.899       -7787.946        7122.448           0.228  
> 2022 01 01 00 02 12.4688020  0  7                     
G05  24067148.905     -278624.352       -3424.714           0.244  
G10  24947834.612      300163.407        2856.897           0.239  
G18  21294487.572      -40888.308        -382.398           0.255  
G20  26174570.455     -209330.795       -2801.640           0.228  
G23  22197397.353      140616.531        2020.367           0.255  
G24  20620878.080       38727.646         397.109           0.255  
G28  26161303.222       -7808.771        1051.172           0.228  
> 2022 01 01 00 02 12.5688020  0  7                     
G05  24067193.267     -278869.380       -2435.683           0.244  
G10  24947779.779                                           0.239  
G18  21294498.060                                           0.255  
G20  26174628.014                                           0.228  
G23  22197356.689                                           0.255  
G24  20620866.677                                           0.255  
G28  26161306.913                                           0.228  
> 2022 01 01 00 02 12.6688020  0  7                     
G05  24067235.685                                           0.244  
G10  24947724.073                                           0.239  
G18  21294507.995                                           0.255  
G20  26174688.729                                           0.228  
G23  22197316.849                                           0.255  
G24  20620857.350                                           0.255  
G28  26161310.297       -7844.824        -239.684           0.228  
> 2022 01 01 00 02 12.8688020  0  7                     
G05  24067337.997                                           0.244  
G10  24947614.303                                           0.239  
G18  21294530.332                                           0.255  
G20  26174806.350                                           0.228  
G23  22197235.271                                           0.255  
G24  20620832.776                                           0.255  
G28  26161316.178       -7883.188        -162.407           0.228  
> 2022 01 01 00 02 13.0688020  0  7                     
G05  24067427.056                                           0.244  
G10  24947504.250                                           0.239  
G18  21294551.343                                           0.255  
G20  26174925.061                                           0.228  
G23  22197154.415                                           0.255  
G24  20620810.790                                           0.255  
G28  26161323.651                                           0.228  
> 2022 01 01 00 02 13.1688020  0  7                     
G05  24067476.750                                           0.244  
G10  24947449.187                                           0.239  
G18  21294561.818                                           0.255  
G20  26174982.954     -211495.822       -3117.327           0.228  
G23  22197114.021      142160.864        2131.230           0.255  
G24  20620798.997                                           0.255  
G28  26161326.755                                           0.228  
> 2022 01 01 00 02 13.3688020  0  7                     
G05  24067569.922                                           0.244  
G10  24947339.003      302881.923        2801.988           0.239  
G18  21294583.456      -41414.235        -554.817           0.255  
G20  26175101.782     -212115.117       -3277.305           0.228  
G23  22197032.875      142530.896        2095.959           0.255  
G24  20620775.907                                           0.255  
G28  26161333.823       -7969.246        -125.308           0.228  
> 2022 01 01 00 02 13.4688020  0  7                     
G05  24067615.234     -281076.298       -1177.699           0.244  
G10  24947283.561      303054.796        2882.515           0.239  
G18  21294594.116      -41447.783        -438.028           0.255  
G20  26175160.632     -212426.767       -3659.037           0.228  
G23  22196992.793      142743.555        2287.661           0.255  
G24  20620764.946       39320.837         732.657           0.255  
G28  26161337.869       -7986.939         211.773           0.228  
> 2022 01 01 00 02 13.5688020  0  7                     
G05  24067662.403                                           0.244  
G10  24947228.843      303344.609        2901.934           0.239  
G18  21294605.126                                           0.255  
G20  26175219.100     -212734.055       -3106.874           0.228  
G23  22196952.187                                           0.255  
G24  20620753.692                                           0.255  
G28  26161340.697                                           0.228  
> 2022 01 01 00 02 13.6688020  0  7                     
G05  24067710.072                                           0.244  
G10  24947174.404      303633.751        2888.842           0.239  
G18  21294615.744                                           0.255  
G20  26175276.241                                           0.228  
G23  22196911.796                                           0.255  
G24  20620742.608                                           0.255  
G28  26161344.363                                           0.228  
> 2022 01 01 00 02 13.7688020  0  7                     
G05  24067756.973                                           0.244  
G10  24947117.976                                           0.239  
G18  21294626.282                                           0.255  
G20  26175338.456                                           0.228  
G23  22196871.206                                           0.255  
G24  20620731.519                                           0.255  
G28  26161347.362                                           0.228  
> 2022 01 01 00 02 13.8688020  0  7                     
G05  24067797.609                                           0.244  
G10  24947063.761                                           0.239  
G18  21294636.730                                           0.255  
G20  26175397.740                                           0.228  
G23  22196830.348                                           0.255  
G24  20620721.332                                           0.255  
G28  26161351.904                                           0.228  
> 2022 01 01 00 02 13.9688020  0  7                     
G05  24067847.172     -282305.280       -2401.400           0.244  
G10  24947010.003      304501.214        2935.379           0.239  
G18  21294647.232      -41727.785        -576.043           0.255  
G20  26175454.024     -213972.330       -2938.242           0.229  
G23  22196789.743                                           0.255  
G24  20620709.633                                           0.255  
G28  26161355.278       -8076.002        -104.022           0.228  
> 2022 01 01 00 02 14.2688020  0  7                     
G05  24067989.243     -283040.914       -2449.390           0.245  
G10  24946843.746      305368.006        3171.155           0.239  
G18  21294679.763      -41895.771        -678.804           0.255  
G20  26175630.789     -214903.216       -3407.613           0.228  
G23  22196669.401      144444.916        2067.943           0.255  
G24  20620675.011       39794.934         592.990           0.255  
G28  26161363.787       -8129.309         143.643           0.228  
> 2022 01 01 00 02 14.4688020  0  7                     
G05  24068082.426     -283532.569       -3185.051           0.243  
G10  24946733.776      305946.466        3075.299           0.239  
G18  21294700.970      -42007.936        -678.105           0.255  
G20  26175748.542     -215521.044       -2181.685           0.228  
G23  22196587.778      144870.025        1148.001           0.255  
G24  20620652.217       39913.308         865.952           0.255  
G28  26161370.182       -8165.327        -329.569           0.228  
> 2022 01 01 00 02 14.5688020  0  7                     
G05  24068129.285                                           0.244  
G10  24946678.607                                           0.239  
G18  21294711.443                                           0.255  
G20  26175808.461                                           0.228  
G23  22196547.346                                           0.255  
G24  20620640.705                                           0.255  
G28  26161373.919                                           0.228  
> 2022 01 01 00 02 14.6688020  0  7                     
G05  24068177.027                                           0.244  
G10  24946623.762                                           0.239  
G18  21294722.021                                           0.255  
G20  26175865.596                                           0.228  
G23  22196507.394                                           0.255  
G24  20620629.601                                           0.255  
G28  26161377.776                                           0.228  
> 2022 01 01 00 02 14.7688020  0  7                     
G05  24068222.978     -284268.239       -2653.379           0.244  
G10  24946567.969      306813.692        2736.898           0.239  
G18  21294732.652      -42176.292        -453.032           0.255  
G20  26175924.927     -216450.933       -2563.292           0.228  
G23  22196467.499      145507.959        1989.725           0.255  
G24  20620618.127       40091.216         868.117           0.255  
G28  26161381.753       -8218.708        -166.859           0.228  
> 2022 01 01 00 02 15.3688020  0  7                     
G05  24068502.519                                           0.244  
G10  24946237.758      308572.495        2898.858           0.239  
G18  21294796.617      -42512.496        -559.415           0.255  
G20  26176280.444                                           0.228  
G23  22196222.634                                           0.255  
G24  20620550.899                                           0.255  
G28  26161401.400                                           0.228  
> 2022 01 01 00 02 15.4688020  0  7                     
G05  24068550.019     -285986.330       -2367.741           0.244  
G10  24946182.692      308837.969        3024.583           0.239  
G18  21294807.211      -42568.177       -2045.863           0.255  
G20  26176337.868     -218618.177       -3502.507           0.228  
G23  22196182.191      146996.841        2125.840           0.255  
G24  20620539.632       40505.248         729.486           0.255  
G28  26161405.150       -8344.374        -795.206           0.228  
> 2022 01 01 00 02 15.5688020  0  7                     
G05  24068597.738     -286231.691       -2299.241           0.244  
G10  24946128.805      309127.206        3084.112           0.239  
G18  21294818.273      -42624.667        -555.212           0.255  
G20  26176397.310     -218927.472       -2683.215           0.228  
G23  22196142.908      147209.421        1948.189           0.255  
G24  20620528.165       40564.227         451.542           0.255  
G28  26161409.120       -8361.701        -196.523           0.228  
> 2022 01 01 00 02 15.7688020  0  7                     
G05  24068689.684                                           0.244  
G10  24946018.197                                           0.239  
G18  21294839.594                                           0.255  
G20  26176515.668     -219544.747       -2982.284           0.228  
G23  22196062.698                                           0.255  
G24  20620505.750                                           0.255  
G28  26161415.933                                           0.228  
> 2022 01 01 00 02 15.8688020  0  7                     
G05  24068737.740                                           0.244  
G10  24945962.698                                           0.239  
G18  21294850.035                                           0.255  
G20  26176573.626                                           0.228  
G23  22196021.259                                           0.255  
G24  20620494.275                                           0.255  
G28  26161418.872       -8415.574        -185.354           0.228  
> 2022 01 01 00 02 16.0688020  0  7                     
G05  24068829.484     -287459.151       -2370.889           0.244  
G10  24945852.700      310573.653        3703.208           0.240  
G18  21294871.370      -42905.252        -406.216           0.255  
G20  26176691.993     -220476.578       -4188.182           0.228  
G23  22195940.409      148272.494        1506.797           0.255  
G24  20620472.782       40859.905         590.921           0.255  
G28  26161425.220       -8451.123         789.217           0.228  
> 2022 01 01 00 02 16.2688020  0  7                     
G05  24068923.912     -287950.259       -2353.251           0.244  
G10  24945741.882      311151.167        2930.431           0.240  
G18  21294892.232      -43017.652        -681.032           0.255  
G20  26176809.128     -221095.106       -3419.541           0.228  
G23  22195860.202      148697.938        2043.924           0.255  
G24  20620449.987       40977.999         383.205           0.255  
G28  26161432.476       -8487.598        -872.772           0.228  
> 2022 01 01 00 02 16.3688020  0  7                     
G05  24068970.644     -288195.796       -2377.939           0.245  
G10  24945687.267      311440.487        3168.262           0.239  
G18  21294903.111      -43073.831        -629.554           0.255  
G20  26176868.401     -221404.526       -3098.730           0.228  
G23  22195820.025      148910.509        2038.054           0.255  
G24  20620438.345       41037.559        1249.914           0.255  
G28  26161435.608       -8505.209          29.771           0.228  
> 2022 01 01 00 02 16.5688020  0  7                     
G05  24069062.635     -288685.029       -2476.176           0.244  
G10  24945576.487                                           0.239  
G18  21294924.776                                           0.255  
G20  26176987.778     -222021.496       -3070.623           0.228  
G23  22195738.361      149335.937        2122.446           0.255  
G24  20620415.621                                           0.255  
G28  26161442.147       -8540.986        -140.075           0.228  
> 2022 01 01 00 02 16.6688020  0  7                     
G05  24069109.318                                           0.244  
G10  24945522.703      312308.449        2841.734           0.239  
G18  21294935.485                                           0.255  
G20  26177045.893                                           0.228  
G23  22195697.439                                           0.255  
G24  20620404.603                                           0.255  
G28  26161446.673                                           0.228  
> 2022 01 01 00 02 16.7688020  0  7                     
G05  24069157.764                                           0.243  
G10  24945468.173                                           0.239  
G18  21294946.068      -43312.009        -548.629           0.255  
G20  26177104.386     -222640.764       -3174.186           0.228  
G23  22195657.594      149761.170        2109.297           0.255  
G24  20620393.102                                           0.255  
G28  26161450.220                                           0.228  
> 2022 01 01 00 02 16.8688020  0  7                     
G05  24069201.930     -289423.325       -2461.407           0.243  
G10  24945412.744      312886.348        3047.238           0.239  
G18  21294957.168      -43354.771        -673.040           0.255  
G20  26177165.509     -222952.395       -3053.017           0.228  
G23  22195616.951      149973.994        2545.254           0.255  
G24  20620382.170       41332.347         241.710           0.255  
G28  26161453.746       -8594.363          44.836           0.228  
> 2022 01 01 00 02 17.0688020  0  7                     
G05  24069295.429                                           0.244  
G10  24945302.762                                           0.239  
G18  21294978.533                                           0.255  
G20  26177279.594                                           0.228  
G23  22195535.212                                           0.255  
G24  20620360.103                                           0.255  
G28  26161460.673                                           0.228  
> 2022 01 01 00 02 17.2688020  0  7                     
G05  24069390.308     -290405.346       -2503.900           0.244  
G10  24945193.388      314043.280        3951.670           0.239  
G18  21294999.821      -43579.542        -555.412           0.255  
G20  26177396.447     -224190.664       -2839.929           0.228  
G23  22195453.931      150823.888        2197.967           0.255  
G24  20620337.442       41568.647         541.543           0.255  
G28  26161467.445       -8666.586         102.326           0.228  
> 2022 01 01 00 02 17.5688020  0  7                     
G05  24069530.866                                           0.244  
G10  24945027.119                                           0.239  
G18  21295032.312      -43748.263        -556.096           0.255  
G20  26177575.194                                           0.228  
G23  22195333.395      151462.132        2122.876           0.255  
G24  20620302.997                                           0.255  
G28  26161477.364                                           0.228  
> 2022 01 01 00 02 17.7688020  0  7                     
G05  24069623.044                                           0.244  
G10  24944916.878      315512.487        2893.715           0.239  
G18  21295053.802                                           0.255  
G20  26177696.020                                           0.228  
G23  22195252.803      151887.364        2127.175           0.255  
G24  20620281.202                                           0.255  
G28  26161483.905                                           0.228  
> 2022 01 01 00 02 17.8688020  0  7                     
G05  24069670.641                                           0.243  
G10  24944862.285                                           0.239  
G18  21295064.308                                           0.255  
G20  26177752.105                                           0.227  
G23  22195212.271                                           0.255  
G24  20620269.900                                           0.255  
G28  26161486.102                                           0.228  
> 2022 01 01 00 02 18.0688020  0  7                     
G05  24069763.293     -292367.826       -2406.604           0.244  
G10  24944751.636      316356.832        2823.225           0.240  
G18  21295085.354                                           0.255  
G20  26177871.201     -226665.725       -3082.840           0.229  
G23  22195131.296      152525.161        2103.887           0.255  
G24  20620247.935                                           0.255  
G28  26161493.820                                           0.228  
> 2022 01 01 00 02 18.1688020  0  7                     
G05  24069808.792                                           0.244  
G10  24944696.612                                           0.239  
G18  21295096.477                                           0.255  
G20  26177930.407     -226975.424       -3102.293           0.229  
G23  22195091.162                                           0.255  
G24  20620236.318                                           0.255  
G28  26161497.076                                           0.228  
> 2022 01 01 00 02 18.3688020  0  7                     
G05  24069904.554     -293106.065       -2012.479           0.244  
G10  24944587.935      317223.821        2907.172           0.239  
G18  21295117.553      -44198.237        -298.906           0.255  
G20  26178047.428     -227596.301       -2299.473           0.228  
G23  22195010.407      153163.474        2454.895           0.255  
G24  20620213.893       42217.400         294.322           0.255  
G28  26161504.829       -8865.982       -1070.390           0.228  
> 2022 01 01 00 02 18.5688020  0  7                     
G05  24069998.287     -293597.339       -2454.681           0.244  
G10  24944477.521      317802.404        3604.896           0.239  
G18  21295139.116      -44311.072        -595.355           0.255  
G20  26178164.049     -228216.276       -3461.374           0.228  
G23  22194929.104      153588.128        2122.745           0.255  
G24  20620191.415       42335.559         899.679           0.255  
G28  26161511.895       -8900.750        -163.314           0.228  
> 2022 01 01 00 02 18.6688020  0  7                     
G05  24070046.095     -293842.941       -2484.154           0.244  
G10  24944422.132      318091.383        2950.091           0.239  
G18  21295150.017      -44367.344        -559.035           0.255  
G20  26178223.444     -228525.937       -3519.396           0.228  
G23  22194888.252      153800.904        2464.584           0.255  
G24  20620180.020       42394.473         883.500           0.255  
G28  26161513.364       -8918.339         494.543           0.228  
> 2022 01 01 00 02 18.7688020  0  7                     
G05  24070092.744                                           0.244  
G10  24944368.770                                           0.239  
G18  21295159.698                                           0.255  
G20  26178282.012                                           0.228  
G23  22194848.285                                           0.255  
G24  20620169.027                                           0.255  
G28  26161516.560                                           0.228  
> 2022 01 01 00 02 18.8688020  0  7                     
G05  24070140.096                                           0.244  
G10  24944312.664                                           0.239  
G18  21295170.919                                           0.255  
G20  26178342.685                                           0.228  
G23  22194807.422                                           0.255  
G24  20620158.097                                           0.255  
G28  26161521.288                                           0.228  
> 2022 01 01 00 02 18.9688020  0  7                     
G05  24070185.384     -294579.570       -2466.719           0.244  
G10  24944256.581      318958.889        2938.744           0.239  
G18  21295182.576      -44536.341        -560.829           0.255  
G20  26178401.407     -229453.721       -2291.910           0.228  
G23  22194767.045      154437.463         -19.962           0.255  
G24  20620146.255       42570.949         385.464           0.255  
G28  26161524.334       -8972.904        -137.247           0.228  
> 2022 01 01 00 02 19.0688020  0  7                     
G05  24070232.452                                           0.244  
G10  24944202.308      319248.633        2886.195           0.239  
G18  21295192.690                                           0.255  
G20  26178459.101     -229762.107       -3115.326           0.228  
G23  22194726.497                                           0.255  
G24  20620134.833                                           0.255  
G28  26161528.921                                           0.228  
> 2022 01 01 00 02 19.2688020  0  7                     
G05  24070325.303                                           0.244  
G10  24944090.569                                           0.239  
G18  21295213.374                                           0.255  
G20  26178578.674                                           0.228  
G23  22194645.754                                           0.255  
G24  20620113.065                                           0.255  
G28  26161535.242       -9029.969        -152.711           0.228  
> 2022 01 01 00 02 19.3688020  0  7                     
G05  24070372.498                                           0.244  
G10  24944036.894      320139.359        2899.352           0.239  
G18  21295224.621                                           0.255  
G20  26178635.899                                           0.228  
G23  22194605.412                                           0.255  
G24  20620101.300                                           0.255  
G28  26161538.246                                           0.228  
> 2022 01 01 00 02 19.4688020  0  7                     
G05  24070418.928                                           0.244  
G10  24943981.177                                           0.239  
G18  21295235.580                                           0.255  
G20  26178696.946                                           0.228  
G23  22194564.718                                           0.255  
G24  20620090.251                                           0.255  
G28  26161542.045                                           0.228  
> 2022 01 01 00 02 19.5688020  0  7                     
G05  24070467.296     -296052.791       -2023.190           0.244  
G10  24943926.482      320693.500        2194.840           0.239  
G18  21295246.319      -44874.298         547.314           0.255  
G20  26178755.159     -231313.044       -4487.824           0.228  
G23  22194524.656      155714.042        3192.722           0.255  
G24  20620078.824       42924.265         342.252           0.255  
G28  26161544.869       -9081.140         399.769           0.228  
> 2022 01 01 00 02 19.6688020  0  7                     
G05  24070513.107     -296298.530       -2431.324           0.244  
G10  24943872.313      320982.826         460.402           0.239  
G18  21295256.920      -44930.813        -513.832           0.255  
G20  26178812.968     -231622.427       -4081.113           0.228  
G23  22194484.781      155926.515        2090.909           0.255  
G24  20620068.087       42983.281         610.809           0.255  
G28  26161549.246       -9099.355        -151.349           0.228  
> 2022 01 01 00 02 19.7688020  0  7                     
G05  24070558.923     -296596.428       -2443.201           0.244  
G10  24943816.978                                           0.239  
G18  21295267.627                                           0.255  
G20  26178872.544                                           0.228  
G23  22194444.331                                           0.255  
G24  20620057.047                                           0.255  
G28  26161552.625       -9117.499        -198.042           0.228  
> 2022 01 01 00 02 19.8688020  0  7                     
G05  24070604.982                                           0.244  
G10  24943761.845                                           0.239  
G18  21295278.121                                           0.255  
G20  26178931.653     -232239.252       -3099.999           0.228  
G23  22194403.579      156351.779        2174.230           0.255  
G24  20620045.905                                           0.255  
G28  26161556.241                                           0.228  
> 2022 01 01 00 02 20.0688020  0  7                     
G05  24070699.059     -297281.136       -2840.664           0.244  
G10  24943652.222      322139.836        2167.034           0.239  
G18  21295299.895      -45156.407         -28.168           0.255  
G20  26179048.145     -232860.848       -3356.765           0.228  
G23  22194322.019      156776.585        1510.160           0.255  
G24  20620023.120       43218.596         586.371           0.255  
G28  26161562.993       -9171.673         388.266           0.228  
> 2022 01 01 00 02 20.1688020  0  7                     
G05  24070746.753                                           0.243  
G10  24943596.770                                           0.239  
G18  21295310.475                                           0.255  
G20  26179108.002                                           0.228  
G23  22194281.882                                           0.255  
G24  20620012.243                                           0.255  
G28  26161566.019                                           0.228  
> 2022 01 01 00 02 20.4688020  0  7                     
G05  24070886.423     -298262.932       -1437.842           0.244  
G10  24943431.520      323295.539         815.595           0.239  
G18  21295343.614      -45382.206        -575.246           0.255  
G20  26179284.740     -234099.218       -3008.308           0.228  
G23  22194160.384      157626.086        1746.053           0.255  
G24  20619978.271       43454.013         776.498           0.255  
G28  26161577.166       -9244.262        -350.850           0.228  
> 2022 01 01 00 02 20.7688020  0  7                     
G05  24071025.976                                           0.244  
G10  24943267.044                                           0.239  
G18  21295375.014                                           0.255  
G20  26179460.814                                           0.228  
G23  22194039.057                                           0.255  
G24  20619945.461                                           0.255  
G28  26161586.762                                           0.228  
> 2022 01 01 00 02 20.8688020  0  7                     
G05  24071072.291                                           0.244  
G10  24943211.516                                           0.239  
G18  21295385.975                                           0.255  
G20  26179520.391     -235391.608       -3128.088           0.228  
G23  22193999.049                                           0.255  
G24  20619934.056                                           0.255  
G28  26161590.277                                           0.228  
> 2022 01 01 00 02 20.9688020  0  7                     
G05  24071118.061                                           0.244  
G10  24943156.295                                           0.239  
G18  21295396.842                                           0.255  
G20  26179578.649                                           0.227  
G23  22193958.456                                           0.255  
G24  20619922.967                                           0.255  
G28  26161593.664                                           0.228  
> 2022 01 01 00 02 21.0688020  0  7                     
G05  24071167.336     -299736.965       -2409.731           0.244  
G10  24943100.816      325031.681        2325.223           0.239  
G18  21295407.622      -45720.844        -440.235           0.255  
G20  26179637.975     -235957.238       -3249.695           0.228  
G23  22193917.831      158902.460        2027.492           0.255  
G24  20619911.704       43806.555         587.362           0.255  
G28  26161596.819       -9353.294        -833.081           0.228  
> 2022 01 01 00 02 21.1688020  0  7                     
G05  24071213.497     -299980.721       -2496.846           0.244  
G10  24943046.571      325321.715        2940.953           0.239  
G18  21295418.438                                           0.255  
G20  26179695.984                                           0.228  
G23  22193877.046      159114.967        2106.782           0.255  
G24  20619900.312                                           0.255  
G28  26161600.456       -9371.195        -130.837           0.228  
> 2022 01 01 00 02 21.2688020  0  7                     
G05  24071260.175     -300228.211       -2735.985           0.244  
G10  24942992.507      325610.267        3810.796           0.239  
G18  21295428.984      -45834.492       -1466.879           0.255  
G20  26179755.019     -236576.840       -3567.527           0.228  
G23  22193837.249      159327.268        1518.448           0.255  
G24  20619889.025       43924.099         620.875           0.255  
G28  26161603.817       -9389.263        -138.776           0.228  
> 2022 01 01 00 02 21.3688020  0  7                     
G05  24071306.989     -300473.755       -2441.843           0.244  
G10  24942937.988      325900.045        3041.781           0.239  
G18  21295439.555      -45890.386        -566.440           0.255  
G20  26179812.936     -236886.154       -3102.857           0.228  
G23  22193796.939      159539.868        1045.691           0.255  
G24  20619877.982       43983.065        1038.198           0.255  
G28  26161606.933       -9407.319        -210.954           0.228  
> 2022 01 01 00 02 21.6688020  0  7                     
G05  24071446.979                                           0.244  
G10  24942771.284                                           0.239  
G18  21295471.830                                           0.255  
G20  26179991.268                                           0.228  
G23  22193675.230                                           0.255  
G24  20619844.840                                           0.255  
G28  26161617.681       -9464.846        -172.572           0.228  
> 2022 01 01 00 02 21.8688020  0  7                     
G05  24071539.952                                           0.244  
G10  24942661.991                                           0.239  
G18  21295493.450                                           0.255  
G20  26180107.910                                           0.228  
G23  22193594.302                                           0.255  
G24  20619822.004                                           0.255  
G28  26161624.545                                           0.228  
> 2022 01 01 00 02 22.0688020  0  7                     
G05  24071633.667                                           0.244  
G10  24942551.401      327924.457        2921.523           0.239  
G18  21295514.748      -46286.060        -559.008           0.255  
G20  26180225.916                                           0.228  
G23  22193513.714                                           0.255  
G24  20619799.797                                           0.255  
G28  26161632.295                                           0.228  
> 2022 01 01 00 02 22.5688020  0  7                     
G05  24071868.009     -303419.650       -2459.827           0.244  
G10  24942276.566                                           0.239  
G18  21295568.415                                           0.255  
G20  26180521.472                                           0.228  
G23  22193310.315                                           0.255  
G24  20619744.108                                           0.255  
G28  26161648.356                                           0.228  
> 2022 01 01 00 02 22.6688020  0  7                     
G05  24071915.000                                           0.244  
G10  24942221.406                                           0.239  
G18  21295578.729                                           0.255  
G20  26180580.894                                           0.228  
G23  22193270.515                                           0.255  
G24  20619733.244                                           0.255  
G28  26161651.446                                           0.228  
> 2022 01 01 00 02 22.7688020  0  7                     
G05  24071963.110     -303913.244       -4034.586           0.244  
G10  24942165.887      329948.368        3026.894           0.239  
G18  21295590.164      -46682.291        -777.462           0.255  
G20  26180638.970     -241221.852       -3101.358           0.228  
G23  22193230.100      162515.596        2249.176           0.255  
G24  20619721.234       44804.336         238.133           0.255  
G28  26161655.515       -9662.206        -529.367           0.228  
> 2022 01 01 00 02 22.8688020  0  7                     
G05  24072006.429     -304158.339       -2441.791           0.244  
G10  24942111.466      330237.288        2361.489           0.239  
G18  21295602.318      -46738.630        -570.988           0.255  
G20  26180698.604     -241531.606       -3611.296           0.228  
G23  22193190.575      162728.054        2115.999           0.255  
G24  20619709.235       44863.194         635.591           0.255  
G28  26161659.400       -9680.344        -321.798           0.228  
> 2022 01 01 00 02 23.0688020  0  7                     
G05  24072103.634     -304649.560       -3651.547           0.243  
G10  24942001.789      330815.949        2964.771           0.239  
G18  21295622.160      -46851.817        -502.406           0.255  
G20  26180815.998     -242151.555       -4036.248           0.228  
G23  22193109.077      163152.118       -1960.821           0.255  
G24  20619688.214       44980.280         300.427           0.255  
G28  26161667.956       -9716.792        -205.291           0.228  
> 2022 01 01 00 02 23.1688020  0  7                     
G05  24072149.227                                           0.244  
G10  24941946.665                                           0.239  
G18  21295632.886                                           0.255  
G20  26180876.237                                           0.228  
G23  22193068.576                                           0.255  
G24  20619677.287                                           0.255  
G28  26161670.973                                           0.228  
> 2022 01 01 00 02 23.2688020  0  7                     
G05  24072194.226                                           0.244  
G10  24941890.998                                           0.239  
G18  21295644.211                                           0.255  
G20  26180934.711                                           0.228  
G23  22193028.250                                           0.255  
G24  20619665.580                                           0.255  
G28  26161673.380       -9756.214        -201.040           0.227  
> 2022 01 01 00 02 23.3688020  0  7                     
G05  24072240.873                                           0.244  
G10  24941836.022                                           0.239  
G18  21295655.134                                           0.255  
G20  26180991.984                                           0.228  
G23  22192987.887                                           0.255  
G24  20619654.269                                           0.255  
G28  26161676.261                                           0.228  
> 2022 01 01 00 02 23.6688020  0  7                     
G05  24072381.397     -306122.016       -2513.646           0.244  
G10  24941669.894      332551.750        2924.181           0.239  
G18  21295687.282      -47191.642        -563.730           0.255  
G20  26181170.881                                           0.228  
G23  22192866.468                                           0.255  
G24  20619621.088                                           0.255  
G28  26161686.413                                           0.228  
> 2022 01 01 00 02 23.7688020  0  7                     
G05  24072428.147                                           0.244  
G10  24941615.866      332840.936        2878.308           0.239  
G18  21295698.141      -47248.314        -564.808           0.255  
G20  26181229.690                                           0.228  
G23  22192825.977      164640.719        2108.493           0.255  
G24  20619610.147                                           0.255  
G28  26161690.156       -9844.577        -160.372           0.228  
> 2022 01 01 00 02 24.0688020  0  7                     
G05  24072569.203     -307106.429       -2460.868           0.244  
G10  24941450.269      333707.963        2894.705           0.239  
G18  21295729.857      -47418.291        -566.757           0.255  
G20  26181407.220     -245247.944       -3023.816           0.228  
G23  22192704.487      165278.278        2823.552           0.255  
G24  20619576.961       45566.334         584.967           0.255  
G28  26161701.174       -9899.349         -44.218           0.228  
> 2022 01 01 00 02 24.1688020  0  7                     
G05  24072616.770     -307352.302       -2908.624           0.244  
G10  24941394.739      333997.271        2921.433           0.239  
G18  21295740.639      -47474.972        -535.036           0.255  
G20  26181464.934     -245557.329       -2343.191           0.228  
G23  22192664.032      165490.473        2063.203           0.255  
G24  20619565.735       45624.797         425.390           0.255  
G28  26161705.209       -9917.141         419.330           0.228  
> 2022 01 01 00 02 24.2688020  0  7                     
G05  24072662.971                                           0.244  
G10  24941340.592                                           0.239  
G18  21295752.017                                           0.255  
G20  26181523.654                                           0.228  
G23  22192624.001                                           0.255  
G24  20619554.149                                           0.255  
G28  26161708.149                                           0.228  
> 2022 01 01 00 02 24.4688020  0  7                     
G05  24072755.635                                           0.244  
G10  24941230.853                                           0.239  
G18  21295773.362                                           0.255  
G20  26181642.010                                           0.228  
G23  22192543.001                                           0.255  
G24  20619532.099                                           0.255  
G28  26161716.146                                           0.228  
> 2022 01 01 00 02 24.7688020  0  7                     
G05  24072896.965                                           0.243  
G10  24941065.460      335756.238        2879.127           0.239  
G18  21295807.065                                           0.255  
G20  26181818.943                                           0.228  
G23  22192422.115      166765.679        2125.873           0.255  
G24  20619497.544                                           0.255  
G28  26161725.382                                           0.228  
> 2022 01 01 00 02 24.8688020  0  7                     
G05  24072943.048                                           0.244  
G10  24941010.443      336022.344        2883.846           0.239  
G18  21295817.295                                           0.255  
G20  26181876.919                                           0.228  
G23  22192381.035                                           0.255  
G24  20619487.057                                           0.255  
G28  26161730.245                                           0.228  
> 2022 01 01 00 02 25.0688020  0  7                     
G05  24073036.356                                           0.244  
G10  24940899.812                                           0.239  
G18  21295837.929                                           0.255  
G20  26181994.833                                           0.228  
G23  22192299.636                                           0.255  
G24  20619465.504                                           0.255  
G28  26161736.281                                           0.228  
> 2022 01 01 00 02 25.1688020  0  7                     
G05  24073082.496                                           0.244  
G10  24940844.604                                           0.239  
G18  21295849.294                                           0.255  
G20  26182054.327                                           0.228  
G23  22192259.590                                           0.255  
G24  20619454.087                                           0.255  
G28  26161738.914                                           0.228  
> 2022 01 01 00 02 25.3688020  0  7                     
G05  24073177.304     -310299.693        -941.498           0.244  
G10  24940734.436      337467.899        2934.154           0.239  
G18  21295870.662      -48155.876        -728.299           0.255  
G20  26182173.252     -249273.930       -2286.175           0.228  
G23  22192178.286      168040.395        2041.645           0.255  
G24  20619431.767       46327.072         698.504           0.255  
G28  26161744.032      -10135.732        3444.997           0.228  
> 2022 01 01 00 02 25.6688020  0  7                     
G05  24073317.585                                           0.244  
G10  24940569.491                                           0.239  
G18  21295903.649                                           0.255  
G20  26182349.835                                           0.228  
G23  22192057.837                                           0.255  
G24  20619397.917                                           0.255  
G28  26161756.846      -10195.453        -266.484           0.228  
> 2022 01 01 00 02 25.7688020  0  7                     
G05  24073366.659                                           0.244  
G10  24940514.649      338648.474        2903.423           0.239  
G18  21295914.281                                           0.255  
G20  26182408.414                                           0.228  
G23  22192018.283                                           0.255  
G24  20619386.710                                           0.255  
G28  26161761.151                                           0.228  
> 2022 01 01 00 02 25.8688020  0  7                     
G05  24073411.359                                           0.243  
G10  24940458.844                                           0.239  
G18  21295924.231                                           0.255  
G20  26182467.753                                           0.228  
G23  22191976.927                                           0.255  
G24  20619376.698                                           0.255  
G28  26161764.911                                           0.228  
> 2022 01 01 00 02 26.0688020  0  7                     
G05  24073503.967     -312018.965       -2440.645           0.244  
G10  24940349.747                                           0.239  
G18  21295946.214                                           0.255  
G20  26182584.563                                           0.228  
G23  22191895.731                                           0.255  
G24  20619354.087                                           0.255  
G28  26161771.897                                           0.228  
> 2022 01 01 00 02 26.3688020  0  7                     
G05  24073642.285     -312757.932       -2462.544           0.244  
G10  24940184.955      340360.570        3903.777           0.239  
G18  21295978.790      -48723.582        -553.435           0.255  
G20  26182760.351     -252371.678       -2780.260           0.228  
G23  22191774.610      170165.512        2745.042           0.255  
G24  20619320.742       46911.349         954.568           0.255  
G28  26161783.593      -10320.851         244.177           0.228  
> 2022 01 01 00 02 26.4688020  0  7                     
G05  24073690.049                                           0.244  
G10  24940129.035                                           0.239  
G18  21295989.673                                           0.255  
G20  26182819.788                                           0.228  
G23  22191734.102                                           0.255  
G24  20619309.614                                           0.255  
G28  26161785.382                                           0.228  
> 2022 01 01 00 02 26.6688020  0  7                     
G05  24073785.041     -313495.126       -2355.527           0.244  
G10  24940020.794      341227.820        2859.320           0.239  
G18  21296011.285      -48894.239        -654.072           0.255  
G20  26182936.972     -253301.275       -3257.999           0.228  
G23  22191653.959      170802.629        2102.354           0.255  
G24  20619287.368       47086.495         581.556           0.255  
G28  26161791.154      -10375.988         147.621           0.228  
> 2022 01 01 00 02 26.7688020  0  7                     
G05  24073831.753     -313778.540       -2476.685           0.244  
G10  24939964.527                                           0.239  
G18  21296022.144      -48959.039        -562.965           0.255  
G20  26182996.980                                           0.228  
G23  22191612.865                                           0.255  
G24  20619276.391                                           0.255  
G28  26161794.616                                           0.228  
> 2022 01 01 00 02 26.8688020  0  7                     
G05  24073879.228                                           0.244  
G10  24939909.071      341806.858        2916.193           0.239  
G18  21296032.927      -49007.947        -587.441           0.255  
G20  26183056.597     -253918.418       -3161.892           0.228  
G23  22191572.574                                           0.255  
G24  20619265.181                                           0.255  
G28  26161798.649                                           0.228  
> 2022 01 01 00 02 27.0688020  0  7                     
G05  24073971.440                                           0.244  
G10  24939798.997                                           0.239  
G18  21296054.508                                           0.255  
G20  26183173.958     -254537.916       -3033.399           0.228  
G23  22191491.319                                           0.255  
G24  20619242.798                                           0.255  
G28  26161806.211                                           0.228  
> 2022 01 01 00 02 27.1688020  0  7                     
G05  24074017.980                                           0.244  
G10  24939743.223      342674.522        2856.551           0.239  
G18  21296065.283      -49178.583        -580.198           0.255  
G20  26183234.312                                           0.228  
G23  22191451.532      171864.852        2133.093           0.255  
G24  20619231.762                                           0.255  
G28  26161808.777                                           0.228  
> 2022 01 01 00 02 27.2688020  0  7                     
G05  24074065.027     -314969.753       -2580.504           0.244  
G10  24939689.325      342963.430        3125.583           0.239  
G18  21296076.016      -49235.279        -236.812           0.255  
G20  26183292.684     -255159.199       -2281.531           0.228  
G23  22191410.630      172077.060        2424.112           0.255  
G24  20619220.772       47436.566         414.655           0.255  
G28  26161813.041      -10486.732        -368.794           0.228  
> 2022 01 01 00 02 27.4688020  0  7                     
G05  24074159.531     -315461.272       -2451.615           0.244  
G10  24939579.088      343541.642        2931.309           0.239  
G18  21296097.675      -49349.240        -568.829           0.255  
G20  26183410.961     -255779.088       -3495.218           0.228  
G23  22191330.483      172502.132        2123.167           0.255  
G24  20619198.854       47553.236         461.520           0.255  
G28  26161820.847      -10523.855        -448.605           0.228  
> 2022 01 01 00 02 27.5688020  0  7                     
G05  24074205.119     -315707.052       -2490.677           0.244  
G10  24939524.478      343831.104        3246.211           0.239  
G18  21296108.673      -49406.209        -627.092           0.255  
G20  26183468.412     -256088.929       -3423.258           0.228  
G23  22191289.086      172714.298        2168.691           0.255  
G24  20619187.757       47611.493         243.032           0.255  
G28  26161824.067      -10542.926         731.247           0.228  
> 2022 01 01 00 02 27.6688020  0  7                     
G05  24074252.021     -315951.095       -2467.147           0.244  
G10  24939469.651                                           0.239  
G18  21296119.568      -49463.079        -562.525           0.255  
G20  26183527.148     -256396.472       -3128.199           0.228  
G23  22191249.355      172990.778        2106.003           0.255  
G24  20619176.470                                           0.255  
G28  26161827.523                                           0.228  
> 2022 01 01 00 02 27.7688020  0  7                     
G05  24074298.488     -316198.420       -1872.416           0.244  
G10  24939414.215      344409.411        2776.538           0.239  
G18  21296130.340      -49519.991        -572.935           0.255  
G20  26183585.659     -256708.306       -3273.368           0.228  
G23  22191208.269      173139.440        2097.570           0.255  
G24  20619165.333       47728.640        1147.534           0.255  
G28  26161831.186      -10579.061         432.501           0.228  
> 2022 01 01 00 02 27.9688020  0  7                     
G05  24074393.392     -316689.940       -2446.995           0.244  
G10  24939304.283      344987.461        2375.374           0.239  
G18  21296151.996      -49633.846        -570.971           0.255  
G20  26183704.260     -257327.054       -1756.660           0.228  
G23  22191127.979      173564.783        2854.104           0.255  
G24  20619143.091       47844.844         581.045           0.255  
G28  26161837.160      -10615.758         -44.315           0.228  
> 2022 01 01 00 02 28.0688020  0  7                     
G05  24074439.887                                           0.244  
G10  24939249.116                                           0.239  
G18  21296162.917                                           0.255  
G20  26183764.277                                           0.228  
G23  22191087.361                                           0.255  
G24  20619131.889                                           0.255  
G28  26161840.451                                           0.228  
> 2022 01 01 00 02 28.1688020  0  7                     
G05  24074486.097                                           0.244  
G10  24939193.556      345590.055        2893.833           0.239  
G18  21296173.728                                           0.255  
G20  26183823.055                                           0.228  
G23  22191046.628                                           0.255  
G24  20619120.714                                           0.255  
G28  26161844.052                                           0.228  
> 2022 01 01 00 02 28.2688020  0  7                     
G05  24074532.479                                           0.244  
G10  24939138.858                                           0.239  
G18  21296184.589                                           0.255  
G20  26183881.800                                           0.228  
G23  22191006.325                                           0.255  
G24  20619109.992                                           0.255  
G28  26161847.617                                           0.228  
> 2022 01 01 00 02 28.3688020  0  7                     
G05  24074579.001     -317673.338       -2435.228           0.244  
G10  24939084.450      346144.726        2747.677           0.239  
G18  21296195.256      -49861.757        -808.763           0.255  
G20  26183939.920     -258566.878       -3035.169           0.228  
G23  22190966.324      174413.929        2251.589           0.255  
G24  20619098.873       48078.110         823.651           0.255  
G28  26161851.419      -10687.212        4638.766           0.228  
> 2022 01 01 00 02 28.4688020  0  7                     
G05  24074626.165     -317919.106       -2417.955           0.244  
G10  24939029.390      346434.121        2951.270           0.239  
G18  21296206.142      -49918.845        -452.265           0.255  
G20  26183999.920     -258874.959        -476.326           0.228  
G23  22190926.066      174626.531        2014.973           0.255  
G24  20619087.815       48136.227         614.084           0.255  
G28  26161855.235      -10709.684       -2368.166           0.228  
> 2022 01 01 00 02 28.5688020  0  7                     
G05  24074673.642     -318164.926       -2460.917           0.244  
G10  24938974.060      346722.889        1776.706           0.239  
G18  21296216.838      -49975.603        -568.240           0.255  
G20  26184057.308     -259186.662       -3743.752           0.228  
G23  22190885.313      174838.866        2193.553           0.255  
G24  20619076.693       48194.221          19.512           0.255  
G28  26161858.620      -10727.060        -365.224           0.228  
> 2022 01 01 00 02 28.6688020  0  7                     
G05  24074719.863                                           0.244  
G10  24938919.119                                           0.239  
G18  21296227.973                                           0.255  
G20  26184116.706                                           0.228  
G23  22190844.853      175051.333        2126.236           0.255  
G24  20619065.261                                           0.255  
G28  26161861.781                                           0.228  
> 2022 01 01 00 02 28.7688020  0  7                     
G05  24074766.862                                           0.244  
G10  24938862.613                                           0.239  
G18  21296238.679                                           0.255  
G20  26184177.166                                           0.228  
G23  22190804.135                                           0.255  
G24  20619054.133                                           0.255  
G28  26161865.622      -10763.653        -199.706           0.228  
> 2022 01 01 00 02 29.0688020  0  7                     
G05  24074907.634                                           0.244  
G10  24938698.232                                           0.239  
G18  21296271.276                                           0.255  
G20  26184352.116                                           0.228  
G23  22190683.013                                           0.255  
G24  20619021.223                                           0.255  
G28  26161876.059                                           0.228  
> 2022 01 01 00 02 29.3688020  0  7                     
G05  24075047.784     -320129.672       -2437.710           0.244  
G10  24938533.255      349037.891        2947.391           0.239  
G18  21296303.936                                           0.255  
G20  26184530.395                                           0.228  
G23  22190562.290                                           0.255  
G24  20618988.355                                           0.255  
G28  26161886.631                                           0.228  
> 2022 01 01 00 02 29.4688020  0  7                     
G05  24075094.515                                           0.244  
G10  24938478.844                                           0.239  
G18  21296314.629                                           0.255  
G20  26184588.895                                           0.228  
G23  22190521.315      176750.622        2116.342           0.255  
G24  20618977.042                                           0.255  
G28  26161890.660                                           0.228  
> 2022 01 01 00 02 29.5688020  0  7                     
G05  24075141.627     -320623.568       -2325.208           0.244  
G10  24938423.216      349615.769        2632.169           0.239  
G18  21296325.527      -50545.784        -507.967           0.255  
G20  26184648.723     -262285.407       -4263.692           0.228  
G23  22190481.303      176963.174        1993.729           0.255  
G24  20618966.002       48776.764         774.849           0.255  
G28  26161893.922      -10911.881        -502.466           0.228  
> 2022 01 01 00 02 29.6688020  0  7                     
G05  24075187.960                                           0.244  
G10  24938368.422                                           0.239  
G18  21296336.335                                           0.255  
G20  26184707.436     -262647.818       -3113.678           0.228  
G23  22190440.692                                           0.255  
G24  20618954.991                                           0.255  
G28  26161897.338                                           0.228  
> 2022 01 01 00 02 29.8688020  0  7                     
G05  24075280.652     -321360.442       -2663.288           0.244  
G10  24938257.049      350483.560        2883.854           0.239  
G18  21296358.271      -50720.789       -6320.221           0.255  
G20  26184826.041     -263214.454       -3940.293           0.228  
G23  22190360.116      177599.997        1911.051           0.255  
G24  20618932.375       48951.227         722.557           0.255  
G28  26161904.881      -10967.313        -104.545           0.228  
> 2022 01 01 00 02 29.9688020  0  7                     
G05  24075327.454     -321606.351       -2530.828           0.244  
G10  24938203.591      350772.779        2850.174           0.239  
G18  21296368.925      -50773.990        -595.075           0.255  
G20  26184883.010     -263523.560       -3281.645           0.228  
G23  22190319.542      177812.773        1999.333           0.255  
G24  20618921.535       49009.196         410.034           0.255  
G28  26161908.124      -10985.768          36.897           0.228  
> 2022 01 01 00 02 30.0688020  0  7                     
G05  24075375.628     -321852.751       -3485.648           0.244  
G10  24938148.895      351061.825        2287.217           0.239  
G18  21296379.835      -50830.885        -302.672           0.255  
G20  26184940.998     -263833.632       -3484.961           0.228  
G23  22190278.592      178025.048        2243.072           0.255  
G24  20618910.448       49067.259         228.824           0.255  
G28  26161911.334      -11004.079         485.748           0.228  
> 2022 01 01 00 02 30.3688020  0  7                     
G05  24075515.407                                           0.244  
G10  24937983.075                                           0.239  
G18  21296412.201                                           0.255  
G20  26185120.247     -264760.554       -2992.904           0.228  
G23  22190157.750                                           0.255  
G24  20618877.297                                           0.255  
G28  26161922.201                                           0.228  
> 2022 01 01 00 02 30.5688020  0  7                     
G05  24075608.739                                           0.244  
G10  24937872.672                                           0.239  
G18  21296434.293                                           0.255  
G20  26185237.274                                           0.228  
G23  22190076.548                                           0.255  
G24  20618855.139                                           0.255  
G28  26161928.609                                           0.228  
> 2022 01 01 00 02 30.6688020  0  7                     
G05  24075655.311                                           0.244  
G10  24937817.830                                           0.239  
G18  21296445.247      -51173.666        -572.659           0.255  
G20  26185295.712                                           0.228  
G23  22190036.902                                           0.255  
G24  20618843.459                                           0.255  
G28  26161933.094                                           0.228  
> 2022 01 01 00 02 30.7688020  0  7                     
G05  24075701.686     -323573.100       -2469.877           0.244  
G10  24937762.289      353086.839        2844.949           0.239  
G18  21296455.677      -51231.037        -935.212           0.255  
G20  26185355.583     -266001.084         -48.942           0.228  
G23  22189996.547      179511.696        2329.387           0.255  
G24  20618833.094       49474.223         465.577           0.255  
G28  26161936.486      -11134.295         -60.427           0.228  
> 2022 01 01 00 02 30.9688020  0  7                     
G05  24075794.574                                           0.244  
G10  24937652.457      353700.616        2886.859           0.239  
G18  21296477.803                                           0.255  
G20  26185473.418                                           0.228  
G23  22189915.306                                           0.255  
G24  20618810.910                                           0.255  
G28  26161944.139                                           0.228  
> 2022 01 01 00 02 31.0688020  0  7                     
G05  24075842.567     -324309.016       -2479.250           0.244  
G10  24937597.250                                           0.239  
G18  21296488.845                                           0.255  
G20  26185532.189                                           0.229  
G23  22189874.990                                           0.255  
G24  20618799.442                                           0.255  
G28  26161946.957      -11190.198        -138.750           0.228  
> 2022 01 01 00 02 31.2688020  0  7                     
G05  24075937.041                                           0.244  
G10  24937488.136                                           0.239  
G18  21296509.760                                           0.255  
G20  26185649.661                                           0.228  
G23  22189793.995                                           0.255  
G24  20618777.964                                           0.255  
G28  26161953.981                                           0.228  
> 2022 01 01 00 02 31.3688020  0  7                     
G05  24075981.475     -325048.230       -2438.145           0.244  
G10  24937431.845      354822.502        3026.541           0.239  
G18  21296520.870      -51573.691        -608.074           0.255  
G20  26185709.313     -267861.294       -3718.975           0.228  
G23  22189752.575      180786.358        2826.112           0.255  
G24  20618766.880       49822.770         606.837           0.255  
G28  26161957.773      -11245.875         204.757           0.228  
> 2022 01 01 00 02 31.5688020  0  7                     
G05  24076076.232                                           0.244  
G10  24937321.199                                           0.239  
G18  21296542.883                                           0.255  
G20  26185827.998                                           0.228  
G23  22189673.094                                           0.255  
G24  20618744.424                                           0.255  
G28  26161964.558                                           0.228  
> 2022 01 01 00 02 31.6688020  0  7                     
G05  24076123.747                                           0.244  
G10  24937265.829                                           0.239  
G18  21296553.957                                           0.255  
G20  26185887.827     -268788.179       -3060.414           0.228  
G23  22189632.192      181423.144        2143.683           0.255  
G24  20618733.591                                           0.255  
G28  26161968.128                                           0.228  
