     3.03           OBSERVATION DATA    M: Mixed            RINEX VERSION / TYPE
GNSS-SDRLIB v1.1                        20231114 050933 UTC PGM / RUN BY / DATE 
                                                            MARKER NAME         
                                                            MARKER NUMBER       
                                                            MARKER TYPE         
                                                            OBSERVER / AGENCY   
GNSS-SDRLIB         GNSS-SDRLIB         1.1                 REC # / TYPE / VERS 
                                                            ANT # / TYPE        
        0.0000        0.0000        0.0000                  APPROX POSITION XYZ 
        0.0000        0.0000        0.0000                  ANTENNA: DELTA H/E/N
G    4 C1C L1C D1C S1C                                      SYS / # / OBS TYPES 
R    4 C1C L1C D1C S1C                                      SYS / # / OBS TYPES 
E    4 C1C L1C D1C S1C                                      SYS / # / OBS TYPES 
J    4 C1C L1C D1C S1C                                      SYS / # / OBS TYPES 
S    4 C1C L1C D1C S1C                                      SYS / # / OBS TYPES 
C    4 C1C L1C D1C S1C                                      SYS / # / OBS TYPES 
I    4 C1C L1C D1C S1C                                      SYS / # / OBS TYPES 
  1970    01    01    00    00   00.0000000     GPS         TIME OF FIRST OBS   
  1970    01    01    00    00   00.0000000     GPS         TIME OF LAST OBS    
G L1C                                                       SYS / PHASE SHIFT   
R L1C                                                       SYS / PHASE SHIFT   
E L1C  0.00000                                              SYS / PHASE SHIFT   
J L1C                                                       SYS / PHASE SHIFT   
S L1C                                                       SYS / PHASE SHIFT   
C L1C  0.00000                                              SYS / PHASE SHIFT   
I L1C  0.00000                                              SYS / PHASE SHIFT   
  0                                                         GLONASS SLOT / FRQ #
 C1C    0.000 C1P    0.000 C2C    0.000 C2P    0.000        GLONASS COD/PHS/BIS 
                                                            END OF HEADER       
> 2023 05 18 00 00 36.0688020  0  1                     
G06  20627217.155       -6142.798        -481.636           0.255  
> 2023 05 18 00 00 36.0688020  0  4                     
G03  22335982.509      -11095.556        -500.357           0.255  
G04  23581332.634      -41602.799       -2118.069           0.244  
G06  20627217.155       -6142.798        -481.636           0.255  
G07  23384795.999      -13494.126       -1293.644           0.248  
> 2023 05 18 00 00 36.0688020  0  5                     
G02  24268754.110       87200.957        2906.941           0.239  
G03  22335982.509      -11095.556        -500.357           0.255  
G04  23581332.634      -41602.799       -2118.069           0.244  
G06  20627217.155       -6142.798        -481.636           0.255  
G07  23384795.999      -13494.126       -1293.644           0.248  
> 2023 05 18 00 00 36.0688020  0  6                     
G02  24268754.110       87200.957        2906.941           0.239  
G03  22335982.509      -11095.556        -500.357           0.255  
G04  23581332.634      -41602.799       -2118.069           0.244  
G05  22536033.830       42881.265        2003.691           0.255  
G06  20627217.155       -6142.798        -481.636           0.255  
G07  23384795.999      -13494.126       -1293.644           0.248  
> 2023 05 18 00 00 36.1688020  0  6                     
G02  24268680.368       87491.573        2907.522           0.239  
G03  22335997.238      -11145.627        -500.816           0.255  
G04  23581386.209      -41814.508       -2117.396           0.244  
G05  22535981.648       43086.278        2048.031           0.255  
G06  20627228.231       -6190.966        -481.835           0.255  
G07  23384829.596      -13623.505       -1293.946           0.248  
> 2023 05 18 00 00 36.2688020  0  6                     
G02  24268606.988       87782.160        2904.657           0.239  
G03  22336010.310      -11195.696        -500.332           0.255  
G04  23581440.790      -42026.011       -2105.018           0.244  
G05  22535929.220       43291.081        2048.299           0.255  
G06  20627240.410       -6239.144        -481.537           0.255  
G07  23384862.660      -13752.876       -1293.812           0.248  
> 2023 05 18 00 00 36.3688020  0  6                     
G02  24268533.707       88072.752        2905.727           0.239  
G03  22336023.776      -11245.771        -500.109           0.255  
G04  23581493.589      -42237.901       -2116.529           0.244  
G05  22535876.960       43495.881        2048.527           0.255  
G06  20627252.137       -6287.320        -481.979           0.255  
G07  23384895.483      -13882.259       -1293.683           0.248  
> 2023 05 18 00 00 36.4688020  0  6                     
G02  24268458.223       88363.357        2906.892           0.239  
G03  22336036.940      -11295.857        -501.438           0.255  
G04  23581547.930      -42449.622       -2117.959           0.244  
G05  22535825.019       43700.675        2048.126           0.255  
G06  20627264.303       -6335.499        -481.444           0.255  
G07  23384928.456      -14011.642       -1293.800           0.248  
> 2023 05 18 00 00 36.5688020  0  6                     
G02  24268384.170       88653.969        2825.707           0.239  
G03  22336049.972      -11345.942        -500.956           0.255  
G04  23581601.506      -42661.693       -2137.675           0.244  
G05  22535772.670       43905.475        2047.693           0.255  
G06  20627276.697       -6383.682        -481.903           0.255  
G07  23384961.322      -14141.032       -1293.901           0.248  
> 2023 05 18 00 00 36.6688020  0  6                     
G02  24268309.740       88944.576        2905.946           0.239  
G03  22336062.471      -11396.196        -522.378           0.255  
G04  23581656.421      -42873.054       -2116.160           0.244  
G05  22535720.504       44110.475        2079.699           0.255  
G06  20627288.840       -6431.868        -481.705           0.255  
G07  23384994.522      -14270.417       -1293.921           0.248  
> 2023 05 18 00 00 36.7688020  0  6                     
G02  24268236.951       89235.162        2904.444           0.239  
G03  22336074.512      -11446.128        -500.410           0.255  
G04  23581708.514      -43084.775       -2116.159           0.244  
G05  22535668.779       44315.060        2048.230           0.255  
G06  20627301.591       -6480.064        -482.049           0.255  
G07  23385027.217      -14399.816       -1294.094           0.248  
> 2023 05 18 00 00 36.8688020  0  6                     
G02  24268162.162       89525.741        2905.244           0.239  
G03  22336087.542      -11496.214        -500.052           0.255  
G04  23581763.837      -43296.479       -2117.032           0.244  
G05  22535616.497       44519.841        2048.259           0.255  
G06  20627313.600       -6528.262        -482.393           0.255  
G07  23385060.329      -14529.208       -1293.873           0.248  
> 2023 05 18 00 00 36.9688020  0  6                     
G02  24268088.320       89816.352        2908.663           0.239  
G03  22336100.643      -11546.335        -501.208           0.255  
G04  23581817.739      -43508.197       -2119.288           0.244  
G05  22535564.139       44724.624        2047.630           0.255  
G06  20627326.227       -6576.456        -481.896           0.255  
G07  23385093.096      -14658.611       -1293.925           0.248  
> 2023 05 18 00 00 37.0688020  0  6                     
G02  24268013.982       90106.979        2907.398           0.239  
G03  22336112.974      -11596.446        -500.877           0.255  
G04  23581871.605      -43720.145       -2095.205           0.244  
G05  22535512.250       44929.406        2047.079           0.255  
G06  20627338.419       -6624.656        -482.140           0.255  
G07  23385125.925      -14788.011       -1294.104           0.248  
> 2023 05 18 00 00 37.1688020  0  6                     
G02  24267940.672       90397.557        2905.197           0.239  
G03  22336125.269      -11646.558        -501.021           0.255  
G04  23581926.113      -43931.633       -2116.430           0.244  
G05  22535460.076       45134.187        2048.255           0.255  
G06  20627350.690       -6672.862        -481.872           0.255  
G07  23385158.844      -14917.421       -1294.141           0.248  
> 2023 05 18 00 00 37.2688020  0  6                     
G02  24267865.831       90688.173        2906.660           0.239  
G03  22336136.581      -11696.680        -501.795           0.255  
G04  23581980.519      -44143.360       -2117.779           0.244  
G05  22535407.308       45338.967        2048.379           0.255  
G06  20627363.645       -6721.066        -481.644           0.255  
G07  23385191.904      -15046.829       -1294.639           0.248  
> 2023 05 18 00 00 37.3688020  0  6                     
G02  24267793.293       90978.763        2905.493           0.239  
G03  22336150.968      -11746.811        -502.432           0.255  
G04  23582033.206      -44355.378       -2161.750           0.244  
G05  22535355.198       45543.727        2048.547           0.255  
G06  20627375.625       -6769.275        -481.565           0.255  
G07  23385224.884      -15176.238       -1294.176           0.248  
> 2023 05 18 00 00 37.4688020  0  6                     
G02  24267719.537       91269.121        2880.385           0.239  
G03  22336164.731      -11796.967        -519.850           0.255  
G04  23582085.951      -44566.793       -2117.378           0.244  
G05  22535303.078       45748.508        2047.310           0.255  
G06  20627387.099       -6817.490        -481.836           0.255  
G07  23385258.050      -15305.627       -1286.083           0.248  
> 2023 05 18 00 00 37.5688020  0  6                     
G02  24267644.194       91559.957        2906.215           0.239  
G03  22336177.990      -11847.069        -501.822           0.255  
G04  23582141.168      -44778.510       -2117.769           0.244  
G05  22535250.926       45953.276        2047.236           0.255  
G06  20627399.050       -6865.708        -481.822           0.255  
G07  23385291.048      -15435.070       -1294.108           0.248  
> 2023 05 18 00 00 37.6688020  0  6                     
G02  24267570.333       91850.562        2905.070           0.239  
G03  22336189.630      -11897.201        -501.554           0.255  
G04  23582194.254      -44990.238       -2116.837           0.244  
G05  22535198.925       46158.051        2047.709           0.255  
G06  20627412.032       -6913.932        -482.053           0.255  
G07  23385324.168      -15564.456       -1282.777           0.248  
> 2023 05 18 00 00 37.7688020  0  6                     
G02  24267496.703       92141.168        2906.105           0.239  
G03  22336202.151      -11947.341        -501.710           0.255  
G04  23582247.606      -45201.959       -2118.025           0.244  
G05  22535146.316       46362.718        2037.032           0.255  
G06  20627424.521       -6962.157        -482.259           0.255  
G07  23385357.486      -15693.914       -1293.943           0.248  
> 2023 05 18 00 00 37.8688020  0  6                     
G02  24267422.144       92431.759        2906.329           0.240  
G03  22336213.500      -11997.487        -501.469           0.255  
G04  23582302.222      -45413.677       -2117.377           0.244  
G05  22535094.590       46567.584        2047.418           0.255  
G06  20627437.681       -7010.389        -482.563           0.255  
G07  23385389.679      -15823.337       -1294.097           0.248  
> 2023 05 18 00 00 37.9688020  0  6                     
G02  24267345.582       92722.370        2907.114           0.239  
G03  22336227.775      -12047.640        -501.627           0.255  
G04  23582357.668      -45625.414       -2118.510           0.244  
G05  22535042.511       46772.349        2047.110           0.255  
G06  20627449.639       -7058.615        -482.238           0.255  
G07  23385422.817      -15952.771       -1294.307           0.248  
> 2023 05 18 00 00 38.0688020  0  6                     
G02  24267273.022       93012.980        2906.717           0.239  
G03  22336240.634      -12097.792        -502.074           0.255  
G04  23582411.128      -45837.143       -2117.867           0.244  
G05  22534990.440       46977.116        2047.747           0.255  
G06  20627461.538       -7106.854        -481.875           0.255  
G07  23385455.729      -16082.198       -1293.818           0.248  
> 2023 05 18 00 00 38.1688020  0  6                     
G02  24267199.812       93303.577        2907.575           0.239  
G03  22336251.954      -12147.948        -501.495           0.255  
G04  23582464.941      -46048.875       -2118.713           0.244  
G05  22534937.934       47181.875        2048.072           0.255  
G06  20627474.515       -7155.092        -482.280           0.255  
G07  23385489.125      -16211.634       -1293.906           0.248  
> 2023 05 18 00 00 38.2688020  0  6                     
G02  24267124.718       93594.176        2905.972           0.239  
G03  22336267.040      -12198.121        -501.871           0.255  
G04  23582519.262      -46260.596       -2117.315           0.244  
G05  22534886.075       47386.637        2047.591           0.255  
G06  20627485.493       -7203.333        -482.472           0.255  
G07  23385522.143      -16341.077       -1294.204           0.248  
> 2023 05 18 00 00 38.3688020  0  6                     
G02  24267051.892       93884.746        2933.823           0.239  
G03  22336278.045      -12248.280        -501.546           0.255  
G04  23582571.900      -46472.325       -2116.656           0.244  
G05  22534833.883       47591.389        2046.939           0.255  
G06  20627498.467       -7251.585        -482.710           0.255  
G07  23385554.560      -16470.519       -1294.289           0.248  
> 2023 05 18 00 00 38.4688020  0  6                     
G02  24266977.501       94175.377        2905.910           0.239  
G03  22336294.463      -12298.455        -501.387           0.255  
G04  23582626.835      -46684.146       -2112.638           0.244  
G05  22534781.590       47796.149        2047.477           0.255  
G06  20627509.419       -7299.831        -482.400           0.255  
G07  23385587.307      -16599.752       -1275.026           0.248  
> 2023 05 18 00 00 38.5688020  0  6                     
G02  24266903.139       94465.981        2905.414           0.239  
G03  22336305.194      -12348.634        -501.804           0.255  
G04  23582681.219      -46895.802       -2117.582           0.244  
G05  22534729.458       48000.903        2048.209           0.255  
G06  20627522.115       -7348.081        -482.237           0.255  
G07  23385620.785      -16729.411       -1294.819           0.248  
> 2023 05 18 00 00 38.6688020  0  6                     
G02  24266829.585       94756.556        2905.305           0.239  
G03  22336318.733      -12398.817        -502.254           0.255  
G04  23582734.724      -47107.533       -2116.899           0.244  
G05  22534676.991       48205.649        2047.833           0.255  
G06  20627534.269       -7396.341        -482.719           0.255  
G07  23385654.009      -16858.863       -1294.539           0.248  
> 2023 05 18 00 00 38.7688020  0  6                     
G02  24266756.513       95047.171        2906.107           0.239  
G03  22336331.415      -12448.999        -501.756           0.255  
G04  23582786.241      -47319.279       -2117.718           0.244  
G05  22534624.768       48410.396        2047.219           0.255  
G06  20627546.952       -7444.598        -482.178           0.255  
G07  23385687.268      -16988.319       -1294.473           0.248  
> 2023 05 18 00 00 38.8688020  0  6                     
G02  24266682.416       95337.772        2906.545           0.238  
G03  22336344.463      -12499.189        -501.953           0.255  
G04  23582840.946      -47531.013       -2117.668           0.244  
G05  22534572.705       48615.147        2047.103           0.255  
G06  20627559.275       -7492.861        -482.484           0.255  
G07  23385719.934      -17117.778       -1294.887           0.248  
> 2023 05 18 00 00 38.9688020  0  6                     
G02  24266608.191       95628.372        2906.286           0.239  
G03  22336354.867      -12549.381        -501.610           0.255  
G04  23582895.387      -47742.749       -2117.667           0.243  
G05  22534520.417       48819.891        2047.917           0.255  
G06  20627572.221       -7541.128        -482.584           0.255  
G07  23385752.797      -17247.227       -1294.187           0.248  
> 2023 05 18 00 00 39.0688020  0  6                     
G02  24266532.384       95918.978        2906.595           0.239  
G03  22336367.780      -12599.582        -501.650           0.255  
G04  23582950.919      -47954.521       -2129.360           0.244  
G05  22534468.087       49024.311        1982.366           0.255  
G06  20627585.155       -7589.396        -482.680           0.255  
G07  23385785.938      -17376.735       -1315.820           0.248  
> 2023 05 18 00 00 39.1688020  0  6                     
G02  24266457.687       96209.561        2906.100           0.239  
G03  22336381.995      -12649.789        -501.973           0.255  
G04  23583005.280      -48166.217       -2117.252           0.244  
G05  22534416.436       49229.362        2046.740           0.255  
G06  20627596.925       -7637.666        -482.669           0.255  
G07  23385818.761      -17506.155       -1295.062           0.248  
> 2023 05 18 00 00 39.2688020  0  6                     
G02  24266384.532       96500.161        2905.727           0.239  
G03  22336395.472      -12699.998        -502.265           0.255  
G04  23583058.885      -48377.965       -2117.391           0.244  
G05  22534363.971       49434.102        2047.190           0.255  
G06  20627608.600       -7685.945        -482.556           0.255  
G07  23385851.135      -17635.619       -1294.666           0.248  
> 2023 05 18 00 00 39.3688020  0  6                     
G02  24266311.224       96790.770        2906.450           0.239  
G03  22336404.370      -12750.210        -502.432           0.255  
G04  23583112.648      -48589.712       -2117.800           0.244  
G05  22534312.436       49638.747        2032.511           0.255  
G06  20627622.161       -7734.226        -482.709           0.255  
G07  23385885.222      -17765.090       -1294.697           0.248  
> 2023 05 18 00 00 39.4688020  0  6                     
G02  24266237.276       97081.373        2905.535           0.239  
G03  22336418.781      -12800.524        -504.483           0.255  
G04  23583165.879      -48801.453       -2116.657           0.244  
G05  22534259.785       49843.427        2006.410           0.255  
G06  20627633.693       -7782.514        -483.029           0.255  
G07  23385917.965      -17894.564       -1294.820           0.248  
> 2023 05 18 00 00 39.5688020  0  6                     
G02  24266162.824       97371.982        2906.946           0.239  
G03  22336432.000      -12850.649        -502.209           0.255  
G04  23583219.839      -49013.207       -2118.123           0.244  
G05  22534207.761       50048.301        2046.743           0.255  
G06  20627645.990       -7830.795        -482.782           0.255  
G07  23385951.098      -18024.039       -1295.090           0.248  
> 2023 05 18 00 00 39.6688020  0  6                     
G02  24266088.527       97662.570        2906.805           0.239  
G03  22336443.468      -12900.877        -502.326           0.255  
G04  23583273.943      -49224.929       -2117.673           0.244  
G05  22534155.576       50253.039        2047.573           0.255  
G06  20627658.837       -7879.088        -482.938           0.255  
G07  23385984.296      -18153.516       -1294.574           0.248  
> 2023 05 18 00 00 39.7688020  0  6                     
G02  24266014.184       97953.179        2904.776           0.239  
G03  22336457.501      -12951.108        -502.145           0.255  
G04  23583329.856      -49436.688       -2115.817           0.244  
G05  22534103.229       50457.759        2047.282           0.255  
G06  20627670.178       -7927.379        -482.957           0.255  
G07  23386016.240      -18282.998       -1294.598           0.248  
> 2023 05 18 00 00 39.8688020  0  6                     
G02  24265940.411       98243.784        2906.611           0.239  
G03  22336470.938      -13001.347        -502.612           0.255  
G04  23583382.691      -49648.533       -2120.820           0.244  
G05  22534050.996       50662.295        2008.150           0.255  
G06  20627682.415       -7975.677        -482.925           0.255  
G07  23386050.041      -18412.488       -1295.046           0.248  
> 2023 05 18 00 00 39.9688020  0  6                     
G02  24265865.931       98534.376        2905.952           0.239  
G03  22336483.516      -13051.582        -502.067           0.255  
G04  23583436.903      -49860.180       -2116.500           0.244  
G05  22533998.679       50867.207        2047.402           0.255  
G06  20627695.479       -8023.982        -483.206           0.255  
G07  23386083.642      -18541.967       -1294.391           0.248  
> 2023 05 18 00 00 40.0688020  0  6                     
G02  24265792.030       98824.979        2905.342           0.239  
G03  22336496.387      -13101.829        -502.268           0.255  
G04  23583490.062      -50071.935       -2116.443           0.244  
G05  22533946.920       51071.929        2047.912           0.255  
G06  20627707.344       -8072.285        -483.299           0.255  
G07  23386115.695      -18671.456       -1294.366           0.248  
> 2023 05 18 00 00 40.1688020  0  6                     
G02  24265718.338       99115.581        2905.344           0.239  
G03  22336508.570      -13152.080        -502.455           0.255  
G04  23583544.542      -50283.683       -2117.227           0.244  
G05  22533894.344       51276.642        2047.267           0.255  
G06  20627719.644       -8120.594        -482.757           0.255  
G07  23386149.138      -18800.956       -1295.367           0.248  
> 2023 05 18 00 00 40.2688020  0  6                     
G02  24265643.388       99406.174        2905.394           0.239  
G03  22336521.647      -13202.335        -502.460           0.255  
G04  23583599.208      -50495.445       -2117.571           0.244  
G05  22533841.686       51481.358        2046.881           0.255  
G06  20627733.439       -8168.907        -483.185           0.255  
G07  23386181.671      -18930.446       -1294.050           0.248  
> 2023 05 18 00 00 40.3688020  0  6                     
G02  24265571.272       99696.776        2906.354           0.239  
G03  22336533.151      -13252.593        -502.627           0.255  
G04  23583651.956      -50707.206       -2118.182           0.244  
G05  22533789.783       51686.074        2047.341           0.255  
G06  20627745.582       -8217.223        -483.392           0.255  
G07  23386214.591      -19059.950       -1294.994           0.248  
> 2023 05 18 00 00 40.4688020  0  6                     
G02  24265496.435       99987.376        2906.652           0.239  
G03  22336546.933      -13302.855        -502.572           0.255  
G04  23583705.912      -50918.956       -2117.949           0.244  
G05  22533737.715       51890.788        2047.340           0.255  
G06  20627757.084       -8265.538        -483.218           0.255  
G07  23386247.817      -19189.455       -1294.896           0.248  
> 2023 05 18 00 00 40.5688020  0  6                     
G02  24265422.898      100277.975        2904.998           0.239  
G03  22336562.743      -13353.127        -503.073           0.255  
G04  23583760.561      -51130.707       -2117.111           0.244  
G05  22533685.740       52095.496        2046.639           0.255  
G06  20627767.784       -8313.863        -483.713           0.255  
G07  23386280.487      -19318.962       -1295.428           0.248  
> 2023 05 18 00 00 40.6688020  0  6                     
G02  24265348.314      100568.569        2903.313           0.239  
G03  22336574.679      -13403.396        -502.991           0.255  
G04  23583813.827      -51342.646       -2067.718           0.244  
G05  22533634.242       52300.569        2107.093           0.255  
G06  20627780.237       -8362.183        -483.830           0.255  
G07  23386313.105      -19448.469       -1294.642           0.248  
> 2023 05 18 00 00 40.7688020  0  6                     
G02  24265274.576      100859.167        2903.622           0.239  
G03  22336587.407      -13453.669        -502.498           0.255  
G04  23583867.897      -51554.206       -2115.486           0.244  
G05  22533581.825       52504.911        2047.467           0.255  
G06  20627792.677       -8410.507        -482.992           0.255  
G07  23386346.616      -19577.985       -1294.557           0.248  
> 2023 05 18 00 00 40.8688020  0  6                     
G02  24265200.142      101149.775        2906.217           0.239  
G03  22336598.717      -13503.950        -502.866           0.255  
G04  23583921.905      -51765.973       -2117.481           0.244  
G05  22533529.561       52709.610        2047.178           0.255  
G06  20627805.891       -8458.844        -483.314           0.255  
G07  23386380.369      -19707.509       -1295.170           0.248  
> 2023 05 18 00 00 40.9688020  0  6                     
G02  24265126.088      101440.370        2906.053           0.239  
G03  22336613.147      -13554.242        -503.228           0.255  
G04  23583976.181      -51977.734       -2117.584           0.244  
G05  22533477.078       52914.307        2046.520           0.255  
G06  20627817.195       -8507.174        -483.183           0.255  
G07  23386413.065      -19836.994       -1307.319           0.248  
> 2023 05 18 00 00 41.0688020  0  6                     
G02  24265052.357      101730.989        2907.844           0.239  
G03  22336626.273      -13604.525        -503.043           0.255  
G04  23584029.418      -52189.515       -2119.843           0.244  
G05  22533425.218       53119.009        2047.224           0.255  
G06  20627829.570       -8555.515        -482.945           0.255  
G07  23386445.814      -19966.542       -1295.184           0.248  
> 2023 05 18 00 00 41.1688020  0  6                     
G02  24264977.388      102021.573        2907.002           0.239  
G03  22336637.749      -13654.822        -503.371           0.255  
G04  23584084.057      -52401.267       -2118.774           0.244  
G05  22533372.984       53323.705        2047.432           0.255  
G06  20627842.722       -8603.858        -484.010           0.255  
G07  23386479.283      -20096.068       -1295.361           0.248  
> 2023 05 18 00 00 41.2688020  0  6                     
G02  24264904.373      102312.172        2907.169           0.239  
G03  22336650.474      -13705.118        -503.036           0.255  
G04  23584137.918      -52613.022       -2118.180           0.244  
G05  22533320.383       53528.389        2045.934           0.255  
G06  20627854.850       -8652.200        -483.285           0.255  
G07  23386511.743      -20225.599       -1295.973           0.248  
> 2023 05 18 00 00 41.3688020  0  6                     
G02  24264830.938      102602.762        2905.441           0.239  
G03  22336662.607      -13755.423        -502.829           0.255  
G04  23584191.220      -52824.784       -2117.379           0.244  
G05  22533268.105       53733.087        2046.613           0.255  
G06  20627867.679       -8700.552        -483.503           0.255  
G07  23386545.018      -20355.122       -1294.995           0.248  
> 2023 05 18 00 00 41.4688020  0  6                     
G02  24264757.013      102893.370        2905.143           0.239  
G03  22336674.893      -13805.730        -503.031           0.255  
G04  23584244.920      -53036.556       -2117.100           0.244  
G05  22533216.554       53937.777        2047.259           0.255  
G06  20627880.195       -8748.902        -483.976           0.255  
G07  23386578.431      -20484.656       -1294.538           0.248  
> 2023 05 18 00 00 41.5688020  0  6                     
G02  24264682.156      103183.965        2905.699           0.239  
G03  22336689.215      -13856.041        -502.998           0.255  
G04  23584298.454      -53248.324       -2117.838           0.244  
G05  22533164.382       54142.468        2047.146           0.255  
G06  20627891.941       -8797.253        -483.693           0.255  
G07  23386610.311      -20614.195       -1295.171           0.248  
> 2023 05 18 00 00 41.6688020  0  6                     
G02  24264608.117      103474.572        2906.262           0.239  
G03  22336702.237      -13906.363        -503.006           0.255  
G04  23584352.624      -53460.087       -2116.747           0.244  
G05  22533112.254       54347.562        2121.240           0.255  
G06  20627904.447       -8845.612        -483.829           0.255  
G07  23386643.012      -20743.731       -1295.328           0.248  
> 2023 05 18 00 00 41.7688020  0  6                     
G02  24264533.798      103765.158        2904.327           0.239  
G03  22336714.255      -13956.686        -503.115           0.255  
G04  23584407.507      -53671.840       -2115.930           0.244  
G05  22533059.953       54551.827        2047.094           0.255  
G06  20627916.783       -8893.979        -484.012           0.255  
G07  23386676.923      -20873.277       -1295.427           0.248  
> 2023 05 18 00 00 41.8688020  0  6                     
G02  24264460.041      104055.781        2908.118           0.239  
G03  22336727.333      -14007.000        -502.914           0.255  
G04  23584461.237      -53883.629       -2119.217           0.244  
G05  22533007.728       54756.505        2046.806           0.255  
G06  20627929.098       -8942.345        -483.775           0.255  
G07  23386709.873      -21002.827       -1295.609           0.248  
> 2023 05 18 00 00 41.9688020  0  6                     
G02  24264385.497      104346.382        2905.718           0.239  
G03  22336739.788      -14057.337        -503.174           0.255  
G04  23584515.227      -54095.401       -2117.493           0.244  
G05  22532955.819       54961.175        2046.676           0.255  
G06  20627941.426       -8990.710        -483.658           0.255  
G07  23386743.146      -21132.370       -1295.262           0.248  
> 2023 05 18 00 00 42.0688020  0  6                     
G02  24264310.490      104636.982        2906.460           0.240  
G03  22336751.756      -14107.668        -503.009           0.255  
G04  23584569.478      -54307.173       -2117.720           0.244  
G05  22532903.840       55165.852        2047.121           0.255  
G06  20627954.058       -9039.084        -483.924           0.255  
G07  23386776.206      -21261.920       -1295.300           0.248  
> 2023 05 18 00 00 42.1688020  0  6                     
G02  24264236.850      104927.575        2906.188           0.239  
G03  22336765.127      -14158.018        -503.274           0.255  
G04  23584622.655      -54518.945       -2118.435           0.244  
G05  22532851.633       55370.526        2046.224           0.255  
G06  20627966.395       -9087.458        -484.180           0.255  
G07  23386809.353      -21391.468       -1295.159           0.248  
> 2023 05 18 00 00 42.2688020  0  6                     
G02  24264163.902      105217.881        2851.452           0.239  
G03  22336777.865      -14208.365        -503.666           0.255  
G04  23584676.667      -54730.976       -2096.467           0.244  
G05  22532799.327       55575.206        2046.365           0.255  
G06  20627978.552       -9135.831        -483.984           0.255  
G07  23386841.802      -21521.020       -1295.597           0.248  
> 2023 05 18 00 00 42.3688020  0  6                     
G02  24264089.485      105508.774        2905.227           0.239  
G03  22336791.208      -14258.709        -503.431           0.255  
G04  23584731.218      -54942.485       -2116.028           0.244  
G05  22532747.072       55779.877        2047.404           0.255  
G06  20627990.578       -9184.219        -483.793           0.255  
G07  23386874.910      -21650.585       -1296.085           0.248  
> 2023 05 18 00 00 42.4688020  0  6                     
G02  24264015.191      105799.397        2906.858           0.239  
G03  22336804.206      -14309.146        -497.369           0.255  
G04  23584785.275      -55154.284       -2118.446           0.244  
G05  22532694.816       55984.544        2046.948           0.255  
G06  20628002.753       -9232.608        -483.928           0.255  
G07  23386908.060      -21780.146       -1295.891           0.248  
> 2023 05 18 00 00 42.5688020  0  6                     
G02  24263941.176      106089.985        2903.935           0.239  
G03  22336817.281      -14359.413        -502.621           0.255  
G04  23584839.210      -55366.051       -2116.429           0.244  
G05  22532642.635       56189.206        2046.761           0.255  
G06  20628015.201       -9280.999        -484.329           0.255  
G07  23386941.098      -21909.668       -1282.151           0.248  
> 2023 05 18 00 00 42.6688020  0  6                     
G02  24263867.895      106380.576        2905.457           0.239  
G03  22336829.789      -14409.775        -502.392           0.255  
G04  23584892.801      -55577.794       -2115.281           0.244  
G05  22532590.869       56393.871        2047.397           0.255  
G06  20628027.678       -9329.390        -483.897           0.255  
G07  23386973.272      -22039.270       -1295.315           0.248  
> 2023 05 18 00 00 42.7688020  0  6                     
G02  24263793.650      106671.187        2905.511           0.239  
G03  22336842.484      -14460.145        -503.057           0.255  
G04  23584946.772      -55789.614       -2117.786           0.244  
G05  22532538.501       56598.533        2046.255           0.255  
G06  20628040.611       -9377.786        -484.460           0.255  
G07  23387006.820      -22168.841       -1295.253           0.248  
> 2023 05 18 00 00 42.8688020  0  6                     
G02  24263718.819      106961.789        2905.726           0.239  
G03  22336855.519      -14510.519        -503.685           0.255  
G04  23585001.151      -56001.387       -2117.155           0.244  
G05  22532485.973       56803.186        2046.095           0.255  
G06  20628052.277       -9426.189        -484.204           0.255  
G07  23387040.267      -22298.417       -1295.871           0.248  
> 2023 05 18 00 00 42.9688020  0  6                     
G02  24263644.935      107252.392        2906.551           0.239  
G03  22336867.824      -14560.896        -503.485           0.255  
G04  23585055.372      -56213.242       -2118.774           0.244  
G05  22532433.858       57007.702        2015.837           0.255  
G06  20628064.687       -9474.588        -484.500           0.255  
G07  23387073.333      -22428.090       -1298.329           0.248  
> 2023 05 18 00 00 43.0688020  0  6                     
G02  24263570.821      107542.993        2905.541           0.239  
G03  22336880.919      -14611.275        -503.991           0.255  
G04  23585109.476      -56424.954       -2117.438           0.244  
G05  22532381.750       57212.502        2046.323           0.255  
G06  20628077.144       -9522.994        -484.229           0.255  
G07  23387106.399      -22557.573       -1295.526           0.248  
> 2023 05 18 00 00 43.1688020  0  6                     
G02  24263497.199      107833.594        2905.866           0.239  
G03  22336894.809      -14661.654        -504.359           0.255  
G04  23585163.183      -56636.756       -2118.109           0.244  
G05  22532329.756       57417.154        2046.561           0.255  
G06  20628088.739       -9571.403        -483.366           0.255  
G07  23387139.277      -22687.155       -1295.737           0.248  
> 2023 05 18 00 00 43.2688020  0  6                     
G02  24263422.985      108124.183        2905.983           0.239  
G03  22336907.466      -14712.047        -503.477           0.255  
G04  23585217.143      -56848.534       -2117.236           0.244  
G05  22532277.653       57621.809        2046.750           0.255  
G06  20628101.338       -9619.819        -484.302           0.255  
G07  23387172.309      -22816.739       -1295.686           0.248  
> 2023 05 18 00 00 43.3688020  0  6                     
G02  24263348.818      108414.775        2904.784           0.239  
G03  22336920.190      -14762.438        -503.708           0.255  
G04  23585271.289      -57060.206       -2097.605           0.244  
G05  22532225.557       57826.456        2046.080           0.255  
G06  20628113.704       -9668.239        -484.798           0.255  
G07  23387205.072      -22946.328       -1295.676           0.248  
> 2023 05 18 00 00 43.4688020  0  6                     
G02  24263274.294      108705.366        2905.440           0.239  
G03  22336931.909      -14812.830        -503.812           0.255  
G04  23585325.083      -57272.104       -2117.660           0.244  
G05  22532173.336       58031.103        2046.629           0.255  
G06  20628126.612       -9716.659        -484.362           0.255  
G07  23387237.955      -23075.923       -1296.198           0.248  
> 2023 05 18 00 00 43.5688020  0  6                     
G02  24263200.593      108995.949        2904.877           0.239  
G03  22336945.552      -14863.237        -504.052           0.255  
G04  23585378.716      -57483.895       -2117.188           0.244  
G05  22532121.035       58235.747        2046.391           0.255  
G06  20628138.894       -9765.079        -484.154           0.255  
G07  23387271.072      -23205.515       -1295.698           0.248  
> 2023 05 18 00 00 43.6688020  0  6                     
G02  24263127.056      109286.548        2905.888           0.239  
G03  22336960.236      -14913.651        -504.465           0.255  
G04  23585433.132      -57695.692       -2117.659           0.244  
G05  22532069.117       58440.390        2045.574           0.255  
G06  20628150.307       -9813.512        -484.121           0.255  
G07  23387304.155      -23335.111       -1295.842           0.248  
> 2023 05 18 00 00 43.7688020  0  6                     
G02  24263051.704      109577.147        2906.150           0.239  
G03  22336972.348      -14964.060        -504.227           0.255  
G04  23585487.982      -57907.482       -2117.903           0.244  
G05  22532016.797       58645.029        2046.223           0.255  
G06  20628162.363       -9861.936        -484.248           0.255  
G07  23387336.900      -23464.716       -1295.839           0.248  
> 2023 05 18 00 00 43.8688020  0  6                     
G02  24262977.602      109867.875        2927.885           0.239  
G03  22336984.061      -15014.474        -504.158           0.255  
G04  23585541.609      -58119.275       -2117.712           0.244  
G05  22531964.502       58849.668        2046.039           0.255  
G06  20628174.955       -9910.370        -484.060           0.255  
G07  23387370.686      -23594.316       -1295.991           0.248  
> 2023 05 18 00 00 43.9688020  0  6                     
G02  24262903.104      110158.017        2891.045           0.239  
G03  22336997.135      -15064.896        -504.182           0.255  
G04  23585596.170      -58331.074       -2119.313           0.244  
G05  22531912.382       59054.299        2045.872           0.255  
G06  20628186.642       -9958.808        -484.295           0.255  
G07  23387404.170      -23723.923       -1295.807           0.248  
> 2023 05 18 00 00 44.0688020  0  6                     
G02  24262829.116      110448.924        2906.290           0.239  
G03  22337008.570      -15115.315        -495.157           0.255  
G04  23585650.334      -58542.855       -2118.404           0.244  
G05  22531860.331       59258.970        2054.698           0.255  
G06  20628199.825      -10007.252        -483.802           0.255  
G07  23387436.997      -23853.537       -1296.010           0.248  
> 2023 05 18 00 00 44.1688020  0  6                     
G02  24262757.465      110739.523        2905.240           0.239  
G03  22337022.682      -15165.745        -504.235           0.255  
G04  23585701.976      -58754.658       -2117.806           0.244  
G05  22531808.257       59463.570        2046.305           0.255  
G06  20628212.248      -10055.699        -484.282           0.255  
G07  23387469.932      -23983.152       -1296.492           0.248  
> 2023 05 18 00 00 44.2688020  0  6                     
G02  24262683.225      111030.114        2905.334           0.239  
G03  22337035.228      -15216.181        -504.086           0.255  
G04  23585756.256      -58966.344       -2074.578           0.244  
G05  22531756.031       59668.195        2046.344           0.255  
G06  20628225.005      -10104.148        -484.667           0.255  
G07  23387502.320      -24112.760       -1296.036           0.248  
> 2023 05 18 00 00 44.3688020  0  6                     
G02  24262610.686      111320.706        2903.979           0.239  
G03  22337050.509      -15266.624        -504.205           0.255  
G04  23585808.169      -59178.249       -2117.160           0.244  
G05  22531703.652       59872.823        2047.211           0.255  
G06  20628236.751      -10152.595        -484.543           0.255  
G07  23387535.502      -24242.381       -1296.213           0.248  
> 2023 05 18 00 00 44.4688020  0  6                     
G02  24262533.195      111611.305        2905.680           0.239  
G03  22337062.033      -15317.063        -503.447           0.255  
G04  23585865.885      -59390.044       -2117.718           0.244  
G05  22531651.634       60077.445        2045.952           0.255  
G06  20628249.314      -10201.054        -485.022           0.255  
G07  23387568.469      -24372.006       -1296.231           0.248  
> 2023 05 18 00 00 44.5688020  0  6                     
G02  24262460.029      111901.462        2893.245           0.239  
G03  22337074.232      -15367.515        -504.248           0.255  
G04  23585919.303      -59601.837       -2116.002           0.244  
G05  22531599.563       60281.740        1987.093           0.255  
G06  20628261.904      -10249.507        -484.418           0.255  
G07  23387601.584      -24501.632       -1295.901           0.248  
> 2023 05 18 00 00 44.6688020  0  6                     
G02  24262385.952      112192.496        2906.858           0.239  
G03  22337088.438      -15417.975        -505.331           0.255  
G04  23585972.223      -59813.651       -2119.039           0.244  
G05  22531547.562       60486.293        1961.193           0.255  
G06  20628273.944      -10297.967        -484.173           0.255  
G07  23387634.398      -24631.256       -1295.994           0.248  
> 2023 05 18 00 00 44.7688020  0  6                     
G02  24262312.540      112483.108        2908.139           0.239  
G03  22337101.442      -15468.428        -505.138           0.255  
G04  23586026.248      -60025.466       -2119.891           0.244  
G05  22531495.498       60691.306        2045.786           0.255  
G06  20628286.377      -10346.432        -484.530           0.255  
G07  23387667.552      -24760.890       -1296.814           0.248  
> 2023 05 18 00 00 44.8688020  0  6                     
G02  24262237.926      112773.697        2906.087           0.239  
G03  22337113.340      -15518.895        -505.010           0.255  
G04  23586080.495      -60237.265       -2118.226           0.244  
G05  22531443.339       60895.814        2035.636           0.255  
G06  20628298.966      -10394.898        -484.273           0.255  
G07  23387700.501      -24890.483       -1285.179           0.248  
> 2023 05 18 00 00 44.9688020  0  6                     
G02  24262164.901      113064.286        2906.381           0.239  
G03  22337125.802      -15569.358        -505.030           0.255  
G04  23586133.768      -60449.059       -2118.094           0.244  
G05  22531390.929       61100.535        2045.983           0.255  
G06  20628311.876      -10443.373        -484.565           0.255  
G07  23387733.429      -25020.162       -1296.182           0.248  
> 2023 05 18 00 00 45.0688020  0  6                     
G02  24262089.959      113354.899        2907.912           0.239  
G03  22337140.435      -15619.729        -485.933           0.255  
G04  23586188.069      -60660.879       -2119.022           0.244  
G05  22531338.689       61305.448        2114.252           0.255  
G06  20628323.409      -10491.846        -484.391           0.255  
G07  23387767.009      -25149.807       -1311.391           0.248  
> 2023 05 18 00 00 45.1688020  0  6                     
G02  24262015.567      113645.480        2906.465           0.239  
G03  22337150.577      -15670.300        -504.741           0.255  
G04  23586242.466      -60872.677       -2118.155           0.244  
G05  22531286.688       61509.759        2046.109           0.255  
G06  20628336.924      -10540.328        -484.746           0.255  
G07  23387799.922      -25279.438       -1296.584           0.248  
> 2023 05 18 00 00 45.2688020  0  6                     
G02  24261942.283      113936.065        2905.505           0.239  
G03  22337164.784      -15720.773        -503.894           0.255  
G04  23586295.571      -61084.475       -2118.047           0.244  
G05  22531234.717       61714.367        2045.550           0.255  
G06  20628348.170      -10588.809        -484.697           0.255  
G07  23387832.948      -25409.084       -1296.446           0.248  
> 2023 05 18 00 00 45.3688020  0  6                     
G02  24261869.637      114226.665        2906.437           0.239  
G03  22337177.120      -15771.260        -504.237           0.255  
G04  23586348.798      -61296.287       -2118.330           0.244  
G05  22531182.447       61918.979        2046.475           0.255  
G06  20628360.904      -10637.298        -485.179           0.255  
G07  23387865.891      -25538.769       -1307.828           0.248  
> 2023 05 18 00 00 45.4688020  0  6                     
G02  24261794.618      114517.259        2905.006           0.239  
G03  22337189.766      -15821.748        -504.950           0.255  
G04  23586402.472      -61508.042       -2095.059           0.244  
G05  22531130.621       62123.577        2045.816           0.255  
G06  20628373.938      -10685.783        -484.999           0.255  
G07  23387898.619      -25668.384       -1296.992           0.248  
> 2023 05 18 00 00 45.5688020  0  6                     
G02  24261720.270      114807.856        2905.498           0.239  
G03  22337203.256      -15872.242        -504.749           0.255  
G04  23586458.029      -61719.911       -2117.732           0.244  
G05  22531078.493       62327.824        1964.610           0.255  
G06  20628385.980      -10734.275        -485.091           0.255  
G07  23387931.824      -25798.085       -1307.059           0.248  
> 2023 05 18 00 00 45.6688020  0  6                     
G02  24261644.498      115098.439        2905.281           0.239  
G03  22337214.573      -15922.737        -504.891           0.255  
G04  23586512.706      -61931.710       -2117.498           0.244  
G05  22531025.871       62532.448        1986.236           0.255  
G06  20628398.395      -10782.771        -484.991           0.255  
G07  23387965.679      -25927.596       -1291.882           0.248  
> 2023 05 18 00 00 45.7688020  0  6                     
G02  24261570.179      115389.042        2904.935           0.239  
G03  22337228.097      -15973.245        -505.804           0.255  
G04  23586566.667      -62143.778       -2144.573           0.244  
G05  22530973.861       62737.357        2045.155           0.255  
G06  20628410.578      -10831.268        -484.741           0.255  
G07  23387998.243      -26057.341       -1296.327           0.248  
> 2023 05 18 00 00 45.8688020  0  6                     
G02  24261497.359      115679.646        2905.880           0.239  
G03  22337240.603      -16023.729        -502.553           0.255  
G04  23586620.222      -62355.210       -2077.215           0.244  
G05  22530922.045       62941.952        2046.177           0.255  
G06  20628422.929      -10879.776        -485.211           0.255  
G07  23388031.049      -26187.007       -1296.870           0.248  
> 2023 05 18 00 00 45.9688020  0  6                     
G02  24261422.865      115970.237        2905.387           0.240  
G03  22337253.414      -16074.258        -505.033           0.255  
G04  23586674.876      -62567.159       -2117.779           0.244  
G05  22530870.145       63146.540        2045.469           0.255  
G06  20628435.671      -10928.280        -485.140           0.255  
G07  23388063.866      -26316.673       -1296.691           0.248  
> 2023 05 18 00 00 46.0688020  0  6                     
G02  24261348.031      116260.833        2905.596           0.239  
G03  22337267.478      -16124.772        -505.482           0.255  
G04  23586729.741      -62778.976       -2117.536           0.244  
G05  22530818.258       63351.129        2046.044           0.255  
G06  20628446.947      -10976.789        -485.395           0.255  
G07  23388096.742      -26446.338       -1296.968           0.248  
> 2023 05 18 00 00 46.1688020  0  6                     
G02  24261274.662      116551.426        2906.300           0.239  
G03  22337279.872      -16175.291        -504.567           0.255  
G04  23586783.003      -62990.791       -2117.885           0.244  
G05  22530765.869       63555.328        1977.453           0.255  
G06  20628459.720      -11025.301        -485.387           0.255  
G07  23388130.109      -26576.293       -1322.384           0.248  
> 2023 05 18 00 00 46.2688020  0  6                     
G02  24261201.024      116842.019        2905.852           0.239  
G03  22337291.169      -16225.788        -500.908           0.255  
G04  23586837.276      -63202.611       -2118.423           0.244  
G05  22530712.926       63760.434        2071.863           0.255  
G06  20628472.630      -11073.819        -485.512           0.255  
G07  23388163.067      -26705.687       -1296.738           0.248  
> 2023 05 18 00 00 46.3688020  0  6                     
G02  24261127.711      117132.610        2904.888           0.239  
G03  22337304.005      -16276.347        -505.114           0.255  
G04  23586890.745      -63414.431       -2117.523           0.244  
G05  22530661.180       63964.889        2046.164           0.255  
G06  20628485.072      -11122.334        -485.332           0.255  
G07  23388195.709      -26835.362       -1296.644           0.248  
> 2023 05 18 00 00 46.4688020  0  6                     
G02  24261053.789      117423.228        2907.163           0.239  
G03  22337317.897      -16326.874        -504.542           0.255  
G04  23586944.647      -63626.265       -2118.874           0.244  
G05  22530609.280       64169.468        2045.143           0.255  
G06  20628497.434      -11170.858        -485.240           0.255  
G07  23388229.273      -26964.935       -1292.624           0.248  
> 2023 05 18 00 00 46.5688020  0  6                     
G02  24260981.320      117713.812        2905.781           0.239  
G03  22337329.457      -16377.418        -505.599           0.255  
G04  23586997.717      -63838.083       -2118.030           0.244  
G05  22530557.363       64374.050        2045.670           0.255  
G06  20628509.813      -11219.384        -484.914           0.255  
G07  23388262.534      -27094.712       -1297.839           0.248  
> 2023 05 18 00 00 46.6688020  0  6                     
G02  24260906.484      118004.404        2906.125           0.239  
G03  22337342.987      -16427.957        -505.187           0.255  
G04  23587051.609      -64049.903       -2118.578           0.244  
G05  22530504.854       64578.628        2045.750           0.255  
G06  20628521.861      -11267.916        -485.203           0.255  
G07  23388295.072      -27224.410       -1296.787           0.248  
> 2023 05 18 00 00 46.7688020  0  6                     
G02  24260831.102      118294.996        2905.578           0.240  
G03  22337355.830      -16478.513        -505.623           0.255  
G04  23587105.102      -64261.721       -2117.945           0.244  
G05  22530452.656       64783.203        2045.249           0.255  
G06  20628535.253      -11316.450        -485.149           0.255  
G07  23388328.422      -27354.098       -1296.570           0.248  
> 2023 05 18 00 00 46.8688020  0  6                     
G02  24260758.917      118585.612        2907.252           0.239  
G03  22337368.812      -16529.062        -505.752           0.255  
G04  23587158.331      -64473.556       -2118.940           0.244  
G05  22530400.678       64987.780        2046.320           0.255  
G06  20628547.080      -11364.986        -485.260           0.255  
G07  23388361.601      -27483.792       -1296.610           0.248  
> 2023 05 18 00 00 46.9688020  0  6                     
G02  24260683.155      118876.185        2904.751           0.239  
G03  22337382.921      -16579.612        -505.468           0.255  
G04  23587213.589      -64685.368       -2118.028           0.244  
G05  22530348.214       65192.344        2045.195           0.255  
G06  20628558.789      -11413.528        -485.217           0.255  
G07  23388394.365      -27613.483       -1296.672           0.248  
> 2023 05 18 00 00 47.0688020  0  6                     
G02  24260608.262      119166.766        2906.793           0.239  
G03  22337395.282      -16630.171        -505.356           0.255  
G04  23587267.786      -64897.181       -2118.625           0.243  
G05  22530296.166       65396.918        2046.172           0.255  
G06  20628571.475      -11462.073        -485.633           0.255  
G07  23388427.468      -27743.210       -1307.930           0.248  
> 2023 05 18 00 00 47.1688020  0  6                     
G02  24260533.423      119457.398        2908.156           0.239  
G03  22337409.325      -16680.739        -505.108           0.255  
G04  23587322.438      -65109.043       -2120.380           0.244  
G05  22530244.228       65601.479        2045.408           0.255  
G06  20628583.349      -11510.615        -485.532           0.255  
G07  23388460.669      -27872.884       -1296.893           0.248  
> 2023 05 18 00 00 47.2688020  0  6                     
G02  24260458.579      119747.969        2906.211           0.239  
G03  22337422.044      -16731.310        -504.720           0.255  
G04  23587377.119      -65320.866       -2118.506           0.244  
G05  22530192.302       65806.048        2045.936           0.255  
G06  20628595.802      -11559.163        -485.539           0.255  
G07  23388493.694      -28002.589       -1297.219           0.248  
> 2023 05 18 00 00 47.3688020  0  6                     
G02  24260385.313      120038.570        2905.776           0.240  
G03  22337435.920      -16781.884        -505.079           0.255  
G04  23587430.685      -65532.695       -2117.807           0.244  
G05  22530140.386       66010.607        2045.708           0.255  
G06  20628608.114      -11607.719        -485.892           0.255  
G07  23388526.893      -28132.292       -1296.996           0.248  
> 2023 05 18 00 00 47.4688020  0  6                     
G02  24260311.781      120329.163        2904.989           0.239  
G03  22337447.699      -16832.472        -505.637           0.255  
G04  23587483.968      -65744.536       -2118.036           0.244  
G05  22530088.093       66215.165        2045.953           0.255  
G06  20628620.224      -11656.275        -485.478           0.255  
G07  23388559.828      -28262.006       -1297.125           0.248  
> 2023 05 18 00 00 47.5688020  0  6                     
G02  24260240.173      120619.773        2905.470           0.239  
G03  22337460.433      -16883.057        -505.592           0.255  
G04  23587537.446      -65956.379       -2118.703           0.244  
G05  22530035.908       66419.725        2045.999           0.255  
G06  20628633.136      -11704.833        -485.496           0.255  
G07  23388593.087      -28391.718       -1297.252           0.248  
> 2023 05 18 00 00 47.6688020  0  6                     
G02  24260166.098      120910.363        2906.920           0.239  
G03  22337474.115      -16933.631        -505.511           0.255  
G04  23587590.612      -66168.206       -2119.020           0.244  
G05  22529983.516       66624.275        2045.460           0.255  
G06  20628645.008      -11753.404        -485.516           0.255  
G07  23388626.059      -28521.439       -1296.990           0.248  
> 2023 05 18 00 00 47.7688020  0  6                     
G02  24260090.472      121200.957        2907.529           0.239  
G03  22337484.021      -16984.219        -506.508           0.255  
G04  23587645.696      -66380.033       -2119.579           0.244  
G05  22529931.877       66828.829        2045.896           0.255  
G06  20628658.989      -11801.975        -485.843           0.255  
G07  23388659.278      -28651.159       -1297.376           0.248  
> 2023 05 18 00 00 47.8688020  0  6                     
G02  24260016.706      121491.541        2906.443           0.239  
G03  22337498.764      -17034.823        -505.755           0.255  
G04  23587699.259      -66591.873       -2119.236           0.244  
G05  22529879.280       67033.381        2044.857           0.255  
G06  20628670.333      -11850.538        -485.404           0.255  
G07  23388692.101      -28780.885       -1297.263           0.248  
> 2023 05 18 00 00 47.9688020  0  6                     
G02  24259941.980      121782.139        2921.709           0.239  
G03  22337508.089      -17085.423        -506.159           0.255  
G04  23587753.837      -66803.700       -2118.847           0.244  
G05  22529827.086       67237.931        2045.743           0.255  
G06  20628683.803      -11899.115        -485.745           0.255  
G07  23388725.212      -28910.697       -1298.038           0.248  
> 2023 05 18 00 00 48.0688020  0  6                     
G02  24259869.495      122072.736        2905.970           0.239  
G03  22337523.394      -17136.028        -505.828           0.255  
G04  23587806.477      -67015.748       -2147.280           0.244  
G05  22529774.812       67442.477        2045.586           0.255  
G06  20628695.265      -11947.690        -485.753           0.255  
G07  23388758.346      -29040.324       -1296.531           0.248  
> 2023 05 18 00 00 48.1688020  0  6                     
G02  24259795.136      122363.340        2905.782           0.239  
G03  22337537.734      -17186.643        -506.898           0.255  
G04  23587861.044      -67227.544       -2110.075           0.244  
G05  22529722.743       67647.030        2046.507           0.255  
G06  20628707.212      -11996.273        -485.136           0.255  
G07  23388791.650      -29170.062       -1297.360           0.248  
> 2023 05 18 00 00 48.2688020  0  6                     
G02  24259720.369      122653.929        2905.414           0.239  
G03  22337550.049      -17237.258        -506.972           0.255  
G04  23587915.322      -67439.221       -2117.267           0.244  
G05  22529670.506       67851.368        2011.179           0.255  
G06  20628719.722      -12044.856        -485.651           0.255  
G07  23388824.518      -29299.857       -1311.067           0.248  
> 2023 05 18 00 00 48.3688020  0  6                     
G02  24259646.166      122944.520        2905.607           0.239  
G03  22337563.401      -17287.870        -506.045           0.255  
G04  23587969.827      -67651.060       -2117.552           0.244  
G05  22529618.762       68056.111        2045.629           0.255  
G06  20628731.840      -12093.454        -486.327           0.255  
G07  23388857.271      -29429.535       -1297.649           0.248  
> 2023 05 18 00 00 48.4688020  0  6                     
G02  24259571.846      123235.120        2906.512           0.239  
G03  22337575.923      -17338.487        -505.303           0.255  
G04  23588024.078      -67862.907       -2119.197           0.244  
G05  22529566.606       68260.649        2045.374           0.255  
G06  20628744.433      -12142.044        -486.622           0.255  
G07  23388890.293      -29559.272       -1297.409           0.248  
> 2023 05 18 00 00 48.5688020  0  6                     
G02  24259498.482      123525.716        2905.392           0.239  
G03  22337588.516      -17389.111        -504.809           0.255  
G04  23588077.804      -68074.753       -2118.089           0.244  
G05  22529514.490       68465.184        2045.164           0.255  
G06  20628756.925      -12190.641        -486.677           0.255  
G07  23388923.349      -29689.012       -1297.215           0.248  
> 2023 05 18 00 00 48.6688020  0  6                     
G02  24259424.154      123816.299        2903.775           0.239  
G03  22337600.539      -17439.747        -503.828           0.255  
G04  23588131.487      -68286.559       -2144.082           0.244  
G05  22529462.173       68669.721        2045.641           0.255  
G06  20628769.515      -12239.238        -486.468           0.255  
G07  23388956.235      -29818.758       -1303.264           0.248  
> 2023 05 18 00 00 48.7688020  0  6                     
G02  24259350.058      124106.918        2907.285           0.239  
G03  22337614.298      -17490.390        -504.926           0.255  
G04  23588186.211      -68498.791       -2133.652           0.244  
G05  22529410.452       68874.250        2045.417           0.255  
G06  20628780.864      -12287.845        -486.508           0.255  
G07  23388989.137      -29948.294       -1286.837           0.248  
> 2023 05 18 00 00 48.8688020  0  6                     
G02  24259275.856      124397.493        2904.561           0.239  
G03  22337626.891      -17541.029        -505.777           0.255  
G04  23588239.947      -68710.255       -2116.573           0.244  
G05  22529358.188       69078.779        2045.859           0.255  
G06  20628793.191      -12336.446        -486.535           0.255  
G07  23389022.095      -30078.178       -1288.266           0.248  
> 2023 05 18 00 00 48.9688020  0  6                     
G02  24259201.134      124688.091        2906.640           0.239  
G03  22337640.762      -17591.675        -506.521           0.255  
G04  23588293.515      -68922.223       -2137.711           0.244  
G05  22529306.262       69283.296        2044.900           0.255  
G06  20628805.514      -12385.055        -486.400           0.255  
G07  23389055.716      -30207.954       -1293.464           0.248  
> 2023 05 18 00 00 49.0688020  0  6                     
G02  24259127.335      124978.686        2906.635           0.239  
G03  22337654.741      -17642.332        -506.642           0.255  
G04  23588347.166      -69134.365       -2143.569           0.244  
G05  22529253.942       69487.821        2046.047           0.255  
G06  20628818.091      -12433.666        -486.318           0.255  
G07  23389088.846      -30337.737       -1300.009           0.248  
> 2023 05 18 00 00 49.1688020  0  6                     
G02  24259054.429      125269.284        2905.470           0.239  
G03  22337666.247      -17692.986        -506.289           0.255  
G04  23588401.345      -69345.838       -2117.966           0.244  
G05  22529202.139       69692.336        2044.343           0.255  
G06  20628831.964      -12482.278        -486.142           0.255  
G07  23389121.925      -30467.521       -1297.401           0.248  
> 2023 05 18 00 00 49.2688020  0  6                     
G02  24258981.122      125559.879        2906.275           0.239  
G03  22337678.852      -17743.650        -506.180           0.255  
G04  23588455.079      -69557.686       -2118.723           0.244  
G05  22529149.820       69896.862        2045.937           0.255  
G06  20628844.107      -12530.900        -486.281           0.255  
G07  23389155.230      -30597.290       -1297.746           0.248  
> 2023 05 18 00 00 49.3688020  0  6                     
G02  24258905.716      125850.617        2942.982           0.239  
G03  22337692.375      -17794.321        -506.615           0.255  
G04  23588509.550      -69769.392       -2137.280           0.244  
G05  22529097.738       70101.366        2044.505           0.255  
G06  20628856.239      -12579.516        -486.063           0.255  
G07  23389188.233      -30727.146       -1289.100           0.248  
> 2023 05 18 00 00 49.4688020  0  6                     
G02  24258831.150      126141.085        2907.265           0.239  
G03  22337705.246      -17844.776        -502.132           0.255  
G04  23588563.428      -69980.574       -2010.745           0.244  
G05  22529045.436       70305.891        2045.544           0.255  
G06  20628868.601      -12628.149        -486.631           0.255  
G07  23389221.169      -30856.622       -1267.598           0.248  
> 2023 05 18 00 00 49.5688020  0  6                     
G02  24258758.225      126431.651        2904.228           0.239  
G03  22337718.412      -17895.662        -508.079           0.255  
G04  23588617.696      -70193.249       -2117.342           0.244  
G05  22528993.169       70510.400        2044.257           0.255  
G06  20628881.141      -12676.773        -485.565           0.255  
G07  23389253.898      -30986.593       -1297.134           0.248  
> 2023 05 18 00 00 49.6688020  0  6                     
G02  24258682.860      126722.253        2907.280           0.239  
G03  22337731.825      -17946.023        -514.402           0.255  
G04  23588671.765      -70405.134       -2119.852           0.244  
G05  22528940.925       70714.918        2045.224           0.255  
G06  20628892.633      -12725.410        -485.695           0.255  
G07  23389287.323      -31116.366       -1297.503           0.248  
> 2023 05 18 00 00 49.7688020  0  6                     
G02  24258609.720      127012.831        2905.287           0.239  
G03  22337743.987      -17997.032        -509.084           0.255  
G04  23588725.574      -70616.994       -2118.936           0.244  
G05  22528888.890       70919.426        2044.685           0.255  
G06  20628906.135      -12774.034        -484.920           0.255  
G07  23389320.049      -31246.148       -1297.883           0.248  
> 2023 05 18 00 00 49.8688020  0  6                     
G02  24258534.393      127303.427        2906.288           0.239  
G03  22337758.472      -18047.717        -508.916           0.255  
G04  23588779.747      -70828.854       -2118.849           0.244  
G05  22528837.107       71123.940        2045.509           0.255  
G06  20628917.365      -12822.672        -485.115           0.255  
G07  23389353.227      -31375.928       -1298.018           0.248  
> 2023 05 18 00 00 49.9688020  0  6                     
G02  24258461.221      127594.015        2906.200           0.239  
G03  22337770.995      -18098.405        -507.908           0.255  
G04  23588833.304      -71040.709       -2118.044           0.244  
G05  22528784.709       71328.439        2044.628           0.255  
G06  20628929.899      -12871.318        -485.760           0.255  
G07  23389386.322      -31505.717       -1298.414           0.248  
> 2023 05 18 00 00 50.0688020  0  6                     
G02  24258386.685      127884.590        2905.019           0.239  
G03  22337783.990      -18149.111        -508.114           0.255  
G04  23588887.918      -71252.556       -2117.752           0.244  
G05  22528732.717       71532.947        2045.076           0.255  
G06  20628941.691      -12919.961        -485.739           0.255  
G07  23389419.290      -31635.498       -1297.693           0.248  
> 2023 05 18 00 00 50.1688020  0  6                     
G02  24258313.330      128175.196        2906.595           0.239  
G03  22337795.999      -18199.806        -508.668           0.255  
G04  23588940.937      -71464.215       -2062.649           0.244  
G05  22528680.627       71737.442        2044.672           0.255  
G06  20628954.929      -12968.618        -485.893           0.255  
G07  23389452.654      -31765.405       -1306.703           0.248  
> 2023 05 18 00 00 50.2688020  0  6                     
G02  24258239.803      128465.765        2905.614           0.239  
G03  22337809.885      -18250.516        -515.509           0.255  
G04  23588994.763      -71676.279       -2118.177           0.244  
G05  22528628.589       71941.944        2045.086           0.255  
G06  20628967.172      -13017.274        -486.246           0.255  
G07  23389485.651      -31895.081       -1297.572           0.248  
> 2023 05 18 00 00 50.3688020  0  6                     
G02  24258163.997      128756.376        2907.030           0.239  
G03  22337821.718      -18301.207        -507.116           0.255  
G04  23589050.534      -71888.572       -2124.594           0.244  
G05  22528576.644       72146.589        2070.881           0.255  
G06  20628979.975      -13065.932        -486.797           0.255  
G07  23389518.781      -32024.876       -1297.676           0.248  
> 2023 05 18 00 00 50.4688020  0  6                     
G02  24258091.332      129046.945        2903.703           0.239  
G03  22337834.176      -18351.882        -509.422           0.255  
G04  23589103.674      -72100.016       -2117.359           0.244  
G05  22528524.482       72350.937        2045.380           0.255  
G06  20628991.855      -13114.587        -486.671           0.255  
G07  23389551.828      -32154.676       -1297.507           0.248  
> 2023 05 18 00 00 50.5688020  0  6                     
G02  24258017.842      129337.535        2905.959           0.239  
G03  22337847.174      -18402.639        -507.014           0.255  
G04  23589157.399      -72312.022       -2160.447           0.244  
G05  22528472.305       72555.472        2051.871           0.255  
G06  20629004.331      -13163.251        -486.825           0.255  
G07  23389584.488      -32284.478       -1297.591           0.248  
> 2023 05 18 00 00 50.6688020  0  6                     
G02  24257942.323      129628.129        2905.721           0.239  
G03  22337859.397      -18453.502        -493.486           0.255  
G04  23589212.396      -72523.755       -2119.735           0.244  
G05  22528420.020       72759.925        2045.874           0.255  
G06  20629016.990      -13211.922        -486.868           0.255  
G07  23389617.768      -32414.120       -1278.436           0.248  
> 2023 05 18 00 00 50.7688020  0  6                     
G02  24257869.185      129918.719        2905.994           0.239  
G03  22337872.857      -18504.077        -505.791           0.255  
G04  23589265.930      -72735.621       -2118.635           0.244  
G05  22528367.938       72964.405        2044.507           0.255  
G06  20629029.339      -13260.596        -487.506           0.255  
G07  23389650.814      -32544.090       -1298.117           0.248  
> 2023 05 18 00 00 50.8688020  0  6                     
G02  24257795.716      130209.311        2905.275           0.239  
G03  22337885.160      -18554.812        -505.657           0.255  
G04  23589319.688      -72947.492       -2117.854           0.244  
G05  22528315.812       73168.894        2045.397           0.255  
G06  20629042.249      -13309.271        -486.926           0.255  
G07  23389684.012      -32673.900       -1298.231           0.248  
> 2023 05 18 00 00 50.9688020  0  6                     
G02  24257721.437      130499.903        2908.371           0.239  
G03  22337898.678      -18604.761        -456.527           0.255  
G04  23589373.614      -73159.902       -2187.967           0.244  
G05  22528263.825       73373.951        2171.001           0.255  
G06  20629054.505      -13357.956        -487.900           0.255  
G07  23389716.550      -32803.978       -1328.521           0.248  
> 2023 05 18 00 00 51.0688020  0  6                     
G02  24257647.671      130790.492        2905.588           0.239  
G03  22337911.633      -18656.291        -506.802           0.255  
G04  23589427.148      -73371.238       -2118.055           0.244  
G05  22528211.368       73577.860        2045.154           0.255  
G06  20629067.039      -13406.631        -487.072           0.255  
G07  23389750.305      -32933.537       -1298.673           0.248  
> 2023 05 18 00 00 51.1688020  0  6                     
G02  24257573.663      131081.077        2905.921           0.239  
G03  22337923.418      -18706.736        -552.305           0.255  
G04  23589481.046      -73583.100       -2118.476           0.244  
G05  22528159.537       73782.716        2100.957           0.255  
G06  20629080.209      -13455.314        -486.981           0.255  
G07  23389783.006      -33063.401       -1315.958           0.248  
> 2023 05 18 00 00 51.2688020  0  6                     
G02  24257497.969      131371.674        2906.843           0.239  
G03  22337937.505      -18757.787        -508.484           0.255  
G04  23589536.001      -73794.975       -2119.140           0.244  
G05  22528107.395       73986.817        2045.102           0.255  
G06  20629091.954      -13504.003        -486.658           0.255  
G07  23389816.383      -33193.174       -1298.613           0.248  
> 2023 05 18 00 00 51.3688020  0  6                     
G02  24257425.191      131662.242        2903.388           0.239  
G03  22337950.896      -18808.548        -507.843           0.255  
G04  23589589.198      -74006.842       -2116.998           0.244  
G05  22528055.383       74191.288        2044.309           0.255  
G06  20629104.037      -13552.688        -486.823           0.255  
G07  23389849.551      -33322.922       -1292.407           0.248  
> 2023 05 18 00 00 51.4688020  0  6                     
G02  24257350.455      131952.835        2906.817           0.239  
G03  22337963.921      -18859.308        -507.104           0.255  
G04  23589643.410      -74218.722       -2119.570           0.244  
G05  22528003.220       74395.765        2044.823           0.255  
G06  20629116.479      -13601.380        -487.177           0.255  
G07  23389882.473      -33452.826       -1298.039           0.248  
> 2023 05 18 00 00 51.5688020  0  6                     
G02  24257277.167      132243.439        2905.326           0.239  
G03  22337976.912      -18910.074        -507.929           0.255  
G04  23589697.732      -74430.613       -2119.246           0.244  
G05  22527950.759       74600.239        2044.702           0.255  
G06  20629128.448      -13650.078        -486.772           0.255  
G07  23389915.782      -33582.655       -1298.067           0.248  
> 2023 05 18 00 00 51.6688020  0  6                     
G02  24257202.377      132534.011        2903.803           0.239  
G03  22337989.662      -18960.841        -507.554           0.255  
G04  23589751.978      -74642.474       -2117.456           0.244  
G05  22527898.904       74804.709        2045.294           0.255  
G06  20629140.933      -13698.779        -486.935           0.255  
G07  23389949.313      -33712.490       -1298.363           0.248  
> 2023 05 18 00 00 51.7688020  0  6                     
G02  24257127.892      132824.609        2905.607           0.239  
G03  22338003.297      -19011.622        -507.634           0.255  
G04  23589806.029      -74854.366       -2119.759           0.244  
G05  22527846.718       75009.174        2044.419           0.255  
G06  20629153.252      -13747.484        -486.612           0.255  
G07  23389981.886      -33842.322       -1298.516           0.248  
> 2023 05 18 00 00 51.8688020  0  6                     
G02  24257054.105      133115.204        2905.400           0.239  
G03  22338016.094      -19062.406        -508.014           0.255  
G04  23589859.571      -75066.314       -2115.682           0.244  
G05  22527794.710       75213.639        2044.361           0.255  
G06  20629165.689      -13796.186        -486.764           0.255  
G07  23390014.876      -33972.161       -1298.353           0.248  
> 2023 05 18 00 00 51.9688020  0  6                     
G02  24256980.048      133405.784        2905.251           0.239  
G03  22338028.934      -19113.183        -507.316           0.255  
G04  23589913.820      -75278.129       -2118.890           0.244  
G05  22527742.467       75418.104        2044.937           0.255  
G06  20629178.041      -13844.899        -487.260           0.255  
G07  23390048.059      -34102.003       -1298.474           0.248  
> 2023 05 18 00 00 52.0688020  0  6                     
G02  24256906.454      133696.390        2907.454           0.239  
G03  22338041.578      -19163.966        -505.662           0.255  
G04  23589967.415      -75490.021       -2120.019           0.244  
G05  22527690.583       75622.564        2044.869           0.255  
G06  20629190.568      -13893.611        -487.871           0.255  
G07  23390081.106      -34231.866       -1317.491           0.248  
> 2023 05 18 00 00 52.1688020  0  6                     
G02  24256832.192      133986.965        2904.709           0.239  
G03  22338054.325      -19214.752        -505.675           0.255  
G04  23590021.342      -75701.894       -2117.725           0.244  
G05  22527638.390       75826.798        2023.271           0.255  
G06  20629203.113      -13942.334        -488.206           0.255  
G07  23390114.276      -34361.699       -1298.864           0.248  
> 2023 05 18 00 00 52.2688020  0  6                     
G02  24256758.280      134277.572        2907.483           0.239  
G03  22338067.134      -19265.542        -506.464           0.255  
G04  23590075.014      -75914.199       -2108.862           0.244  
G05  22527586.581       76031.472        2044.520           0.255  
G06  20629215.506      -13991.062        -487.965           0.255  
G07  23390147.744      -34491.552       -1298.647           0.248  
> 2023 05 18 00 00 52.3688020  0  6                     
G02  24256684.565      134568.139        2905.097           0.239  
G03  22338080.084      -19316.332        -506.437           0.255  
G04  23590128.823      -76125.657       -2117.478           0.244  
G05  22527534.336       76235.935        2045.264           0.255  
G06  20629228.015      -14039.789        -487.754           0.255  
G07  23390180.737      -34621.404       -1299.105           0.248  
> 2023 05 18 00 00 52.4688020  0  6                     
G02  24256610.463      134858.725        2906.207           0.239  
G03  22338093.675      -19367.139        -507.159           0.255  
G04  23590183.932      -76337.542       -2118.919           0.244  
G05  22527482.072       76440.373        2044.029           0.255  
G06  20629240.219      -14088.524        -488.133           0.255  
G07  23390212.942      -34751.263       -1298.793           0.248  
> 2023 05 18 00 00 52.5688020  0  6                     
G02  24256537.342      135149.335        2906.219           0.239  
G03  22338106.323      -19417.949        -507.914           0.255  
G04  23590237.735      -76549.446       -2118.737           0.244  
G05  22527430.141       76644.831        2045.208           0.255  
G06  20629252.467      -14137.249        -487.435           0.255  
G07  23390246.725      -34881.121       -1298.510           0.248  
> 2023 05 18 00 00 52.6688020  0  6                     
G02  24256463.787      135439.901        2904.310           0.239  
G03  22338119.296      -19468.764        -507.441           0.255  
G04  23590290.565      -76761.322       -2117.444           0.244  
G05  22527378.062       76849.278        2044.270           0.255  
G06  20629265.312      -14185.985        -487.708           0.255  
G07  23390279.539      -35010.986       -1298.995           0.248  
> 2023 05 18 00 00 52.7688020  0  6                     
G02  24256388.209      135730.206        2864.902           0.239  
G03  22338133.015      -19519.639        -517.455           0.255  
G04  23590344.859      -76973.214       -2118.094           0.244  
G05  22527325.881       77053.601        1998.144           0.255  
G06  20629277.304      -14234.719        -487.324           0.255  
G07  23390313.187      -35140.853       -1298.865           0.248  
> 2023 05 18 00 00 52.8688020  0  6                     
G02  24256315.373      136021.092        2906.103           0.239  
G03  22338145.499      -19570.413        -508.561           0.255  
G04  23590398.551      -77185.106       -2118.484           0.244  
G05  22527273.692       77258.277        2072.565           0.255  
G06  20629289.854      -14283.462        -487.850           0.255  
G07  23390345.814      -35270.722       -1298.900           0.248  
> 2023 05 18 00 00 52.9688020  0  6                     
G02  24256238.657      136311.687        2907.019           0.239  
G03  22338157.864      -19621.240        -508.838           0.255  
G04  23590453.337      -77396.909       -2147.282           0.244  
G05  22527221.313       77462.607        2044.568           0.255  
G06  20629302.361      -14332.201        -486.750           0.255  
G07  23390379.783      -35400.593       -1298.900           0.248  
> 2023 05 18 00 00 53.0688020  0  6                     
G02  24256166.771      136602.276        2906.858           0.239  
G03  22338171.118      -19672.074        -508.790           0.255  
G04  23590507.615      -77608.902       -2119.785           0.244  
G05  22527169.346       77666.997        2067.361           0.255  
G06  20629314.891      -14380.954        -487.202           0.255  
G07  23390411.953      -35530.472       -1299.196           0.248  
> 2023 05 18 00 00 53.1688020  0  6                     
G02  24256092.819      136892.857        2904.697           0.239  
G03  22338185.142      -19722.922        -508.544           0.255  
G04  23590561.149      -77820.789       -2118.264           0.244  
G05  22527117.807       77871.485        2044.523           0.255  
G06  20629326.570      -14429.700        -487.446           0.255  
G07  23390444.978      -35660.352       -1298.909           0.248  
> 2023 05 18 00 00 53.2688020  0  6                     
G02  24256017.707      137183.439        2906.380           0.239  
G03  22338197.273      -19773.759        -508.077           0.255  
G04  23590615.532      -78032.680       -2120.168           0.244  
G05  22527065.514       78075.918        2045.181           0.255  
G06  20629339.355      -14478.459        -487.940           0.255  
G07  23390478.180      -35790.233       -1298.776           0.248  
> 2023 05 18 00 00 53.3688020  0  6                     
G02  24255944.187      137473.862        2836.039           0.239  
G03  22338208.649      -19824.591        -507.445           0.255  
G04  23590669.604      -78244.592       -2119.052           0.244  
G05  22527012.808       78280.727        2117.783           0.255  
G06  20629352.332      -14527.224        -488.149           0.255  
G07  23390511.574      -35920.117       -1298.593           0.248  
> 2023 05 18 00 00 53.4688020  0  6                     
G02  24255869.903      137764.607        2903.878           0.239  
G03  22338220.992      -19875.758        -484.085           0.255  
G04  23590723.214      -78456.465       -2116.915           0.244  
G05  22526960.993       78484.776        2044.892           0.255  
G06  20629365.067      -14575.992        -488.425           0.255  
G07  23390544.603      -36050.004       -1298.699           0.248  
> 2023 05 18 00 00 53.5688020  0  6                     
G02  24255794.270      138055.230        2908.556           0.239  
G03  22338234.527      -19926.277        -506.348           0.255  
G04  23590777.074      -78668.386       -2120.704           0.244  
G05  22526909.518       78689.199        2044.139           0.255  
G06  20629377.773      -14624.763        -489.001           0.255  
G07  23390577.519      -36179.856       -1293.627           0.248  
> 2023 05 18 00 00 53.6688020  0  6                     
G02  24255721.940      138345.802        2905.908           0.239  
G03  22338248.247      -19977.119        -499.284           0.255  
G04  23590831.112      -78880.278       -2118.958           0.244  
G05  22526857.138       78893.628        2044.115           0.255  
G06  20629389.582      -14673.524        -488.013           0.255  
G07  23390610.856      -36309.790       -1299.066           0.248  
> 2023 05 18 00 00 53.7688020  0  6                     
G02  24255647.133      138636.391        2905.696           0.239  
G03  22338261.543      -20028.149        -517.262           0.255  
G04  23590885.952      -79092.177       -2118.701           0.244  
G05  22526805.015       79098.055        2044.407           0.255  
G06  20629402.179      -14722.293        -487.640           0.255  
G07  23390643.950      -36439.784       -1316.572           0.248  
> 2023 05 18 00 00 53.8688020  0  6                     
G02  24255573.153      138926.979        2906.915           0.239  
G03  22338274.415      -20078.883        -508.691           0.255  
G04  23590939.754      -79304.088       -2119.601           0.244  
G05  22526752.873       79302.471        2044.341           0.255  
G06  20629414.686      -14771.068        -487.752           0.255  
G07  23390676.748      -36569.587       -1299.119           0.248  
> 2023 05 18 00 00 53.9688020  0  6                     
G02  24255499.680      139217.542        2903.764           0.239  
G03  22338287.461      -20129.757        -509.805           0.255  
G04  23590993.653      -79515.974       -2117.406           0.244  
G05  22526700.512       79506.893        2044.542           0.255  
G06  20629426.746      -14819.850        -487.478           0.255  
G07  23390709.602      -36699.487       -1298.990           0.248  
> 2023 05 18 00 00 54.0688020  0  6                     
G02  24255425.515      139508.149        2906.863           0.239  
G03  22338301.667      -20180.634        -509.443           0.255  
G04  23591047.436      -79727.891       -2119.985           0.244  
G05  22526648.620       79711.311        2043.685           0.255  
G06  20629438.910      -14868.634        -487.525           0.255  
G07  23390742.709      -36829.387       -1298.860           0.248  
> 2023 05 18 00 00 54.1688020  0  6                     
G02  24255351.763      139798.738        2905.785           0.239  
G03  22338313.203      -20231.516        -509.410           0.255  
G04  23591101.710      -79939.601       -2101.260           0.244  
G05  22526596.353       79915.722        2044.123           0.255  
G06  20629451.565      -14917.421        -487.971           0.255  
G07  23390775.871      -36959.294       -1298.895           0.248  
> 2023 05 18 00 00 54.2688020  0  6                     
G02  24255278.117      140089.326        2906.530           0.239  
G03  22338328.508      -20282.401        -509.231           0.255  
G04  23591155.047      -80151.710       -2119.600           0.244  
G05  22526544.205       80120.138        2043.823           0.255  
G06  20629463.349      -14966.211        -488.111           0.255  
G07  23390809.443      -37089.202       -1298.704           0.248  
> 2023 05 18 00 00 54.3688020  0  6                     
G02  24255203.773      140379.896        2904.080           0.239  
G03  22338340.538      -20333.303        -507.938           0.255  
G04  23591209.212      -80363.316       -2132.695           0.244  
G05  22526492.329       80324.547        2043.995           0.255  
G06  20629476.135      -15014.995        -488.420           0.255  
G07  23390842.342      -37219.117       -1298.869           0.248  
> 2023 05 18 00 00 54.4688020  0  6                     
G02  24255128.600      140670.509        2907.085           0.239  
G03  22338352.366      -20384.658        -527.088           0.255  
G04  23591263.854      -80575.523       -2120.112           0.244  
G05  22526440.304       80528.959        2044.694           0.255  
G06  20629488.758      -15063.796        -488.763           0.255  
G07  23390875.547      -37349.029       -1299.203           0.248  
> 2023 05 18 00 00 54.5688020  0  6                     
G02  24255055.111      140961.085        2905.176           0.239  
G03  22338364.784      -20435.069        -506.879           0.255  
G04  23591317.452      -80787.421       -2118.610           0.244  
G05  22526388.260       80733.358        2043.136           0.255  
G06  20629501.330      -15112.602        -489.137           0.255  
G07  23390908.754      -37478.953       -1299.288           0.248  
> 2023 05 18 00 00 54.6688020  0  6                     
G02  24254981.974      141251.680        2905.898           0.239  
G03  22338377.066      -20485.977        -507.160           0.255  
G04  23591371.135      -80999.341       -2118.964           0.244  
G05  22526336.173       80937.759        2043.778           0.255  
G06  20629514.819      -15161.405        -488.360           0.255  
G07  23390941.572      -37608.868       -1298.672           0.248  
> 2023 05 18 00 00 54.7688020  0  6                     
G02  24254907.111      141542.272        2906.103           0.239  
G03  22338391.831      -20536.888        -508.793           0.255  
G04  23591425.233      -81211.254       -2118.925           0.244  
G05  22526283.513       81142.160        2043.336           0.255  
G06  20629526.068      -15210.214        -488.256           0.255  
G07  23390974.731      -37738.793       -1299.165           0.248  
> 2023 05 18 00 00 54.8688020  0  6                     
G02  24254833.049      141832.865        2906.531           0.239  
G03  22338404.469      -20587.797        -508.884           0.255  
G04  23591479.082      -81423.173       -2119.948           0.244  
G05  22526231.816       81346.563        2043.612           0.255  
G06  20629538.283      -15259.025        -487.807           0.255  
G07  23391008.032      -37868.723       -1299.431           0.248  
> 2023 05 18 00 00 54.9688020  0  6                     
G02  24254759.243      142122.980        2853.533           0.239  
G03  22338417.832      -20638.666        -491.379           0.255  
G04  23591533.614      -81634.600       -2059.459           0.244  
G05  22526179.803       81550.751        2016.159           0.255  
G06  20629551.152      -15307.840        -488.002           0.255  
G07  23391040.650      -37998.751       -1296.441           0.248  
> 2023 05 18 00 00 55.0688020  0  6                     
G02  24254684.760      142414.353        2922.199           0.239  
G03  22338430.571      -20689.764        -524.710           0.255  
G04  23591586.904      -81847.431       -2132.094           0.244  
G05  22526127.792       81755.709        2103.861           0.255  
G06  20629563.534      -15356.651        -488.113           0.255  
G07  23391073.747      -38128.588       -1299.534           0.248  
> 2023 05 18 00 00 55.1688020  0  6                     
G02  24254611.174      142704.729        2922.666           0.239  
G03  22338442.639      -20740.618        -520.644           0.255  
G04  23591641.375      -82058.821       -2092.658           0.244  
G05  22526075.523       81959.400        1975.806           0.255  
G06  20629576.270      -15405.475        -488.307           0.255  
G07  23391107.118      -38258.526       -1299.582           0.248  
> 2023 05 18 00 00 55.2688020  0  6                     
G02  24254536.839      142995.215        2905.407           0.239  
G03  22338456.764      -20791.501        -509.668           0.255  
G04  23591695.627      -82270.828       -2118.924           0.244  
G05  22526023.439       82164.128        2043.947           0.255  
G06  20629587.958      -15454.298        -488.203           0.255  
G07  23391139.538      -38388.466       -1301.367           0.248  
> 2023 05 18 00 00 55.3688020  0  6                     
G02  24254462.492      143285.808        2905.945           0.239  
G03  22338467.973      -20842.435        -508.864           0.255  
G04  23591749.173      -82482.695       -2111.516           0.244  
G05  22525971.298       82368.519        2043.720           0.255  
G06  20629601.033      -15503.125        -488.571           0.255  
G07  23391173.425      -38518.407       -1299.862           0.248  
> 2023 05 18 00 00 55.4688020  0  6                     
G02  24254387.695      143576.393        2906.488           0.239  
G03  22338480.128      -20893.373        -507.565           0.255  
G04  23591803.690      -82694.666       -2119.488           0.244  
G05  22525919.595       82572.909        2044.229           0.255  
G06  20629614.193      -15551.953        -489.154           0.255  
G07  23391207.039      -38648.349       -1299.693           0.248  
> 2023 05 18 00 00 55.5688020  0  6                     
G02  24254314.716      143866.989        2905.875           0.239  
G03  22338494.519      -20944.314        -507.431           0.255  
G04  23591857.180      -82906.588       -2118.457           0.244  
G05  22525867.290       82777.286        2043.333           0.255  
G06  20629626.100      -15600.800        -488.707           0.255  
G07  23391240.104      -38778.299       -1299.701           0.248  
> 2023 05 18 00 00 55.6688020  0  6                     
G02  24254240.544      144157.575        2906.200           0.239  
G03  22338507.562      -20995.259        -508.383           0.255  
G04  23591911.200      -83118.503       -2119.172           0.244  
G05  22525815.269       82981.672        2043.931           0.255  
G06  20629639.090      -15649.638        -489.089           0.255  
G07  23391273.052      -38908.248       -1299.584           0.248  
> 2023 05 18 00 00 55.7688020  0  6                     
G02  24254166.912      144448.370        2882.744           0.239  
G03  22338521.350      -21046.625        -605.522           0.255  
G04  23591963.636      -83330.645       -2101.202           0.244  
G05  22525763.107       83185.604        1968.662           0.255  
G06  20629651.507      -15698.475        -488.637           0.255  
G07  23391305.960      -39038.205       -1300.057           0.248  
> 2023 05 18 00 00 55.8688020  0  6                     
G02  24254092.571      144738.452        2869.988           0.239  
G03  22338534.637      -21097.175        -510.219           0.255  
G04  23592018.792      -83542.122       -2092.059           0.244  
G05  22525711.104       83390.428        2043.488           0.255  
G06  20629663.906      -15747.324        -487.932           0.255  
G07  23391339.712      -39168.160       -1299.683           0.248  
> 2023 05 18 00 00 55.9688020  0  6                     
G02  24254018.136      145029.607        2909.604           0.239  
G03  22338547.872      -21148.142        -510.849           0.255  
G04  23592073.320      -83754.544       -2134.069           0.244  
G05  22525659.086       83594.807        2044.445           0.255  
G06  20629675.593      -15796.165        -487.713           0.255  
G07  23391372.735      -39298.128       -1299.965           0.248  
> 2023 05 18 00 00 56.0688020  0  6                     
G02  24253944.447      145319.906        2905.278           0.239  
G03  22338560.779      -21199.106        -509.912           0.255  
G04  23592127.514      -83966.210       -2118.196           0.244  
G05  22525606.895       83799.182        2043.774           0.255  
G06  20629687.948      -15845.019        -488.402           0.255  
G07  23391405.292      -39428.074       -1304.635           0.248  
> 2023 05 18 00 00 56.1688020  0  6                     
G02  24253869.870      145610.492        2906.791           0.239  
G03  22338573.960      -21250.075        -509.512           0.255  
G04  23592181.628      -84178.139       -2119.613           0.244  
G05  22525554.848       84003.552        2043.414           0.255  
G06  20629700.246      -15893.871        -488.299           0.255  
G07  23391438.448      -39558.057       -1300.103           0.248  
> 2023 05 18 00 00 56.2688020  0  6                     
G02  24253796.056      145901.082        2905.902           0.239  
G03  22338586.151      -21301.057        -508.940           0.255  
G04  23592235.548      -84390.072       -2119.253           0.244  
G05  22525502.821       84207.927        2044.039           0.255  
G06  20629712.655      -15942.728        -488.657           0.255  
G07  23391471.141      -39688.026       -1300.249           0.248  
> 2023 05 18 00 00 56.3688020  0  6                     
G02  24253722.057      146191.658        2905.896           0.239  
G03  22338599.167      -21352.036        -508.895           0.255  
G04  23592289.657      -84601.999       -2119.038           0.244  
G05  22525450.719       84412.282        2042.996           0.255  
G06  20629725.419      -15991.590        -489.274           0.255  
G07  23391504.740      -39817.995       -1300.129           0.248  
> 2023 05 18 00 00 56.4688020  0  6                     
G02  24253648.399      146482.249        2906.488           0.239  
G03  22338611.115      -21403.013        -508.841           0.255  
G04  23592343.314      -84813.939       -2120.093           0.244  
G05  22525398.795       84616.653        2043.910           0.255  
G06  20629738.217      -16040.457        -489.134           0.255  
G07  23391537.828      -39947.974       -1300.333           0.248  
> 2023 05 18 00 00 56.5688020  0  6                     
G02  24253574.628      146772.819        2905.724           0.239  
G03  22338624.240      -21453.989        -509.142           0.255  
G04  23592397.229      -85026.015       -2173.618           0.244  
G05  22525346.461       84820.730        2004.223           0.255  
G06  20629750.821      -16089.339        -489.466           0.255  
G07  23391570.869      -40077.947       -1299.784           0.248  
> 2023 05 18 00 00 56.6688020  0  6                     
G02  24253499.773      147062.762        2801.940           0.239  
G03  22338637.545      -21504.986        -510.818           0.255  
G04  23592451.727      -85237.806       -2120.329           0.244  
G05  22525294.426       85025.369        2043.077           0.255  
G06  20629763.380      -16138.209        -488.653           0.255  
G07  23391603.890      -40207.929       -1300.154           0.248  
> 2023 05 18 00 00 56.7688020  0  6                     
G02  24253425.799      147353.979        2905.537           0.239  
G03  22338651.183      -21555.498        -532.961           0.255  
G04  23592505.809      -85450.528       -2191.229           0.244  
G05  22525242.340       85229.731        2044.055           0.255  
G06  20629775.587      -16187.076        -487.682           0.255  
G07  23391637.188      -40337.829       -1291.054           0.248  
> 2023 05 18 00 00 56.8688020  0  6                     
G02  24253352.619      147644.587        2906.863           0.239  
G03  22338665.068      -21607.017        -512.787           0.255  
G04  23592559.240      -85661.677       -2120.752           0.244  
G05  22525190.258       85434.090        2043.308           0.255  
G06  20629787.572      -16235.943        -486.969           0.255  
G07  23391669.918      -40467.895       -1299.695           0.248  
> 2023 05 18 00 00 56.9688020  0  6                     
G02  24253278.396      147935.142        2905.015           0.239  
G03  22338677.993      -21658.031        -511.817           0.255  
G04  23592613.298      -85873.594       -2118.819           0.244  
G05  22525138.153       85638.438        2043.020           0.255  
G06  20629799.797      -16284.825        -487.975           0.255  
G07  23391703.494      -40597.883       -1299.666           0.248  
> 2023 05 18 00 00 57.0688020  0  6                     
G02  24253203.576      148225.747        2906.430           0.239  
G03  22338690.652      -21709.029        -509.919           0.255  
G04  23592667.537      -86085.549       -2120.352           0.244  
G05  22525086.221       85842.793        2044.014           0.255  
G06  20629812.073      -16333.711        -488.643           0.255  
G07  23391736.459      -40727.874       -1299.593           0.248  
> 2023 05 18 00 00 57.1688020  0  6                     
G02  24253130.003      148516.314        2905.716           0.239  
G03  22338702.832      -21760.036        -509.439           0.255  
G04  23592721.030      -86297.469       -2118.842           0.244  
G05  22525034.165       86047.148        2043.661           0.255  
G06  20629824.954      -16382.608        -489.319           0.255  
G07  23391769.811      -40857.866       -1299.488           0.248  
> 2023 05 18 00 00 57.2688020  0  6                     
G02  24253055.766      148806.907        2905.839           0.239  
G03  22338715.401      -21811.051        -509.718           0.255  
G04  23592775.469      -86509.416       -2119.110           0.244  
G05  22524981.909       86251.490        2043.113           0.255  
G06  20629837.624      -16431.504        -489.173           0.255  
G07  23391802.787      -40987.867       -1299.666           0.248  
> 2023 05 18 00 00 57.3688020  0  6                     
G02  24252981.741      149097.663        2906.952           0.239  
G03  22338728.656      -21862.487        -603.307           0.255  
G04  23592829.406      -86721.349       -2119.242           0.244  
G05  22524929.842       86455.837        2043.801           0.255  
G06  20629850.403      -16480.400        -488.939           0.255  
G07  23391836.174      -41117.866       -1299.766           0.248  
> 2023 05 18 00 00 57.4688020  0  6                     
G02  24252907.751      149388.066        2904.594           0.239  
G03  22338741.753      -21912.784        -492.123           0.255  
G04  23592883.543      -86933.296       -2118.376           0.244  
G05  22524877.940       86660.183        2043.471           0.255  
G06  20629862.753      -16529.307        -488.927           0.255  
G07  23391869.191      -41247.856       -1295.519           0.248  
> 2023 05 18 00 00 57.5688020  0  6                     
G02  24252833.366      149678.656        2906.353           0.239  
G03  22338755.821      -21964.145        -511.213           0.255  
G04  23592937.754      -87145.243       -2119.802           0.244  
G05  22524825.865       86864.521        2043.062           0.255  
G06  20629874.748      -16578.203        -488.670           0.255  
G07  23391902.027      -41377.879       -1300.078           0.248  
> 2023 05 18 00 00 57.6688020  0  6                     
G02  24252759.833      149969.232        2905.369           0.239  
G03  22338769.171      -22015.512        -599.460           0.255  
G04  23592991.770      -87357.183       -2118.868           0.244  
G05  22524773.741       87068.453        1968.841           0.255  
G06  20629886.994      -16627.103        -488.126           0.255  
G07  23391935.383      -41507.891       -1300.205           0.248  
> 2023 05 18 00 00 57.7688020  0  6                     
G02  24252685.222      150259.813        2904.553           0.239  
G03  22338781.853      -22066.252        -511.369           0.255  
G04  23593045.851      -87568.720       -2107.741           0.244  
G05  22524721.555       87273.188        2043.566           0.255  
G06  20629899.320      -16676.004        -488.372           0.255  
G07  23391968.588      -41637.901       -1300.482           0.248  
> 2023 05 18 00 00 57.8688020  0  6                     
G02  24252610.427      150550.412        2907.746           0.239  
G03  22338793.919      -22117.286        -509.329           0.255  
G04  23593100.431      -87781.080       -2120.881           0.244  
G05  22524669.607       87477.519        2042.982           0.255  
G06  20629912.047      -16724.921        -489.226           0.255  
G07  23392001.662      -41767.915       -1300.137           0.248  
> 2023 05 18 00 00 57.9688020  0  6                     
G02  24252538.239      150840.992        2905.729           0.239  
G03  22338806.248      -22168.315        -507.278           0.255  
G04  23593153.241      -87993.025       -2119.363           0.244  
G05  22524617.503       87681.856        2043.710           0.255  
G06  20629924.905      -16773.850        -491.015           0.255  
G07  23392034.723      -41897.935       -1300.250           0.248  
> 2023 05 18 00 00 58.0688020  0  6                     
G02  24252463.652      151131.559        2905.536           0.239  
G03  22338819.070      -22219.362        -508.035           0.255  
G04  23593207.136      -88204.966       -2118.895           0.244  
G05  22524565.406       87886.181        2043.250           0.255  
G06  20629937.576      -16822.774        -490.613           0.255  
G07  23392067.745      -42027.959       -1300.174           0.248  
> 2023 05 18 00 00 58.1688020  0  6                     
G02  24252389.119      151422.148        2905.991           0.239  
G03  22338832.601      -22270.432        -510.049           0.255  
G04  23593261.784      -88416.928       -2119.801           0.244  
G05  22524513.378       88090.506        2042.875           0.255  
G06  20629950.237      -16871.700        -489.669           0.255  
G07  23392100.777      -42157.983       -1300.372           0.248  
> 2023 05 18 00 00 58.2688020  0  6                     
G02  24252315.010      151712.721        2906.354           0.239  
G03  22338846.665      -22321.512        -511.492           0.255  
G04  23593315.955      -88628.871       -2119.879           0.244  
G05  22524461.341       88294.501        1969.181           0.255  
G06  20629962.205      -16920.620        -489.183           0.255  
G07  23392134.049      -42288.012       -1300.379           0.248  
> 2023 05 18 00 00 58.3688020  0  6                     
G02  24252241.213      152003.310        2906.340           0.239  
G03  22338859.948      -22372.587        -511.609           0.255  
G04  23593369.789      -88840.826       -2119.906           0.244  
G05  22524409.308       88499.156        2043.172           0.255  
G06  20629974.524      -16969.547        -488.495           0.255  
G07  23392167.183      -42418.042       -1300.097           0.248  
> 2023 05 18 00 00 58.4688020  0  6                     
G02  24252167.348      152293.875        2904.615           0.239  
G03  22338872.545      -22423.661        -511.106           0.255  
G04  23593423.401      -89052.761       -2118.426           0.244  
G05  22524357.341       88703.479        2042.928           0.255  
G06  20629986.992      -17018.480        -489.131           0.255  
G07  23392200.486      -42548.076       -1300.336           0.248  
> 2023 05 18 00 00 58.5688020  0  6                     
G02  24252092.873      152584.474        2905.758           0.239  
G03  22338885.182      -22474.740        -510.194           0.255  
G04  23593477.890      -89264.538       -2096.790           0.244  
G05  22524305.235       88907.803        2043.933           0.255  
G06  20629999.532      -17067.417        -489.512           0.255  
G07  23392233.399      -42678.113       -1300.492           0.248  
> 2023 05 18 00 00 58.6688020  0  6                     
G02  24252019.290      152875.063        2907.069           0.239  
G03  22338898.272      -22525.813        -509.171           0.255  
G04  23593531.627      -89476.690       -2120.333           0.244  
G05  22524252.948       89112.116        2043.204           0.255  
G06  20630011.936      -17116.358        -490.072           0.255  
G07  23392266.918      -42808.153       -1300.333           0.248  
> 2023 05 18 00 00 58.7688020  0  6                     
G02  24251944.907      153165.623        2903.846           0.239  
G03  22338910.313      -22576.893        -509.584           0.255  
G04  23593585.681      -89688.631       -2117.869           0.244  
G05  22524200.910       89316.429        2042.632           0.255  
G06  20630024.713      -17165.308        -490.321           0.255  
G07  23392299.671      -42938.198       -1300.565           0.248  
> 2023 05 18 00 00 58.8688020  0  6                     
G02  24251871.165      153456.236        2907.118           0.239  
G03  22338923.553      -22627.979        -510.689           0.255  
G04  23593639.354      -89900.612       -2120.987           0.244  
G05  22524148.914       89520.746        2043.228           0.255  
G06  20630037.493      -17214.257        -489.766           0.255  
G07  23392332.898      -43068.243       -1300.620           0.248  
> 2023 05 18 00 00 58.9688020  0  6                     
G02  24251797.636      153746.793        2904.408           0.239  
G03  22338937.240      -22679.093        -512.685           0.255  
G04  23593693.205      -90112.549       -2118.465           0.244  
G05  22524096.951       89725.060        2043.208           0.255  
G06  20630049.635      -17263.201        -488.661           0.255  
G07  23392366.111      -43198.290       -1300.705           0.248  
> 2023 05 18 00 00 59.0688020  0  6                     
G02  24251722.914      154037.391        2906.859           0.239  
G03  22338950.834      -22730.215        -514.113           0.255  
G04  23593747.717      -90324.517       -2120.286           0.244  
G05  22524044.856       89929.361        2042.594           0.255  
G06  20630061.776      -17312.145        -487.656           0.255  
G07  23392399.140      -43328.344       -1300.725           0.248  
> 2023 05 18 00 00 59.1688020  0  6                     
G02  24251648.951      154327.964        2906.102           0.239  
G03  22338963.699      -22781.326        -512.914           0.255  
G04  23593801.463      -90536.471       -2119.503           0.244  
G05  22523992.712       90133.669        2043.629           0.255  
G06  20630073.920      -17361.096        -488.379           0.255  
G07  23392432.271      -43458.346       -1297.074           0.248  
> 2023 05 18 00 00 59.2688020  0  6                     
G02  24251574.997      154618.546        2905.968           0.239  
G03  22338976.347      -22832.424        -510.427           0.255  
G04  23593855.362      -90748.434       -2119.857           0.244  
G05  22523940.612       90337.975        2043.422           0.255  
G06  20630086.433      -17410.065        -489.651           0.255  
G07  23392465.467      -43588.456       -1300.560           0.248  
> 2023 05 18 00 00 59.3688020  0  6                     
G02  24251501.020      154909.127        2905.180           0.239  
G03  22338988.824      -22883.529        -509.975           0.255  
G04  23593909.831      -90960.393       -2119.460           0.244  
G05  22523888.634       90542.274        2042.534           0.255  
G06  20630099.404      -17459.036        -490.407           0.255  
G07  23392498.609      -43718.515       -1300.385           0.248  
> 2023 05 18 00 00 59.4688020  0  6                     
G02  24251426.202      155199.722        2906.049           0.239  
G03  22339001.320      -22934.636        -510.111           0.255  
G04  23593963.850      -91172.370       -2120.281           0.244  
G05  22523836.636       90746.573        2042.935           0.255  
G06  20630112.409      -17508.010        -490.293           0.255  
G07  23392531.641      -43848.604       -1295.457           0.248  
> 2023 05 18 00 00 59.5688020  0  6                     
G02  24251352.429      155490.300        2906.623           0.239  
G03  22339015.214      -22985.763        -511.473           0.255  
G04  23594017.826      -91384.320       -2120.119           0.244  
G05  22523784.591       90950.869        2043.208           0.255  
G06  20630124.552      -17556.979        -489.766           0.255  
G07  23392564.742      -43978.643       -1300.561           0.248  
> 2023 05 18 00 00 59.6688020  0  6                     
G02  24251279.147      155780.879        2903.534           0.239  
G03  22339028.800      -23036.899        -511.738           0.255  
G04  23594071.834      -91596.287       -2117.996           0.244  
G05  22523732.361       91155.166        2043.032           0.255  
G06  20630136.868      -17605.949        -489.438           0.255  
G07  23392598.090      -44108.706       -1300.500           0.248  
> 2023 05 18 00 00 59.7688020  0  6                     
G02  24251204.278      156071.448        2869.333           0.239  
G03  22339042.362      -23088.636        -538.754           0.255  
G04  23594126.156      -91808.260       -2120.083           0.244  
G05  22523680.222       91359.454        2042.492           0.255  
G06  20630148.836      -17654.923        -488.833           0.255  
G07  23392631.221      -44238.658       -1271.744           0.248  
> 2023 05 18 00 00 59.8688020  0  6                     
G02  24251130.756      156362.051        2905.465           0.239  
G03  22339054.856      -23139.181        -511.583           0.255  
G04  23594179.584      -92020.227       -2119.361           0.244  
G05  22523628.274       91563.747        2043.216           0.255  
G06  20630161.493      -17703.905        -489.558           0.255  
G07  23392664.450      -44368.856       -1300.815           0.248  
> 2023 05 18 00 00 59.9688020  0  6                     
G02  24251056.993      156652.631        2904.969           0.239  
G03  22339066.440      -23190.312        -509.506           0.255  
G04  23594233.536      -92232.176       -2098.977           0.244  
G05  22523576.417       91768.041        2043.110           0.255  
G06  20630174.081      -17752.896        -490.627           0.255  
G07  23392697.444      -44498.879       -1279.556           0.248  
> 2023 05 18 00 01 00.0688020  0  6                     
G02  24250981.814      156943.208        2905.180           0.239  
G03  22339078.400      -23241.295        -443.385           0.255  
G04  23594288.369      -92444.162       -2118.926           0.244  
G05  22523524.369       91972.751        2134.719           0.255  
G06  20630188.152      -17801.885        -490.068           0.255  
G07  23392730.666      -44629.015       -1301.144           0.248  
> 2023 05 18 00 01 00.1688020  0  6                     
G02  24250908.397      157233.799        2905.805           0.239  
G03  22339093.711      -23292.608        -511.356           0.255  
G04  23594342.190      -92656.142       -2120.251           0.244  
G05  22523472.323       92176.602        2042.830           0.255  
G06  20630199.276      -17850.884        -489.789           0.255  
G07  23392763.919      -44759.096       -1301.359           0.248  
> 2023 05 18 00 01 00.2688020  0  6                     
G02  24250834.748      157524.375        2905.155           0.239  
G03  22339108.180      -23343.760        -513.001           0.255  
G04  23594396.029      -92868.102       -2119.078           0.244  
G05  22523420.002       92380.888        2043.479           0.255  
G06  20630211.063      -17899.878        -489.408           0.255  
G07  23392796.908      -44889.180       -1301.209           0.248  
> 2023 05 18 00 01 00.3688020  0  6                     
G02  24250760.283      157814.983        2907.809           0.239  
G03  22339121.422      -23394.942        -513.905           0.255  
G04  23594450.065      -93080.102       -2121.557           0.244  
G05  22523367.933       92585.161        2042.742           0.255  
G06  20630223.558      -17948.863        -488.515           0.255  
G07  23392830.281      -45019.268       -1301.020           0.248  
> 2023 05 18 00 01 00.4688020  0  6                     
G02  24250686.210      158105.539        2905.074           0.239  
G03  22339133.734      -23446.111        -512.684           0.255  
G04  23594503.987      -93292.055       -2119.153           0.244  
G05  22523316.003       92789.440        2042.522           0.255  
G06  20630236.161      -17997.860        -489.249           0.255  
G07  23392863.124      -45149.359       -1300.726           0.248  
> 2023 05 18 00 01 00.5688020  0  6                     
G02  24250612.700      158396.129        2906.150           0.239  
G03  22339145.155      -23497.268        -510.965           0.255  
G04  23594557.905      -93504.030       -2119.808           0.244  
G05  22523263.884       92993.713        2043.288           0.255  
G06  20630249.103      -18046.872        -490.337           0.255  
G07  23392896.082      -45279.456       -1301.042           0.248  
> 2023 05 18 00 01 00.6688020  0  6                     
G02  24250538.184      158686.719        2905.989           0.239  
G03  22339158.311      -23548.437        -510.508           0.255  
G04  23594611.534      -93715.961       -2147.301           0.244  
G05  22523211.770       93197.659        1987.599           0.255  
G06  20630262.084      -18095.885        -490.354           0.255  
G07  23392929.926      -45409.549       -1300.499           0.248  
> 2023 05 18 00 01 00.7688020  0  6                     
G02  24250463.551      158977.271        2905.421           0.239  
G03  22339171.751      -23599.469        -493.642           0.255  
G04  23594665.706      -93927.987       -2119.842           0.244  
G05  22523160.019       93402.255        2042.199           0.255  
G06  20630273.965      -18144.901        -490.313           0.255  
G07  23392962.863      -45539.605       -1292.236           0.248  
> 2023 05 18 00 01 00.8688020  0  6                     
G02  24250390.100      159267.862        2905.696           0.239  
G03  22339185.097      -23650.580        -487.939           0.255  
G04  23594719.403      -94139.971       -2119.578           0.244  
G05  22523108.222       93606.525        2042.247           0.255  
G06  20630286.130      -18193.918        -489.992           0.255  
G07  23392996.269      -45669.760       -1301.191           0.248  
> 2023 05 18 00 01 00.9688020  0  6                     
G02  24250316.013      159558.452        2905.995           0.239  
G03  22339198.811      -23701.998        -513.465           0.255  
G04  23594773.579      -94351.957       -2120.966           0.244  
G05  22523055.876       93810.712        2005.901           0.255  
G06  20630299.047      -18242.927        -489.352           0.255  
G07  23393029.006      -45799.804       -1287.005           0.248  
> 2023 05 18 00 01 01.0688020  0  6                     
G02  24250241.999      159849.030        2905.724           0.239  
G03  22339212.032      -23753.189        -512.087           0.255  
G04  23594827.609      -94563.886       -2150.194           0.244  
G05  22523003.879       94015.065        2043.490           0.255  
G06  20630310.953      -18291.951        -490.413           0.255  
G07  23393062.215      -45929.973       -1301.026           0.248  
> 2023 05 18 00 01 01.1688020  0  6                     
G02  24250168.173      160139.622        2907.095           0.239  
G03  22339224.189      -23804.376        -510.468           0.255  
G04  23594881.818      -94775.918       -2120.470           0.244  
G05  22522951.746       94219.310        2041.653           0.255  
G06  20630323.442      -18340.978        -491.173           0.255  
G07  23393095.492      -46060.092       -1301.273           0.248  
> 2023 05 18 00 01 01.2688020  0  6                     
G02  24250093.920      160430.190        2905.050           0.239  
G03  22339235.829      -23855.572        -511.170           0.255  
G04  23594935.861      -94987.890       -2119.145           0.244  
G05  22522899.804       94423.579        2043.015           0.255  
G06  20630336.755      -18390.018        -491.651           0.255  
G07  23393128.613      -46190.204       -1300.938           0.248  
> 2023 05 18 00 01 01.3688020  0  6                     
G02  24250020.483      160720.778        2906.716           0.239  
G03  22339249.907      -23906.756        -511.528           0.255  
G04  23594990.133      -95199.884       -2120.448           0.244  
G05  22522847.753       94627.842        2043.311           0.255  
G06  20630349.252      -18439.056        -491.047           0.255  
G07  23393161.680      -46320.327       -1301.176           0.248  
> 2023 05 18 00 01 01.4688020  0  6                     
G02  24249945.470      161011.358        2905.704           0.239  
G03  22339262.711      -23957.594        -490.066           0.255  
G04  23595044.158      -95411.791       -2101.463           0.244  
G05  22522795.474       94832.097        2043.055           0.255  
G06  20630361.896      -18488.078        -490.022           0.255  
G07  23393194.896      -46450.446       -1301.085           0.248  
> 2023 05 18 00 01 01.5688020  0  6                     
G02  24249871.656      161302.313        2949.262           0.239  
G03  22339276.586      -24009.207        -513.615           0.255  
G04  23595098.545      -95623.851       -2119.487           0.244  
G05  22522743.191       95036.342        2041.481           0.255  
G06  20630373.985      -18537.119        -489.713           0.255  
G07  23393227.418      -46580.519       -1288.710           0.248  
> 2023 05 18 00 01 01.6688020  0  6                     
G02  24249797.999      161592.525        2905.476           0.239  
G03  22339289.345      -24060.434        -512.546           0.255  
G04  23595152.455      -95835.845       -2119.696           0.244  
G05  22522691.358       95240.606        2042.648           0.255  
G06  20630386.337      -18586.155        -490.348           0.255  
G07  23393260.762      -46710.701       -1301.324           0.248  
> 2023 05 18 00 01 01.7688020  0  6                     
G02  24249723.888      161883.102        2906.125           0.239  
G03  22339302.935      -24111.642        -510.966           0.255  
G04  23595206.055      -96047.833       -2120.429           0.244  
G05  22522639.173       95444.850        2042.470           0.255  
G06  20630398.640      -18635.206        -490.707           0.255  
G07  23393294.295      -46840.732       -1302.606           0.248  
> 2023 05 18 00 01 01.8688020  0  6                     
G02  24249649.621      162173.672        2905.940           0.239  
G03  22339314.862      -24162.864        -511.466           0.255  
G04  23595259.728      -96259.814       -2118.933           0.244  
G05  22522587.391       95648.874        2019.410           0.255  
G06  20630411.967      -18684.260        -491.453           0.255  
G07  23393327.830      -46970.970       -1301.834           0.248  
> 2023 05 18 00 01 01.9688020  0  6                     
G02  24249575.027      162464.254        2905.831           0.239  
G03  22339328.466      -24214.097        -512.043           0.255  
G04  23595314.294      -96471.814       -2119.954           0.244  
G05  22522535.438       95853.337        2041.610           0.255  
G06  20630424.409      -18733.316        -490.222           0.255  
G07  23393360.942      -47101.107       -1301.253           0.248  
> 2023 05 18 00 01 02.0688020  0  6                     
G02  24249501.774      162754.824        2904.798           0.239  
G03  22339342.526      -24265.349        -513.635           0.255  
G04  23595367.945      -96683.802       -2119.543           0.244  
G05  22522483.289       96057.584        2042.832           0.255  
G06  20630436.386      -18782.366        -490.300           0.255  
G07  23393393.932      -47231.246       -1301.582           0.248  
> 2023 05 18 00 01 02.1688020  0  6                     
G02  24249427.167      163045.830        2963.981           0.239  
G03  22339355.310      -24316.607        -514.300           0.255  
G04  23595422.283      -96895.983       -2166.596           0.244  
G05  22522431.132       96261.826        2043.069           0.255  
G06  20630448.547      -18831.412        -489.047           0.255  
G07  23393426.894      -47361.378       -1298.515           0.248  
> 2023 05 18 00 01 02.2688020  0  6                     
G02  24249353.561      163335.989        2905.974           0.239  
G03  22339367.528      -24367.841        -511.659           0.255  
G04  23595475.933      -97107.361       -2089.387           0.244  
G05  22522379.105       96466.676        2144.660           0.255  
G06  20630461.479      -18880.485        -490.889           0.255  
G07  23393460.189      -47491.505       -1300.826           0.248  
> 2023 05 18 00 01 02.3688020  0  6                     
G02  24249279.801      163626.895        2882.907           0.239  
G03  22339381.058      -24419.074        -510.645           0.255  
G04  23595529.937      -97319.800       -2121.474           0.244  
G05  22522326.773       96670.291        2041.498           0.255  
G06  20630473.290      -18929.560        -491.547           0.255  
G07  23393493.657      -47621.673       -1301.280           0.248  
> 2023 05 18 00 01 02.4688020  0  6                     
G02  24249205.434      163917.127        2905.702           0.239  
G03  22339394.808      -24470.331        -512.450           0.255  
G04  23595585.099      -97531.791       -2119.792           0.244  
G05  22522274.544       96874.522        2042.510           0.255  
G06  20630486.409      -18978.635        -490.503           0.255  
G07  23393526.359      -47751.827       -1300.919           0.248  
> 2023 05 18 00 01 02.5688020  0  6                     
G02  24249131.451      164207.698        2906.701           0.239  
G03  22339408.014      -24521.593        -514.053           0.255  
G04  23595638.498      -97743.787       -2120.119           0.244  
G05  22522222.897       97078.676        2015.269           0.255  
G06  20630498.960      -19027.707        -489.541           0.255  
G07  23393559.264      -47882.009       -1302.897           0.248  
> 2023 05 18 00 01 02.6688020  0  6                     
G02  24249057.790      164498.271        2905.698           0.239  
G03  22339420.929      -24572.875        -515.333           0.255  
G04  23595692.066      -97955.749       -2112.408           0.244  
G05  22522170.926       97282.523        1974.272           0.255  
G06  20630511.316      -19076.775        -489.269           0.255  
G07  23393592.809      -48012.148       -1294.045           0.248  
> 2023 05 18 00 01 02.7688020  0  6                     
G02  24248983.331      164788.850        2905.214           0.239  
G03  22339433.408      -24624.144        -513.375           0.255  
G04  23595746.177      -98167.782       -2119.097           0.244  
G05  22522118.911       97487.211        2042.149           0.255  
G06  20630523.672      -19125.852        -490.157           0.255  
G07  23393625.841      -48142.295       -1301.490           0.248  
> 2023 05 18 00 01 02.8688020  0  6                     
G02  24248909.127      165079.433        2905.975           0.239  
G03  22339444.996      -24675.407        -511.486           0.255  
G04  23595800.178      -98379.791       -2119.894           0.244  
G05  22522066.758       97691.433        2041.766           0.255  
G06  20630536.780      -19174.945        -491.532           0.255  
G07  23393659.286      -48272.459       -1301.625           0.248  
> 2023 05 18 00 01 02.9688020  0  6                     
G02  24248835.317      165370.000        2905.162           0.239  
G03  22339459.254      -24726.664        -511.028           0.255  
G04  23595854.641      -98591.787       -2119.336           0.244  
G05  22522014.858       97895.661        2042.446           0.255  
G06  20630549.056      -19224.038        -491.845           0.255  
G07  23393692.231      -48402.621       -1301.689           0.248  
> 2023 05 18 00 01 03.0688020  0  6                     
G02  24248761.002      165660.584        2905.753           0.239  
G03  22339471.694      -24777.952        -513.126           0.255  
G04  23595908.242      -98803.797       -2119.763           0.244  
G05  22521962.919       98099.581        1979.847           0.255  
G06  20630562.058      -19273.124        -490.587           0.255  
G07  23393725.508      -48532.776       -1289.838           0.248  
> 2023 05 18 00 01 03.1688020  0  6                     
G02  24248687.374      165951.102        2910.822           0.239  
G03  22339485.510      -24829.255        -513.429           0.255  
G04  23595961.941      -99015.799       -2120.101           0.244  
G05  22521910.750       98304.100        2042.352           0.255  
G06  20630574.120      -19322.216        -490.410           0.255  
G07  23393758.528      -48662.962       -1301.687           0.248  
> 2023 05 18 00 01 03.2688020  0  6                     
G02  24248613.515      166241.736        2905.746           0.239  
G03  22339498.671      -24880.557        -513.349           0.255  
G04  23596016.259      -99227.810       -2120.544           0.244  
G05  22521858.627       98508.313        2041.076           0.255  
G06  20630586.182      -19371.305        -490.435           0.255  
G07  23393791.868      -48793.138       -1302.070           0.248  
> 2023 05 18 00 01 03.3688020  0  6                     
G02  24248539.108      166532.306        2904.862           0.239  
G03  22339510.854      -24931.838        -510.774           0.255  
G04  23596070.504      -99439.646       -2122.335           0.244  
G05  22521806.480       98712.532        2041.852           0.255  
G06  20630599.283      -19420.413        -491.872           0.255  
G07  23393824.960      -48923.313       -1302.056           0.248  
> 2023 05 18 00 01 03.4688020  0  6                     
G02  24248464.867      166822.893        2906.485           0.239  
G03  22339523.328      -24983.124        -511.249           0.255  
G04  23596124.537      -99651.818       -2121.152           0.244  
G05  22521754.671       98916.740        2042.423           0.255  
G06  20630612.318      -19469.526        -492.059           0.255  
G07  23393857.825      -49053.495       -1301.954           0.248  
> 2023 05 18 00 01 03.5688020  0  6                     
G02  24248389.839      167113.461        2904.770           0.239  
G03  22339537.565      -25034.431        -513.566           0.255  
G04  23596179.063      -99863.816       -2119.211           0.244  
G05  22521702.544       99120.957        2042.044           0.255  
G06  20630624.560      -19518.639        -491.197           0.255  
G07  23393891.532      -49183.678       -1301.665           0.248  
> 2023 05 18 00 01 03.6688020  0  6                     
G02  24248316.724      167404.043        2905.627           0.239  
G03  22339549.967      -25085.746        -514.905           0.255  
G04  23596232.488     -100075.832       -2119.516           0.244  
G05  22521650.395       99325.157        2042.134           0.255  
G06  20630637.874      -19567.743        -490.668           0.255  
G07  23393924.388      -49313.864       -1301.458           0.248  
> 2023 05 18 00 01 03.7688020  0  6                     
G02  24248243.962      167694.623        2893.893           0.239  
G03  22339563.308      -25137.729        -593.082           0.255  
G04  23596286.316     -100287.851       -2120.040           0.244  
G05  22521598.416       99529.749        2119.682           0.255  
G06  20630649.599      -19616.842        -490.033           0.255  
G07  23393957.888      -49444.044       -1316.114           0.248  
> 2023 05 18 00 01 03.8688020  0  6                     
G02  24248168.207      167985.194        2905.023           0.239  
G03  22339575.859      -25188.387        -512.058           0.255  
G04  23596341.263     -100499.854       -2119.637           0.244  
G05  22521546.376       99733.575        2042.267           0.255  
G06  20630662.120      -19665.964        -491.553           0.255  
G07  23393991.304      -49574.289       -1294.750           0.248  
> 2023 05 18 00 01 03.9688020  0  6                     
G02  24248094.578      168275.520        2821.301           0.239  
G03  22339589.066      -25239.692        -511.563           0.255  
G04  23596394.770     -100711.871       -2120.118           0.244  
G05  22521494.479       99937.776        2016.484           0.255  
G06  20630674.895      -19715.097        -492.271           0.255  
G07  23394024.438      -49704.443       -1301.855           0.248  
> 2023 05 18 00 01 04.0688020  0  6                     
G02  24248019.746      168566.338        2904.093           0.239  
G03  22339600.222      -25291.015        -513.235           0.255  
G04  23596449.656     -100923.874       -2118.731           0.244  
G05  22521442.181      100141.968        2041.786           0.255  
G06  20630687.880      -19764.226        -491.396           0.255  
G07  23394057.705      -49834.643       -1302.079           0.248  
> 2023 05 18 00 01 04.1688020  0  6                     
G02  24247946.355      168856.925        2904.483           0.239  
G03  22339614.021      -25342.365        -513.976           0.255  
G04  23596502.589     -101135.900       -2119.618           0.244  
G05  22521390.077      100346.140        2043.367           0.255  
G06  20630700.179      -19813.344        -490.974           0.255  
G07  23394091.021      -49964.841       -1301.539           0.248  
> 2023 05 18 00 01 04.2688020  0  6                     
G02  24247873.002      169147.504        2905.116           0.239  
G03  22339626.589      -25393.695        -513.934           0.255  
G04  23596556.032     -101347.981       -2131.330           0.244  
G05  22521338.203      100550.359        2041.251           0.255  
G06  20630713.619      -19862.483        -491.519           0.255  
G07  23394123.899      -50095.043       -1301.388           0.248  
> 2023 05 18 00 01 04.3688020  0  6                     
G02  24247797.651      169438.091        2906.181           0.239  
G03  22339641.914      -25445.044        -514.047           0.255  
G04  23596611.449     -101559.945       -2120.906           0.244  
G05  22521286.124      100754.555        2041.841           0.255  
G06  20630724.783      -19911.611        -491.067           0.255  
G07  23394155.727      -50225.255       -1302.099           0.248  
> 2023 05 18 00 01 04.4688020  0  6                     
G02  24247724.261      169728.661        2905.650           0.239  
G03  22339658.760      -25496.382        -513.322           0.255  
G04  23596665.000     -101771.956       -2120.900           0.243  
G05  22521234.111      100958.747        2042.357           0.255  
G06  20630735.166      -19960.755        -491.298           0.255  
G07  23394189.208      -50355.466       -1301.704           0.248  
> 2023 05 18 00 01 04.5688020  0  6                     
G02  24247649.553      170019.234        2905.763           0.239  
G03  22339669.150      -25547.730        -512.706           0.255  
G04  23596719.518     -101983.972       -2120.342           0.244  
G05  22521182.377      101162.938        2042.227           0.255  
G06  20630748.552      -20009.892        -492.178           0.255  
G07  23394223.215      -50485.681       -1301.636           0.248  
> 2023 05 18 00 01 04.6688020  0  6                     
G02  24247576.042      170309.816        2905.562           0.239  
G03  22339683.385      -25599.077        -511.787           0.255  
G04  23596773.092     -102195.991       -2120.376           0.244  
G05  22521130.406      101367.124        2042.286           0.255  
G06  20630760.718      -20059.045        -492.453           0.255  
G07  23394256.310      -50616.036       -1312.565           0.248  
> 2023 05 18 00 01 04.7688020  0  6                     
G02  24247502.642      170600.395        2906.510           0.239  
G03  22339694.655      -25650.431        -512.885           0.255  
G04  23596826.773     -102408.014       -2121.016           0.244  
G05  22521078.068      101571.298        2041.311           0.255  
G06  20630774.239      -20108.197        -492.041           0.255  
G07  23394289.091      -50746.126       -1302.574           0.248  
> 2023 05 18 00 01 04.8688020  0  6                     
G02  24247428.927      170890.972        2905.202           0.239  
G03  22339710.969      -25701.815        -513.985           0.255  
G04  23596880.469     -102619.945       -2130.552           0.244  
G05  22521025.895      101775.489        2041.779           0.255  
G06  20630785.408      -20157.334        -491.502           0.255  
G07  23394322.887      -50876.338       -1302.664           0.248  
> 2023 05 18 00 01 04.9688020  0  6                     
G02  24247354.412      171181.558        2907.153           0.239  
G03  22339721.976      -25753.727        -584.591           0.255  
G04  23596934.870     -102832.067       -2121.173           0.244  
G05  22520973.982      101979.668        2042.443           0.255  
G06  20630798.345      -20206.484        -490.493           0.255  
G07  23394356.092      -51006.656       -1312.611           0.248  
> 2023 05 18 00 01 05.0688020  0  6                     
G02  24247278.731      171472.118        2905.035           0.239  
G03  22339732.881      -25804.558        -512.786           0.255  
G04  23596989.730     -103043.987       -2105.440           0.244  
G05  22520921.873      102183.841        2042.154           0.255  
G06  20630812.866      -20255.647        -491.933           0.255  
G07  23394388.724      -51136.787       -1302.310           0.248  
> 2023 05 18 00 01 05.1688020  0  6                     
G02  24247206.385      171762.689        2905.207           0.239  
G03  22339746.966      -25855.944        -514.904           0.255  
G04  23597042.756     -103256.111       -2119.772           0.244  
G05  22520869.999      102388.017        2041.779           0.255  
G06  20630824.729      -20304.807        -490.873           0.255  
G07  23394422.105      -51267.014       -1302.394           0.248  
> 2023 05 18 00 01 05.2688020  0  6                     
G02  24247130.861      172053.269        2905.398           0.239  
G03  22339755.746      -25907.318        -513.503           0.255  
G04  23597098.250     -103468.150       -2120.658           0.244  
G05  22520817.872      102592.189        2041.405           0.255  
G06  20630838.667      -20353.972        -491.455           0.255  
G07  23394455.442      -51397.246       -1302.503           0.248  
> 2023 05 18 00 01 05.3688020  0  6                     
G02  24247057.197      172343.854        2905.442           0.239  
G03  22339771.198      -25958.711        -515.246           0.255  
G04  23597152.232     -103680.179       -2120.653           0.244  
G05  22520765.893      102796.355        2040.957           0.255  
G06  20630850.779      -20403.142        -490.729           0.255  
G07  23394488.149      -51527.486       -1302.490           0.248  
> 2023 05 18 00 01 05.4688020  0  6                     
G02  24246984.882      172634.434        2905.540           0.239  
G03  22339788.832      -26009.981        -495.539           0.255  
G04  23597204.625     -103892.214       -2120.565           0.243  
G05  22520714.100      103000.879        2102.856           0.255  
G06  20630861.061      -20452.320        -491.409           0.255  
G07  23394522.021      -51657.725       -1302.582           0.248  
> 2023 05 18 00 01 05.5688020  0  6                     
G02  24246911.326      172925.001        2906.558           0.239  
G03  22339799.270      -26061.465        -513.551           0.255  
G04  23597258.849     -104104.164       -2149.884           0.244  
G05  22520662.057      103204.698        2042.456           0.255  
G06  20630873.875      -20501.501        -491.814           0.255  
G07  23394554.714      -51787.965       -1302.214           0.248  
> 2023 05 18 00 01 05.6688020  0  6                     
G02  24246835.935      173215.581        2906.826           0.239  
G03  22339812.179      -26112.856        -513.333           0.255  
G04  23597313.874     -104316.274       -2121.591           0.244  
G05  22520609.588      103408.861        2042.328           0.255  
G06  20630887.170      -20550.692        -492.275           0.255  
G07  23394587.701      -51918.207       -1302.688           0.248  
> 2023 05 18 00 01 05.7688020  0  6                     
G02  24246761.277      173506.146        2905.092           0.239  
G03  22339822.249      -26164.296        -531.263           0.255  
G04  23597367.579     -104528.283       -2119.309           0.244  
G05  22520557.894      103613.025        2041.784           0.255  
G06  20630900.963      -20599.858        -492.162           0.255  
G07  23394621.203      -52048.455       -1302.388           0.248  
> 2023 05 18 00 01 05.8688020  0  6                     
G02  24246687.351      173796.730        2907.502           0.239  
G03  22339837.804      -26215.693        -514.699           0.255  
G04  23597421.223     -104740.331       -2121.407           0.244  
G05  22520505.831      103817.112        2026.167           0.255  
G06  20630912.957      -20649.042        -490.861           0.255  
G07  23394654.389      -52178.708       -1302.859           0.248  
> 2023 05 18 00 01 05.9688020  0  6                     
G02  24246613.121      174087.306        2904.395           0.239  
G03  22339851.708      -26267.092        -514.709           0.255  
G04  23597475.414     -104952.362       -2119.152           0.244  
G05  22520453.510      104021.338        2040.458           0.255  
G06  20630924.245      -20698.244        -491.635           0.255  
G07  23394687.870      -52308.956       -1302.085           0.248  
> 2023 05 18 00 01 06.0688020  0  7                     
G02  24246539.759      174377.878        2905.762           0.239  
G03  22339867.424      -26318.515        -513.734           0.255  
G04  23597529.500     -105164.393       -2120.284           0.244  
G05  22520401.650      104225.501        2041.366           0.255  
G06  20630936.205      -20747.435        -492.137           0.255  
G07  23394720.746      -52439.220       -1302.583           0.248  
G09  23116774.031      -46195.296       -1426.219           0.251  
> 2023 05 18 00 01 06.1688020  0  7                     
G02  24246465.103      174668.452        2905.388           0.239  
G03  22339878.508      -26369.941        -513.240           0.255  
G04  23597584.161     -105376.427       -2149.371           0.244  
G05  22520349.916      104429.648        2041.458           0.255  
G06  20630948.790      -20796.626        -492.645           0.255  
G07  23394753.838      -52569.473       -1301.600           0.248  
G09  23116810.981      -46337.883       -1425.935           0.251  
> 2023 05 18 00 01 06.2688020  0  7                     
G02  24246390.595      174959.050        2906.284           0.239  
G03  22339888.472      -26421.367        -512.590           0.255  
G04  23597638.113     -105588.475       -2120.757           0.244  
G05  22520297.750      104633.798        2041.868           0.255  
G06  20630964.518      -20845.826        -492.251           0.255  
G07  23394787.540      -52699.735       -1302.362           0.248  
G09  23116845.847      -46480.486       -1426.289           0.251  
> 2023 05 18 00 01 06.3688020  0  7                     
G02  24246317.084      175249.626        2905.771           0.239  
G03  22339903.064      -26472.779        -513.641           0.255  
G04  23597691.498     -105800.520       -2120.670           0.244  
G05  22520245.667      104837.956        2041.675           0.255  
G06  20630976.123      -20895.037        -492.384           0.255  
G07  23394820.484      -52829.972       -1286.632           0.248  
G09  23116882.581      -46623.076       -1425.986           0.252  
> 2023 05 18 00 01 06.4688020  0  7                     
G02  24246243.586      175540.199        2905.376           0.239  
G03  22339917.857      -26524.236        -516.737           0.255  
G04  23597745.295     -106012.859       -2112.265           0.244  
G05  22520193.859      105042.098        2041.595           0.255  
G06  20630987.601      -20944.236        -490.966           0.255  
G07  23394853.880      -52960.273       -1302.678           0.248  
G09  23116919.111      -46765.670       -1425.807           0.251  
> 2023 05 18 00 01 06.5688020  0  7                     
G02  24246169.883      175830.766        2903.647           0.239  
G03  22339930.536      -26575.690        -515.889           0.255  
G04  23597799.021     -106224.596       -2118.514           0.244  
G05  22520141.772      105246.236        2041.258           0.255  
G06  20630999.768      -20993.439        -491.155           0.255  
G07  23394887.030      -53090.548       -1303.129           0.248  
G09  23116955.687      -46908.402       -1450.713           0.251  
> 2023 05 18 00 01 06.6688020  0  7                     
G02  24246094.980      176121.334        2905.870           0.239  
G03  22339942.009      -26627.124        -513.328           0.255  
G04  23597852.886     -106436.646       -2120.791           0.244  
G05  22520089.908      105450.372        2040.694           0.255  
G06  20631013.017      -21042.653        -492.129           0.255  
G07  23394920.555      -53220.820       -1302.693           0.248  
G09  23116991.958      -47050.875       -1426.418           0.252  
> 2023 05 18 00 01 06.7688020  0  7                     
G02  24246021.427      176411.920        2906.656           0.239  
G03  22339957.417      -26678.556        -513.370           0.255  
G04  23597906.843     -106648.686       -2120.731           0.244  
G05  22520037.820      105654.513        2041.451           0.255  
G06  20631025.099      -21091.886        -492.371           0.255  
G07  23394953.562      -53351.099       -1302.734           0.248  
G09  23117028.263      -47193.463       -1426.455           0.252  
> 2023 05 18 00 01 06.8688020  0  7                     
G02  24245948.041      176702.481        2906.056           0.239  
G03  22339970.612      -26730.011        -515.498           0.255  
G04  23597961.163     -106860.732       -2121.198           0.244  
G05  22519985.407      105858.650        2041.847           0.255  
G06  20631037.254      -21141.104        -491.755           0.255  
G07  23394986.985      -53481.386       -1302.901           0.248  
G09  23117064.796      -47336.063       -1426.492           0.252  
> 2023 05 18 00 01 06.9688020  0  7                     
G02  24245873.630      176993.041        2905.324           0.239  
G03  22339984.571      -26781.493        -516.086           0.255  
G04  23598015.209     -107073.283       -2212.871           0.244  
G05  22519933.720      106062.789        2041.989           0.255  
G06  20631049.111      -21190.315        -491.344           0.255  
G07  23395020.147      -53611.670       -1302.870           0.248  
G09  23117101.184      -47478.655       -1425.641           0.251  
> 2023 05 18 00 01 07.0688020  0  7                     
G02  24245799.841      177283.483        2909.177           0.239  
G03  22339996.581      -26832.949        -513.831           0.255  
G04  23598069.684     -107284.830       -2120.352           0.244  
G05  22519881.382      106266.660        1965.023           0.255  
G06  20631062.112      -21239.543        -492.311           0.255  
G07  23395053.024      -53741.954       -1302.661           0.248  
G09  23117137.459      -47621.252       -1426.471           0.252  
> 2023 05 18 00 01 07.1688020  0  7                     
G02  24245724.324      177574.206        2905.665           0.239  
G03  22340008.877      -26884.405        -513.268           0.255  
G04  23598124.299     -107496.873       -2120.383           0.244  
G05  22519829.543      106471.059        2041.946           0.255  
G06  20631075.286      -21288.781        -492.783           0.255  
G07  23395086.234      -53872.250       -1302.626           0.248  
G09  23117174.137      -47763.855       -1426.137           0.251  
> 2023 05 18 00 01 07.2688020  0  7                     
G02  24245651.150      177864.776        2906.309           0.239  
G03  22340023.303      -26935.437        -514.828           0.255  
G04  23598177.898     -107708.921       -2121.000           0.244  
G05  22519777.367      106675.184        2041.316           0.255  
G06  20631087.626      -21338.018        -492.049           0.255  
G07  23395119.512      -54002.551       -1303.120           0.248  
G09  23117210.160      -47906.380       -1411.555           0.251  
> 2023 05 18 00 01 07.3688020  0  7                     
G02  24245577.101      178155.339        2905.830           0.239  
G03  22340036.308      -26987.372        -517.069           0.255  
G04  23598231.631     -107920.964       -2120.288           0.244  
G05  22519725.469      106879.304        2040.051           0.255  
G06  20631100.091      -21387.242        -490.893           0.255  
G07  23395152.904      -54132.846       -1303.021           0.248  
G09  23117246.304      -48049.061       -1426.284           0.252  
> 2023 05 18 00 01 07.4688020  0  7                     
G02  24245502.890      178445.921        2905.746           0.239  
G03  22340052.107      -27038.822        -515.185           0.255  
G04  23598285.988     -108132.873       -2115.710           0.243  
G05  22519673.574      107083.772        2133.323           0.255  
G06  20631110.361      -21436.499        -492.065           0.255  
G07  23395185.852      -54263.104       -1294.010           0.248  
G09  23117282.353      -48191.723       -1461.649           0.252  
> 2023 05 18 00 01 07.5688020  0  7                     
G02  24245429.028      178736.499        2906.954           0.239  
G03  22340064.136      -27090.308        -514.051           0.255  
G04  23598339.853     -108345.074       -2121.232           0.244  
G05  22519621.475      107287.563        2041.779           0.255  
G06  20631124.237      -21485.742        -493.423           0.255  
G07  23395219.104      -54393.444       -1302.976           0.248  
G09  23117319.046      -48334.265       -1426.086           0.252  
> 2023 05 18 00 01 07.6688020  0  7                     
G02  24245354.895      179027.067        2906.602           0.239  
G03  22340078.101      -27141.796        -513.771           0.255  
G04  23598393.697     -108557.127       -2121.063           0.244  
G05  22519569.678      107491.680        2042.098           0.255  
G06  20631136.423      -21534.991        -493.433           0.255  
G07  23395252.365      -54523.744       -1302.592           0.248  
G09  23117355.052      -48476.868       -1426.011           0.252  
> 2023 05 18 00 01 07.7688020  0  7                     
G02  24245281.964      179317.629        2905.322           0.239  
G03  22340087.021      -27193.307        -516.174           0.255  
G04  23598447.488     -108769.177       -2120.265           0.244  
G05  22519517.962      107695.800        2041.889           0.255  
G06  20631151.116      -21584.232        -491.685           0.255  
G07  23395284.603      -54654.050       -1303.348           0.248  
G09  23117391.194      -48619.470       -1426.055           0.252  
> 2023 05 18 00 01 07.8688020  0  7                     
G02  24245207.355      179608.207        2905.761           0.239  
G03  22340097.778      -27244.786        -514.250           0.255  
G04  23598502.066     -108981.237       -2120.692           0.244  
G05  22519465.644      107899.916        2041.198           0.255  
G06  20631165.792      -21633.498        -493.149           0.255  
G07  23395317.781      -54784.361       -1303.306           0.248  
G09  23117427.655      -48762.067       -1425.640           0.251  
> 2023 05 18 00 01 07.9688020  0  7                     
G02  24245132.200      179898.764        2904.667           0.239  
G03  22340111.733      -27296.306        -516.004           0.255  
G04  23598555.738     -109193.282       -2120.468           0.244  
G05  22519413.633      108104.028        2040.875           0.255  
G06  20631177.260      -21682.741        -491.839           0.255  
G07  23395351.318      -54914.667       -1302.841           0.248  
G09  23117464.513      -48904.681       -1425.982           0.251  
> 2023 05 18 00 01 08.0688020  0  7                     
G02  24245058.543      180189.341        2905.602           0.239  
G03  22340124.545      -27347.805        -515.469           0.255  
G04  23598609.536     -109405.338       -2119.470           0.244  
G05  22519361.281      108307.655        1979.035           0.255  
G06  20631190.123      -21732.011        -492.706           0.255  
G07  23395385.502      -55044.986       -1302.536           0.248  
G09  23117500.814      -49047.288       -1426.131           0.251  
> 2023 05 18 00 01 08.1688020  0  7                     
G02  24244985.423      180479.911        2905.147           0.239  
G03  22340143.160      -27399.323        -515.471           0.255  
G04  23598662.572     -109617.407       -2119.875           0.244  
G05  22519309.392      108512.241        2040.111           0.255  
G06  20631199.454      -21781.276        -492.572           0.255  
G07  23395418.202      -55175.306       -1303.245           0.248  
G09  23117536.965      -49189.891       -1425.654           0.251  
> 2023 05 18 00 01 08.2688020  0  7                     
G02  24244911.749      180770.484        2905.231           0.239  
G03  22340149.073      -27450.840        -514.894           0.255  
G04  23598716.752     -109829.469       -2120.593           0.244  
G05  22519257.380      108716.459        2072.949           0.255  
G06  20631214.998      -21830.539        -492.812           0.255  
G07  23395450.947      -55305.624       -1303.206           0.248  
G09  23117574.874      -49332.518       -1426.681           0.252  
> 2023 05 18 00 01 08.3688020  0  7                     
G02  24244837.190      181061.048        2904.063           0.239  
G03  22340161.942      -27502.344        -514.201           0.255  
G04  23598771.596     -110041.522       -2119.426           0.244  
G05  22519205.350      108920.460        2040.084           0.255  
G06  20631228.779      -21879.821        -493.166           0.255  
G07  23395483.508      -55435.949       -1303.056           0.248  
G09  23117609.116      -49475.129       -1426.635           0.252  
> 2023 05 18 00 01 08.4688020  0  7                     
G02  24244762.799      181351.608        2905.272           0.239  
G03  22340180.649      -27553.855        -514.447           0.255  
G04  23598826.068     -110253.580       -2119.825           0.244  
G05  22519153.271      109124.568        2041.417           0.255  
G06  20631237.873      -21929.105        -493.375           0.255  
G07  23395517.479      -55566.279       -1303.382           0.248  
G09  23117646.061      -49617.734       -1426.966           0.251  
> 2023 05 18 00 01 08.5688020  0  7                     
G02  24244689.072      181642.177        2905.472           0.239  
G03  22340193.505      -27605.410        -515.775           0.255  
G04  23598879.944     -110465.645       -2120.361           0.244  
G05  22519101.702      109328.668        2041.325           0.255  
G06  20631250.979      -21978.380        -492.877           0.255  
G07  23395550.535      -55696.603       -1303.107           0.248  
G09  23117682.134      -49760.337       -1426.422           0.251  
> 2023 05 18 00 01 08.6688020  0  7                     
G02  24244614.550      181932.749        2905.087           0.239  
G03  22340210.224      -27656.950        -514.626           0.255  
G04  23598934.243     -110677.603       -2122.751           0.244  
G05  22519049.833      109532.760        2041.967           0.255  
G06  20631261.729      -22027.651        -493.113           0.255  
G07  23395584.516      -55826.940       -1303.405           0.248  
G09  23117718.585      -49902.729       -1416.729           0.251  
> 2023 05 18 00 01 08.7688020  0  7                     
G02  24244540.506      182223.322        2906.214           0.239  
G03  22340221.606      -27708.481        -515.760           0.255  
G04  23598988.319     -110889.786       -2120.782           0.244  
G05  22518997.597      109736.853        2040.778           0.255  
G06  20631274.734      -22076.943        -492.564           0.255  
G07  23395617.078      -55957.272       -1303.257           0.248  
G09  23117755.408      -50045.548       -1426.146           0.252  
> 2023 05 18 00 01 08.8688020  0  7                     
G02  24244464.915      182513.896        2904.932           0.238  
G03  22340230.181      -27760.015        -514.681           0.255  
G04  23599043.432     -111101.859       -2121.213           0.244  
G05  22518945.315      109940.955        2040.693           0.255  
G06  20631290.161      -22126.229        -493.342           0.255  
G07  23395650.383      -56087.618       -1303.438           0.248  
G09  23117792.054      -50188.172       -1426.285           0.252  
> 2023 05 18 00 01 08.9688020  0  7                     
G02  24244393.336      182804.474        2906.825           0.239  
G03  22340244.243      -27811.567        -513.129           0.255  
G04  23599095.172     -111313.929       -2121.103           0.243  
G05  22518893.370      110144.583        1982.190           0.255  
G06  20631302.233      -22175.519        -493.771           0.255  
G07  23395684.324      -56217.988       -1298.864           0.248  
G09  23117827.938      -50330.789       -1426.035           0.252  
> 2023 05 18 00 01 09.0688020  0  7                     
G02  24244319.222      183095.030        2905.495           0.239  
G03  22340257.107      -27863.131        -514.383           0.255  
G04  23599150.109     -111525.987       -2120.502           0.244  
G05  22518841.479      110349.133        2041.835           0.255  
G06  20631314.719      -22224.812        -493.435           0.255  
G07  23395717.021      -56348.299       -1303.030           0.248  
G09  23117864.310      -50473.391       -1425.651           0.251  
> 2023 05 18 00 01 09.1688020  0  7                     
G02  24244243.784      183385.619        2904.801           0.239  
G03  22340270.963      -27914.694        -516.565           0.255  
G04  23599204.593     -111738.068       -2119.855           0.244  
G05  22518789.495      110553.213        2040.767           0.255  
G06  20631326.614      -22274.110        -492.741           0.255  
G07  23395750.513      -56478.650       -1303.468           0.248  
G09  23117900.612      -50616.008       -1426.104           0.251  
> 2023 05 18 00 01 09.2688020  0  7                     
G02  24244169.669      183676.165        2904.242           0.239  
G03  22340286.063      -27966.251        -517.033           0.255  
G04  23599258.367     -111950.129       -2119.582           0.244  
G05  22518737.228      110757.290        2039.446           0.255  
G06  20631337.816      -22323.419        -492.397           0.255  
G07  23395784.053      -56609.000       -1303.566           0.248  
G09  23117937.565      -50758.628       -1425.991           0.252  
> 2023 05 18 00 01 09.3688020  0  7                     
G02  24244096.119      183966.743        2905.371           0.239  
G03  22340297.390      -28017.820        -515.961           0.255  
G04  23599312.648     -112162.215       -2120.793           0.244  
G05  22518685.051      110961.382        2040.031           0.255  
G06  20631352.127      -22372.721        -492.263           0.255  
G07  23395816.831      -56739.355       -1303.284           0.248  
G09  23117973.053      -50901.240       -1426.520           0.252  
> 2023 05 18 00 01 09.4688020  0  7                     
G02  24244020.976      184257.306        2905.943           0.239  
G03  22340311.235      -28069.001        -528.164           0.255  
G04  23599366.771     -112374.226       -2124.019           0.244  
G05  22518633.309      111165.469        2040.540           0.255  
G06  20631364.263      -22422.033        -493.323           0.255  
G07  23395850.176      -56869.663       -1286.901           0.248  
G09  23118009.482      -51043.980       -1436.682           0.251  
> 2023 05 18 00 01 09.5688020  0  7                     
G02  24243946.981      184548.235        2949.973           0.239  
G03  22340324.632      -28121.729        -623.655           0.255  
G04  23599421.036     -112586.479       -2125.344           0.244  
G05  22518581.527      111369.532        1987.441           0.255  
G06  20631376.316      -22471.342        -492.243           0.255  
G07  23395883.233      -57000.096       -1301.698           0.248  
G09  23118047.046      -51186.340       -1418.808           0.251  
> 2023 05 18 00 01 09.6688020  0  7                     
G02  24243872.702      184838.448        2905.527           0.239  
G03  22340338.103      -28172.552        -515.810           0.255  
G04  23599475.389     -112798.425       -2120.677           0.244  
G05  22518529.089      111573.628        2041.474           0.255  
G06  20631389.486      -22520.657        -492.677           0.255  
G07  23395916.242      -57130.437       -1303.620           0.248  
G09  23118082.353      -51329.079       -1425.421           0.251  
> 2023 05 18 00 01 09.7688020  0  7                     
G02  24243799.240      185129.017        2904.559           0.239  
G03  22340352.309      -28224.035        -543.496           0.255  
G04  23599529.521     -113010.828       -2163.148           0.244  
G05  22518477.056      111777.699        2041.240           0.255  
G06  20631400.928      -22569.968        -492.188           0.255  
G07  23395949.450      -57260.697       -1309.492           0.248  
G09  23118118.023      -51472.044       -1468.467           0.251  
> 2023 05 18 00 01 09.8688020  0  7                     
G02  24243725.992      185419.598        2904.897           0.240  
G03  22340365.044      -28275.714        -517.272           0.255  
G04  23599582.816     -113222.588       -2120.262           0.244  
G05  22518425.382      111981.767        2040.704           0.255  
G06  20631413.980      -22619.300        -492.030           0.255  
G07  23395982.829      -57391.170       -1303.559           0.248  
G09  23118154.937      -51614.336       -1426.768           0.252  
> 2023 05 18 00 01 09.9688020  0  7                     
G02  24243650.081      185710.169        2907.900           0.239  
G03  22340374.259      -28327.308        -516.281           0.255  
G04  23599637.463     -113434.673       -2123.514           0.243  
G05  22518373.284      112185.847        2041.233           0.255  
G06  20631428.116      -22668.625        -493.347           0.255  
G07  23396015.766      -57521.542       -1303.658           0.248  
G09  23118190.258      -51756.959       -1426.664           0.252  
> 2023 05 18 00 01 10.0688020  0  7                     
G02  24243576.091      186000.737        2906.025           0.239  
G03  22340389.140      -28378.911        -517.521           0.255  
G04  23599692.363     -113646.754       -2122.377           0.244  
G05  22518321.311      112389.924        2041.131           0.255  
G06  20631439.940      -22717.958        -492.899           0.255  
G07  23396049.381      -57651.918       -1303.576           0.248  
G09  23118227.351      -51899.571       -1426.964           0.251  
> 2023 05 18 00 01 10.1688020  0  7                     
G02  24243502.916      186291.302        2905.791           0.239  
G03  22340402.745      -28430.511        -516.677           0.255  
G04  23599745.125     -113858.819       -2121.503           0.244  
G05  22518269.554      112593.983        2040.943           0.255  
G06  20631452.113      -22767.289        -492.838           0.255  
G07  23396082.664      -57782.294       -1303.597           0.248  
G09  23118263.320      -52042.196       -1426.454           0.252  
> 2023 05 18 00 01 10.2688020  0  7                     
G02  24243429.226      186581.607        2856.508           0.239  
G03  22340414.621      -28482.099        -515.373           0.255  
G04  23599798.518     -114070.895       -2120.388           0.244  
G05  22518217.478      112798.049        2041.126           0.255  
G06  20631465.329      -22816.628        -493.868           0.255  
G07  23396116.411      -57912.670       -1304.221           0.248  
G09  23118300.529      -52184.817       -1425.259           0.251  
> 2023 05 18 00 01 10.3688020  0  7                     
G02  24243355.767      186872.438        2905.799           0.239  
G03  22340432.079      -28533.711        -516.548           0.255  
G04  23599852.691     -114282.978       -2120.647           0.244  
G05  22518165.320      113002.094        2040.906           0.255  
G06  20631475.956      -22865.972        -493.293           0.255  
G07  23396149.305      -58043.052       -1303.678           0.248  
G09  23118336.536      -52327.437       -1426.678           0.251  
> 2023 05 18 00 01 10.4688020  0  7                     
G02  24243280.925      187163.006        2905.823           0.239  
G03  22340444.186      -28585.333        -516.171           0.255  
G04  23599907.067     -114495.065       -2120.973           0.244  
G05  22518113.131      113206.152        2040.689           0.255  
G06  20631488.855      -22915.313        -492.781           0.255  
G07  23396183.233      -58173.439       -1303.948           0.248  
G09  23118373.547      -52470.054       -1427.718           0.252  
> 2023 05 18 00 01 10.5688020  0  7                     
G02  24243207.215      187453.585        2904.944           0.239  
G03  22340458.646      -28636.957        -514.615           0.255  
G04  23599961.194     -114707.151       -2120.706           0.244  
G05  22518061.318      113410.206        2040.375           0.255  
G06  20631500.151      -22964.660        -494.534           0.255  
G07  23396215.769      -58303.827       -1303.674           0.248  
G09  23118409.713      -52612.669       -1424.387           0.252  
> 2023 05 18 00 01 10.6688020  0  7                     
G02  24243133.400      187744.156        2905.270           0.239  
G03  22340471.079      -28688.571        -514.997           0.255  
G04  23600015.497     -114919.234       -2120.835           0.244  
G05  22518009.360      113614.258        2039.736           0.255  
G06  20631514.540      -23014.012        -494.152           0.255  
G07  23396248.817      -58434.214       -1303.617           0.248  
G09  23118444.585      -52755.301       -1424.899           0.252  
> 2023 05 18 00 01 10.7688020  0  7                     
G02  24243059.140      188034.730        2904.841           0.239  
G03  22340483.140      -28740.196        -516.985           0.255  
G04  23600069.060     -115131.322       -2121.027           0.244  
G05  22517957.169      113818.307        2038.971           0.255  
G06  20631527.343      -23063.370        -493.859           0.255  
G07  23396281.894      -58564.613       -1303.735           0.248  
G09  23118481.990      -52897.927       -1424.255           0.251  
> 2023 05 18 00 01 10.8688020  0  7                     
G02  24242986.208      188325.278        2905.272           0.239  
G03  22340495.335      -28791.833        -516.274           0.255  
G04  23600122.867     -115343.403       -2120.734           0.244  
G05  22517904.840      114022.365        2039.679           0.255  
G06  20631540.148      -23112.725        -493.931           0.255  
G07  23396314.877      -58695.009       -1304.284           0.248  
G09  23118518.899      -53040.564       -1425.670           0.252  
> 2023 05 18 00 01 10.9688020  0  7                     
G02  24242911.571      188615.859        2907.027           0.239  
G03  22340505.230      -28843.487        -514.864           0.255  
G04  23600177.022     -115555.508       -2121.559           0.244  
G05  22517853.277      114226.416        2040.021           0.255  
G06  20631554.480      -23162.076        -494.727           0.255  
G07  23396347.742      -58825.411       -1304.180           0.248  
G09  23118554.078      -53183.184       -1426.469           0.251  
> 2023 05 18 00 01 11.0688020  0  7                     
G02  24242837.828      188906.284        2871.277           0.239  
G03  22340520.529      -28895.122        -515.807           0.255  
G04  23600230.538     -115767.584       -2119.855           0.244  
G05  22517801.498      114430.468        2040.371           0.255  
G06  20631566.123      -23211.447        -493.803           0.255  
G07  23396381.132      -58955.812       -1310.821           0.248  
G09  23118591.869      -53325.808       -1426.402           0.251  
> 2023 05 18 00 01 11.1688020  0  7                     
G02  24242763.588      189196.987        2905.807           0.239  
G03  22340535.355      -28947.165        -626.729           0.255  
G04  23600285.210     -115979.683       -2120.353           0.244  
G05  22517749.183      114634.519        2040.753           0.255  
G06  20631578.172      -23260.811        -492.988           0.255  
G07  23396414.359      -59086.219       -1304.195           0.248  
G09  23118625.988      -53468.436       -1424.980           0.251  
> 2023 05 18 00 01 11.2688020  0  7                     
G02  24242689.522      189487.563        2906.209           0.239  
G03  22340548.683      -28998.054        -479.233           0.255  
G04  23600338.839     -116191.777       -2120.636           0.244  
G05  22517697.460      114838.558        2040.995           0.255  
G06  20631590.708      -23310.175        -492.788           0.255  
G07  23396447.502      -59216.629       -1304.477           0.248  
G09  23118662.249      -53611.066       -1425.713           0.251  
> 2023 05 18 00 01 11.3688020  0  7                     
G02  24242612.453      189778.122        2905.126           0.239  
G03  22340560.313      -29050.083        -517.704           0.255  
G04  23600394.994     -116403.867       -2121.188           0.244  
G05  22517645.352      115042.594        2040.861           0.255  
G06  20631603.182      -23359.550        -492.612           0.255  
G07  23396481.662      -59347.043       -1304.218           0.248  
G09  23118699.976      -53753.695       -1426.742           0.251  
> 2023 05 18 00 01 11.4688020  0  7                     
G02  24242539.948      190068.692        2904.994           0.239  
G03  22340572.547      -29101.734        -516.084           0.255  
G04  23600450.273     -116615.959       -2120.250           0.244  
G05  22517592.648      115246.635        2040.879           0.255  
G06  20631616.803      -23408.937        -493.792           0.255  
G07  23396515.042      -59477.460       -1304.392           0.248  
G09  23118735.253      -53896.323       -1426.365           0.251  
> 2023 05 18 00 01 11.5688020  0  7                     
G02  24242465.627      190359.279        2907.833           0.239  
G03  22340587.542      -29153.411        -517.354           0.255  
G04  23600502.599     -116828.073       -2123.220           0.244  
G05  22517541.144      115450.664        2040.826           0.255  
G06  20631628.273      -23458.315        -493.674           0.255  
G07  23396548.271      -59607.876       -1303.993           0.248  
G09  23118772.705      -54038.960       -1425.931           0.252  
> 2023 05 18 00 01 11.6688020  0  7                     
G02  24242392.772      190649.835        2906.176           0.239  
G03  22340600.625      -29205.083        -516.503           0.255  
G04  23600555.730     -117040.157       -2120.859           0.244  
G05  22517489.134      115654.700        2040.733           0.255  
G06  20631640.893      -23507.693        -493.849           0.255  
G07  23396581.264      -59738.294       -1304.499           0.248  
G09  23118808.493      -54181.601       -1426.487           0.252  
> 2023 05 18 00 01 11.7688020  0  7                     
G02  24242318.967      190940.397        2905.815           0.239  
G03  22340613.412      -29256.744        -515.678           0.255  
G04  23600609.634     -117252.256       -2120.782           0.244  
G05  22517437.322      115858.729        2040.852           0.255  
G06  20631653.951      -23557.092        -494.219           0.255  
G07  23396614.409      -59868.719       -1304.190           0.248  
G09  23118845.163      -54324.228       -1426.810           0.251  
> 2023 05 18 00 01 11.8688020  0  7                     
G02  24242245.694      191230.978        2904.969           0.239  
G03  22340627.282      -29308.206        -585.632           0.255  
G04  23600663.656     -117464.349       -2120.019           0.244  
G05  22517385.532      116062.757        2040.743           0.255  
G06  20631665.942      -23606.481        -492.669           0.255  
G07  23396647.231      -59999.147       -1304.224           0.248  
G09  23118881.834      -54466.863       -1431.272           0.251  
> 2023 05 18 00 01 11.9688020  0  7                     
G02  24242171.856      191521.518        2885.408           0.239  
G03  22340639.721      -29360.138        -518.798           0.255  
G04  23600717.177     -117676.472       -2110.495           0.244  
G05  22517333.621      116267.038        2055.246           0.255  
G06  20631678.424      -23655.860        -492.567           0.255  
G07  23396681.030      -60129.580       -1303.988           0.248  
G09  23118918.252      -54609.492       -1426.599           0.251  
> 2023 05 18 00 01 12.0688020  0  7                     
G02  24242096.824      191812.126        2906.366           0.239  
G03  22340651.690      -29411.801        -515.342           0.255  
G04  23600771.316     -117888.549       -2120.289           0.244  
G05  22517281.764      116470.811        2040.267           0.255  
G06  20631691.142      -23705.268        -494.293           0.255  
G07  23396714.380      -60260.012       -1304.712           0.248  
G09  23118955.199      -54752.124       -1426.405           0.251  
> 2023 05 18 00 01 12.1688020  0  7                     
G02  24242022.829      192102.692        2907.314           0.239  
G03  22340666.015      -29463.068        -493.580           0.255  
G04  23600826.265     -118100.661       -2121.829           0.244  
G05  22517229.288      116674.837        2040.502           0.255  
G06  20631703.390      -23754.679        -494.011           0.255  
G07  23396747.338      -60390.451       -1304.702           0.248  
G09  23118992.760      -54894.814       -1408.935           0.251  
> 2023 05 18 00 01 12.2688020  0  7                     
G02  24241949.173      192393.250        2905.020           0.239  
G03  22340680.552      -29515.183        -518.663           0.255  
G04  23600880.159     -118312.750       -2141.975           0.244  
G05  22517177.321      116878.859        2040.280           0.255  
G06  20631715.725      -23804.077        -493.946           0.255  
G07  23396780.284      -60520.890       -1304.936           0.248  
G09  23119027.285      -55037.393       -1425.318           0.251  
> 2023 05 18 00 01 12.3688020  0  7                     
G02  24241874.229      192683.830        2905.423           0.239  
G03  22340691.803      -29566.901        -516.044           0.255  
G04  23600934.097     -118524.860       -2121.205           0.244  
G05  22517125.312      117082.877        2040.312           0.255  
G06  20631729.013      -23853.476        -494.631           0.255  
G07  23396813.505      -60651.337       -1304.801           0.248  
G09  23119063.472      -55180.036       -1426.149           0.251  
> 2023 05 18 00 01 12.4688020  0  7                     
G02  24241801.302      192974.398        2905.316           0.239  
G03  22340705.315      -29618.575        -515.156           0.255  
G04  23600987.901     -118736.955       -2120.374           0.244  
G05  22517073.333      117286.894        2040.519           0.255  
G06  20631741.962      -23902.907        -495.465           0.255  
G07  23396846.731      -60781.780       -1304.601           0.248  
G09  23119099.707      -55322.674       -1426.018           0.252  
> 2023 05 18 00 01 12.5688020  0  7                     
G02  24241726.408      193264.962        2905.088           0.239  
G03  22340719.189      -29670.306        -519.365           0.255  
G04  23601041.935     -118949.071       -2120.922           0.244  
G05  22517021.345      117490.912        2040.337           0.255  
G06  20631754.060      -23952.312        -492.969           0.255  
G07  23396880.115      -60912.220       -1304.596           0.248  
G09  23119136.375      -55465.316       -1426.578           0.251  
> 2023 05 18 00 01 12.6688020  0  7                     
G02  24241652.590      193555.539        2906.249           0.239  
G03  22340731.139      -29722.024        -517.554           0.255  
G04  23601096.063     -119161.174       -2120.413           0.244  
G05  22516968.979      117694.922        2039.974           0.255  
G06  20631766.417      -24001.730        -494.306           0.255  
G07  23396913.257      -61042.678       -1305.134           0.248  
G09  23119173.114      -55607.949       -1425.749           0.252  
> 2023 05 18 00 01 12.7688020  0  7                     
G02  24241578.996      193846.241        2882.150           0.239  
G03  22340745.073      -29773.738        -516.143           0.255  
G04  23601149.717     -119373.292       -2122.291           0.244  
G05  22516917.532      117898.953        2003.103           0.255  
G06  20631779.374      -24051.155        -494.731           0.255  
G07  23396946.719      -61173.124       -1304.577           0.248  
G09  23119209.459      -55750.588       -1425.752           0.251  
> 2023 05 18 00 01 12.8688020  0  7                     
G02  24241504.431      194136.650        2905.570           0.239  
G03  22340759.083      -29825.456        -517.963           0.255  
G04  23601203.732     -119585.403       -2122.068           0.244  
G05  22516865.705      118102.936        2039.862           0.255  
G06  20631791.911      -24100.584        -494.308           0.255  
G07  23396979.718      -61303.577       -1304.679           0.248  
G09  23119244.971      -55893.229       -1425.351           0.252  
> 2023 05 18 00 01 12.9688020  0  7                     
G02  24241430.893      194427.201        2904.527           0.239  
G03  22340772.382      -29877.827        -611.471           0.255  
G04  23601257.723     -119797.501       -2119.606           0.244  
G05  22516813.796      118306.946        2040.539           0.255  
G06  20631804.190      -24149.993        -493.386           0.255  
G07  23397013.332      -61434.034       -1304.366           0.248  
G09  23119281.173      -56035.714       -1410.887           0.252  
> 2023 05 18 00 01 13.0688020  0  7                     
G02  24241356.896      194717.779        2906.125           0.239  
G03  22340784.776      -29928.929        -515.337           0.255  
G04  23601312.063     -120009.617       -2121.320           0.244  
G05  22516761.609      118510.947        2040.180           0.255  
G06  20631816.925      -24199.433        -494.631           0.255  
G07  23397046.428      -61564.502       -1304.836           0.248  
G09  23119317.943      -56178.511       -1426.867           0.251  
> 2023 05 18 00 01 13.1688020  0  7                     
G02  24241281.808      195008.350        2906.199           0.239  
G03  22340797.746      -29980.648        -517.035           0.255  
G04  23601366.353     -120221.738       -2121.570           0.244  
G05  22516709.818      118714.947        2040.389           0.255  
G06  20631830.063      -24248.882        -494.744           0.255  
G07  23397079.767      -61694.962       -1304.710           0.248  
G09  23119354.227      -56321.152       -1426.311           0.251  
> 2023 05 18 00 01 13.2688020  0  7                     
G02  24241208.530      195298.911        2905.882           0.239  
G03  22340812.298      -30032.409        -519.491           0.255  
G04  23601419.391     -120433.848       -2121.780           0.244  
G05  22516657.544      118918.943        2040.191           0.255  
G06  20631842.126      -24298.309        -493.393           0.255  
G07  23397112.990      -61825.427       -1304.496           0.248  
G09  23119391.292      -56463.795       -1426.259           0.252  
> 2023 05 18 00 01 13.3688020  0  7                     
G02  24241134.247      195589.481        2906.754           0.239  
G03  22340823.642      -30084.158        -516.680           0.255  
G04  23601474.285     -120645.965       -2121.672           0.244  
G05  22516605.568      119122.939        2039.859           0.255  
G06  20631854.790      -24347.749        -494.690           0.255  
G07  23397145.603      -61955.900       -1304.478           0.248  
G09  23119427.100      -56606.446       -1426.862           0.251  
> 2023 05 18 00 01 13.4688020  0  7                     
G02  24241056.110      195879.707        2864.337           0.239  
G03  22340840.077      -30135.873        -514.787           0.255  
G04  23601530.860     -120858.073       -2120.598           0.244  
G05  22516553.638      119326.935        2040.132           0.255  
G06  20631866.310      -24397.214        -496.227           0.255  
G07  23397179.086      -62086.379       -1304.185           0.248  
G09  23119463.630      -56749.143       -1440.853           0.251  
> 2023 05 18 00 01 13.5688020  0  7                     
G02  24240985.201      196170.634        2953.164           0.239  
G03  22340852.366      -30187.664        -517.349           0.255  
G04  23601583.633     -121070.198       -2121.869           0.244  
G05  22516501.413      119530.659        1998.058           0.255  
G06  20631879.288      -24446.650        -494.728           0.255  
G07  23397212.433      -62216.753       -1281.180           0.248  
G09  23119500.529      -56891.731       -1425.897           0.252  
> 2023 05 18 00 01 13.6688020  0  7                     
G02  24240915.212      196461.176        2905.770           0.239  
G03  22340867.631      -30239.423        -482.216           0.255  
G04  23601635.223     -121282.319       -2121.397           0.244  
G05  22516449.738      119734.921        2040.471           0.255  
G06  20631890.542      -24496.099        -493.842           0.255  
G07  23397245.509      -62347.335       -1304.275           0.248  
G09  23119536.354      -57034.385       -1427.400           0.252  
> 2023 05 18 00 01 13.7688020  0  7                     
G02  24240836.148      196751.739        2905.667           0.239  
G03  22340877.649      -30291.180        -517.169           0.255  
G04  23601691.745     -121494.437       -2121.550           0.244  
G05  22516397.451      119938.902        2040.044           0.255  
G06  20631904.815      -24545.555        -494.199           0.255  
G07  23397279.158      -62477.817       -1304.722           0.248  
G09  23119573.704      -57177.021       -1428.016           0.252  
> 2023 05 18 00 01 13.8688020  0  7                     
G02  24240763.618      197042.303        2906.320           0.239  
G03  22340890.428      -30342.940        -517.049           0.255  
G04  23601744.945     -121706.392       -2093.294           0.244  
G05  22516345.782      120142.885        2039.685           0.255  
G06  20631918.009      -24595.025        -495.034           0.255  
G07  23397312.499      -62608.308       -1305.161           0.248  
G09  23119608.806      -57319.661       -1425.862           0.251  
> 2023 05 18 00 01 13.9688020  0  7                     
G02  24240688.788      197332.869        2907.650           0.239  
G03  22340905.846      -30394.717        -517.167           0.255  
G04  23601799.653     -121918.679       -2121.442           0.244  
G05  22516293.622      120346.872        2039.970           0.255  
G06  20631929.853      -24644.484        -494.965           0.255  
G07  23397345.355      -62738.790       -1304.839           0.248  
G09  23119644.453      -57462.313       -1426.909           0.251  
> 2023 05 18 00 01 14.0688020  0  7                     
G02  24240615.733      197623.448        2909.307           0.239  
G03  22340917.819      -30446.500        -518.309           0.255  
G04  23601852.672     -122130.817       -2123.523           0.244  
G05  22516241.813      120550.851        2039.901           0.255  
G06  20631943.118      -24693.943        -494.131           0.255  
G07  23397378.857      -62869.288       -1305.122           0.248  
G09  23119680.964      -57604.952       -1425.642           0.251  
> 2023 05 18 00 01 14.1688020  0  7                     
G02  24240544.009      197913.988        2906.622           0.239  
G03  22340930.590      -30498.291        -519.166           0.255  
G04  23601905.771     -122342.915       -2121.314           0.244  
G05  22516189.353      120754.823        2039.737           0.255  
G06  20631955.523      -24743.406        -493.550           0.255  
G07  23397411.527      -62999.781       -1304.994           0.248  
G09  23119718.472      -57747.626       -1428.163           0.251  
> 2023 05 18 00 01 14.2688020  0  7                     
G02  24240468.204      198204.537        2881.168           0.239  
G03  22340944.439      -30550.070        -518.692           0.255  
G04  23601960.760     -122555.051       -2121.581           0.244  
G05  22516137.809      120958.801        2039.835           0.255  
G06  20631967.583      -24792.886        -493.754           0.255  
G07  23397444.649      -63130.285       -1305.019           0.248  
G09  23119754.194      -57890.273       -1427.214           0.252  
> 2023 05 18 00 01 14.3688020  0  7                     
G02  24240394.312      198495.122        2905.458           0.239  
G03  22340956.391      -30601.870        -520.426           0.255  
G04  23602014.583     -122767.178       -2121.390           0.244  
G05  22516085.676      121162.774        2040.131           0.255  
G06  20631980.573      -24842.359        -493.666           0.255  
G07  23397478.770      -63260.812       -1311.894           0.248  
G09  23119791.306      -58032.930       -1426.158           0.252  
> 2023 05 18 00 01 14.4688020  0  7                     
G02  24240319.153      198785.678        2906.573           0.239  
G03  22340970.254      -30653.665        -518.641           0.255  
G04  23602070.197     -122979.337       -2130.660           0.244  
G05  22516033.609      121366.744        2039.814           0.255  
G06  20631993.248      -24891.840        -494.471           0.255  
G07  23397512.058      -63391.283       -1305.040           0.248  
G09  23119826.790      -58175.566       -1425.344           0.252  
> 2023 05 18 00 01 14.5688020  0  7                     
G02  24240246.004      199076.230        2905.699           0.239  
G03  22340983.248      -30705.451        -517.184           0.255  
G04  23602123.288     -123191.421       -2120.444           0.244  
G05  22515981.553      121570.710        2039.960           0.255  
G06  20632006.238      -24941.322        -494.846           0.255  
G07  23397544.559      -63521.788       -1304.830           0.248  
G09  23119863.212      -58318.229       -1426.002           0.252  
> 2023 05 18 00 01 14.6688020  0  7                     
G02  24240172.022      199366.802        2906.879           0.239  
G03  22340994.429      -30757.008        -550.965           0.255  
G04  23602177.229     -123403.553       -2102.648           0.244  
G05  22515929.670      121775.030        2096.250           0.255  
G06  20632019.621      -24990.815        -493.834           0.255  
G07  23397578.791      -63652.319       -1305.080           0.248  
G09  23119899.587      -58460.666       -1420.282           0.252  
> 2023 05 18 00 01 14.7688020  0  7                     
G02  24240097.389      199657.347        2905.200           0.239  
G03  22341010.210      -30809.065        -518.692           0.255  
G04  23602231.396     -123615.676       -2120.596           0.244  
G05  22515877.980      121978.647        2040.277           0.255  
G06  20632030.651      -25040.302        -494.556           0.255  
G07  23397612.068      -63782.812       -1305.270           0.248  
G09  23119936.190      -58603.538       -1427.497           0.251  
> 2023 05 18 00 01 14.8688020  0  7                     
G02  24240023.648      199947.922        2905.891           0.239  
G03  22341022.934      -30860.896        -519.730           0.255  
G04  23602284.649     -123827.825       -2121.564           0.244  
G05  22515826.007      122182.608        2040.031           0.255  
G06  20632043.621      -25089.787        -493.682           0.255  
G07  23397645.200      -63913.329       -1305.260           0.248  
G09  23119972.734      -58746.197       -1428.337           0.251  
> 2023 05 18 00 01 14.9688020  0  7                     
G02  24239951.142      200238.868        2930.940           0.239  
G03  22341035.014      -30912.869        -504.117           0.255  
G04  23602338.126     -124039.599       -2072.152           0.244  
G05  22515773.951      122386.572        2040.161           0.255  
G06  20632056.348      -25139.292        -495.152           0.255  
G07  23397678.331      -64043.843       -1305.223           0.248  
G09  23120008.805      -58888.526       -1427.960           0.252  
> 2023 05 18 00 01 15.0688020  0  7                     
G02  24239877.641      200529.047        2904.117           0.239  
G03  22341049.453      -30964.522        -517.679           0.255  
G04  23602392.218     -124252.083       -2120.473           0.244  
G05  22515721.768      122590.535        2040.168           0.255  
G06  20632069.166      -25188.801        -495.833           0.255  
G07  23397711.569      -64174.366       -1305.111           0.248  
G09  23120044.669      -59031.494       -1425.888           0.252  
> 2023 05 18 00 01 15.1688020  0  7                     
G02  24239803.513      200819.797        2912.656           0.239  
G03  22341062.404      -31016.353        -518.048           0.255  
G04  23602446.052     -124464.209       -2120.738           0.244  
G05  22515669.755      122794.916        2044.919           0.255  
G06  20632082.172      -25238.299        -494.923           0.255  
G07  23397745.097      -64304.888       -1305.213           0.248  
G09  23120080.026      -59173.755       -1404.078           0.252  
> 2023 05 18 00 01 15.2688020  0  7                     
G02  24239728.768      201110.173        2902.822           0.239  
G03  22341074.498      -31068.198        -519.584           0.255  
G04  23602500.450     -124676.350       -2120.140           0.244  
G05  22515617.728      122998.444        2039.440           0.255  
G06  20632094.970      -25287.800        -494.205           0.255  
G07  23397778.167      -64435.412       -1305.889           0.248  
G09  23120117.576      -59316.824       -1427.496           0.251  
> 2023 05 18 00 01 15.3688020  0  7                     
G02  24239650.695      201400.747        2906.751           0.239  
G03  22341088.264      -31120.025        -518.659           0.255  
G04  23602557.029     -124888.448       -2136.313           0.244  
G05  22515566.513      123202.398        2038.734           0.255  
G06  20632106.966      -25337.320        -495.615           0.255  
G07  23397811.402      -64565.935       -1304.900           0.248  
G09  23120155.772      -59459.461       -1425.935           0.251  
> 2023 05 18 00 01 15.4688020  0  7                     
G02  24239577.494      201691.316        2905.925           0.239  
G03  22341102.928      -31171.867        -520.303           0.255  
G04  23602611.225     -125100.638       -2121.185           0.244  
G05  22515514.125      123406.342        2038.509           0.255  
G06  20632119.260      -25386.827        -494.070           0.255  
G07  23397844.771      -64696.408       -1281.314           0.248  
G09  23120189.227      -59602.141       -1427.913           0.252  
> 2023 05 18 00 01 15.5688020  0  7                     
G02  24239505.031      201981.882        2905.602           0.239  
G03  22341114.673      -31223.720        -520.024           0.255  
G04  23602664.275     -125312.787       -2121.569           0.244  
G05  22515461.832      123610.286        2037.641           0.255  
G06  20632132.150      -25436.341        -493.839           0.255  
G07  23397878.260      -64827.009       -1305.450           0.248  
G09  23120227.048      -59744.789       -1428.133           0.252  
> 2023 05 18 00 01 15.6688020  0  7                     
G02  24239433.059      202272.442        2906.384           0.239  
G03  22341128.731      -31275.558        -518.356           0.255  
G04  23602716.750     -125524.916       -2121.511           0.244  
G05  22515409.931      123814.243        2038.270           0.255  
G06  20632144.661      -25485.866        -494.937           0.255  
G07  23397910.076      -64957.551       -1305.630           0.248  
G09  23120264.440      -59887.451       -1426.242           0.252  
> 2023 05 18 00 01 15.7688020  0  7                     
G02  24239360.184      202563.013        2906.904           0.239  
G03  22341140.594      -31327.405        -516.039           0.255  
G04  23602770.138     -125737.061       -2121.795           0.244  
G05  22515358.263      124018.185        2039.001           0.255  
G06  20632157.366      -25535.395        -496.480           0.255  
G07  23397944.099      -65088.089       -1305.543           0.248  
G09  23120301.687      -60030.107       -1426.260           0.251  
> 2023 05 18 00 01 15.8688020  0  7                     
G02  24239283.707      202853.571        2905.359           0.239  
G03  22341153.829      -31379.277        -517.513           0.255  
G04  23602825.904     -125949.045       -2117.652           0.244  
G05  22515306.048      124221.498        1950.418           0.255  
G06  20632170.252      -25584.920        -496.134           0.255  
G07  23397978.085      -65218.627       -1304.820           0.248  
G09  23120335.689      -60172.775       -1426.634           0.252  
> 2023 05 18 00 01 15.9688020  0  7                     
G02  24239208.611      203144.146        2906.097           0.239  
G03  22341169.090      -31431.143        -517.952           0.255  
G04  23602880.858     -126161.344       -2121.440           0.244  
G05  22515254.090      124425.741        1995.619           0.255  
G06  20632182.285      -25634.448        -495.504           0.255  
G07  23398010.693      -65349.189       -1305.663           0.248  
G09  23120372.615      -60315.538       -1444.929           0.252  
> 2023 05 18 00 01 16.0688020  0  7                     
G02  24239135.513      203434.702        2905.582           0.240  
G03  22341181.182      -31482.705        -475.603           0.255  
G04  23602933.531     -126373.305       -2096.794           0.244  
G05  22515202.010      124630.002        2040.148           0.255  
G06  20632195.256      -25683.989        -496.122           0.255  
G07  23398043.331      -65479.738       -1305.582           0.248  
G09  23120408.769      -60458.102       -1426.549           0.252  
> 2023 05 18 00 01 16.1688020  0  7                     
G02  24239061.800      203725.259        2905.307           0.239  
G03  22341194.781      -31534.883        -519.832           0.255  
G04  23602987.745     -126585.636       -2120.808           0.244  
G05  22515150.105      124833.939        2040.144           0.255  
G06  20632207.003      -25733.526        -494.866           0.255  
G07  23398078.165      -65610.340       -1308.824           0.248  
G09  23120445.088      -60600.758       -1425.636           0.252  
> 2023 05 18 00 01 16.2688020  0  7                     
G02  24238986.635      204015.817        2904.820           0.239  
G03  22341207.168      -31586.767        -519.364           0.255  
G04  23603042.434     -126797.776       -2120.600           0.244  
G05  22515097.986      125037.867        2039.417           0.255  
G06  20632220.137      -25783.059        -494.615           0.255  
G07  23398111.553      -65740.862       -1312.430           0.248  
G09  23120482.158      -60743.238       -1375.844           0.252  
> 2023 05 18 00 01 16.3688020  0  7                     
G02  24238913.437      204306.382        2906.198           0.239  
G03  22341221.668      -31638.651        -518.826           0.255  
G04  23603095.644     -127009.921       -2120.834           0.244  
G05  22515046.321      125241.796        2039.578           0.255  
G06  20632233.020      -25832.601        -495.556           0.255  
G07  23398143.819      -65871.411       -1306.143           0.248  
G09  23120517.608      -60886.087       -1425.712           0.251  
> 2023 05 18 00 01 16.4688020  0  7                     
G02  24238838.516      204596.939        2905.249           0.239  
G03  22341232.645      -31690.532        -521.015           0.255  
G04  23603150.232     -127222.070       -2120.779           0.244  
G05  22514994.299      125445.721        2039.600           0.255  
G06  20632246.263      -25882.157        -494.613           0.255  
G07  23398177.379      -66001.965       -1305.386           0.248  
G09  23120553.285      -61028.748       -1425.586           0.251  
> 2023 05 18 00 01 16.5688020  0  7                     
G02  24238764.754      204887.507        2903.769           0.239  
G03  22341245.398      -31742.402        -518.451           0.255  
G04  23603204.058     -127434.227       -2120.771           0.244  
G05  22514942.503      125649.647        2039.531           0.255  
G06  20632259.238      -25931.714        -495.888           0.255  
G07  23398210.214      -66132.528       -1305.467           0.248  
G09  23120591.794      -61171.420       -1425.872           0.251  
> 2023 05 18 00 01 16.6688020  0  7                     
G02  24238690.995      205178.079        2904.863           0.239  
G03  22341260.173      -31794.295        -514.636           0.255  
G04  23603258.271     -127646.377       -2121.251           0.244  
G05  22514890.620      125853.573        2039.694           0.255  
G06  20632271.049      -25981.261        -497.139           0.255  
G07  23398244.266      -66263.092       -1305.136           0.248  
G09  23120627.176      -61314.104       -1426.490           0.251  
> 2023 05 18 00 01 16.7688020  0  7                     
G02  24238617.285      205468.656        2905.124           0.238  
G03  22341273.008      -31846.261        -511.838           0.255  
G04  23603312.108     -127859.337       -2183.070           0.243  
G05  22514838.331      126057.505        2039.776           0.255  
G06  20632283.897      -26030.819        -496.449           0.255  
G07  23398277.422      -66393.669       -1305.215           0.248  
G09  23120662.835      -61456.755       -1425.068           0.251  
> 2023 05 18 00 01 16.8688020  0  7                     
G02  24238544.219      205759.231        2907.825           0.239  
G03  22341289.366      -31898.097        -518.714           0.255  
G04  23603365.828     -128070.689       -2122.757           0.244  
G05  22514786.296      126261.415        2038.921           0.255  
G06  20632295.137      -26080.392        -496.040           0.255  
G07  23398310.077      -66524.242       -1305.086           0.248  
G09  23120699.860      -61599.436       -1427.016           0.251  
> 2023 05 18 00 01 16.9688020  0  7                     
G02  24238469.031      206049.790        2906.877           0.239  
G03  22341301.590      -31950.602        -640.275           0.255  
G04  23603420.403     -128282.844       -2121.956           0.244  
G05  22514734.505      126465.330        2038.185           0.255  
G06  20632308.500      -26129.946        -494.627           0.255  
G07  23398343.813      -66654.817       -1306.446           0.248  
G09  23120736.173      -61742.108       -1427.491           0.251  
> 2023 05 18 00 01 17.0688020  0  7                     
G02  24238394.399      206340.337        2906.391           0.239  
G03  22341313.366      -32001.945        -518.360           0.255  
G04  23603475.046     -128494.988       -2121.875           0.244  
G05  22514682.277      126669.239        2037.878           0.255  
G06  20632321.556      -26179.505        -495.907           0.255  
G07  23398376.736      -66785.401       -1305.791           0.248  
G09  23120772.620      -61884.777       -1427.140           0.252  
> 2023 05 18 00 01 17.1688020  0  7                     
G02  24238322.105      206630.898        2904.758           0.239  
G03  22341326.931      -32053.855        -519.188           0.255  
G04  23603528.315     -128707.142       -2120.700           0.244  
G05  22514630.565      126873.156        2038.723           0.255  
G06  20632334.373      -26229.092        -495.967           0.255  
G07  23398409.345      -66915.986       -1304.985           0.248  
G09  23120808.230      -62027.431       -1426.025           0.252  
> 2023 05 18 00 01 17.2688020  0  7                     
G02  24238247.425      206921.476        2905.591           0.239  
G03  22341339.576      -32105.767        -519.054           0.255  
G04  23603583.081     -128919.314       -2122.109           0.244  
G05  22514578.291      127077.076        2040.162           0.255  
G06  20632346.946      -26278.665        -496.406           0.255  
G07  23398442.836      -67046.573       -1306.035           0.248  
G09  23120844.494      -62170.111       -1426.198           0.251  
> 2023 05 18 00 01 17.3688020  0  7                     
G02  24238173.442      207212.039        2906.062           0.239  
G03  22341352.620      -32157.699        -517.642           0.255  
G04  23603637.277     -129131.465       -2121.747           0.244  
G05  22514526.295      127280.986        2039.854           0.255  
G06  20632360.101      -26328.245        -496.560           0.255  
G07  23398476.127      -67177.161       -1304.006           0.248  
G09  23120880.456      -62312.770       -1425.859           0.252  
> 2023 05 18 00 01 17.4688020  0  7                     
G02  24238098.718      207502.594        2905.576           0.239  
G03  22341368.355      -32209.024        -459.688           0.255  
G04  23603691.183     -129343.620       -2121.613           0.244  
G05  22514474.358      127484.891        2039.635           0.255  
G06  20632371.356      -26377.826        -495.529           0.255  
G07  23398509.859      -67307.754       -1305.785           0.248  
G09  23120916.785      -62455.448       -1425.477           0.252  
> 2023 05 18 00 01 17.5688020  0  7                     
G02  24238024.242      207793.157        2905.492           0.240  
G03  22341379.977      -32261.586        -521.247           0.255  
G04  23603745.055     -129555.774       -2121.122           0.244  
G05  22514423.030      127688.796        2039.438           0.255  
G06  20632384.299      -26427.395        -494.468           0.255  
G07  23398543.224      -67438.345       -1296.603           0.248  
G09  23120954.870      -62598.125       -1391.617           0.252  
> 2023 05 18 00 01 17.6688020  0  7                     
G02  24237950.186      208083.726        2905.789           0.239  
G03  22341393.185      -32313.496        -520.016           0.255  
G04  23603799.396     -129767.942       -2121.273           0.244  
G05  22514370.783      127892.911        2105.795           0.255  
G06  20632397.220      -26477.005        -495.788           0.255  
G07  23398575.794      -67568.942       -1305.366           0.248  
G09  23120990.800      -62740.808       -1426.241           0.252  
> 2023 05 18 00 01 17.7688020  0  7                     
G02  24237875.339      208374.267        2904.428           0.239  
G03  22341406.485      -32365.477        -518.251           0.255  
G04  23603854.134     -129980.105       -2120.798           0.244  
G05  22514318.715      128096.588        2039.269           0.255  
G06  20632409.755      -26526.573        -496.174           0.255  
G07  23398609.275      -67699.549       -1305.909           0.248  
G09  23121027.309      -62883.395       -1417.287           0.252  
> 2023 05 18 00 01 17.8688020  0  7                     
G02  24237800.999      208664.822        2904.655           0.239  
G03  22341421.850      -32417.418        -520.419           0.255  
G04  23603907.879     -130192.228       -2143.723           0.244  
G05  22514266.786      128300.494        2039.194           0.255  
G06  20632421.448      -26576.179        -496.027           0.255  
G07  23398644.026      -67830.153       -1305.677           0.248  
G09  23121063.166      -63026.162       -1427.270           0.251  
> 2023 05 18 00 01 17.9688020  0  7                     
G02  24237727.596      208955.379        2905.919           0.239  
G03  22341433.203      -32469.376        -522.563           0.255  
G04  23603961.981     -130404.426       -2120.903           0.244  
G05  22514214.859      128504.385        2038.135           0.255  
G06  20632434.383      -26625.776        -494.632           0.255  
G07  23398676.916      -67960.759       -1305.758           0.248  
G09  23121100.632      -63168.833       -1426.915           0.251  
> 2023 05 18 00 01 18.0688020  0  7                     
G02  24237652.587      209245.939        2905.310           0.239  
G03  22341445.268      -32521.305        -517.928           0.255  
G04  23604016.850     -130616.600       -2121.763           0.244  
G05  22514163.014      128708.272        2037.625           0.255  
G06  20632447.896      -26675.388        -496.709           0.255  
G07  23398710.114      -68091.373       -1306.714           0.248  
G09  23121136.627      -63311.513       -1426.364           0.251  
> 2023 05 18 00 01 18.1688020  0  7                     
G02  24237580.056      209536.514        2906.144           0.239  
G03  22341457.792      -32573.671        -540.771           0.255  
G04  23604069.806     -130828.338       -2081.188           0.244  
G05  22514110.924      128912.173        2038.477           0.255  
G06  20632460.094      -26724.977        -496.162           0.255  
G07  23398743.298      -68222.116       -1297.359           0.248  
G09  23121173.482      -63454.215       -1442.977           0.251  
> 2023 05 18 00 01 18.2688020  0  7                     
G02  24237506.251      209827.213        2911.363           0.239  
G03  22341470.885      -32625.246        -518.466           0.255  
G04  23604124.373     -131040.940       -2123.102           0.244  
G05  22514058.842      129116.067        2039.871           0.255  
G06  20632474.349      -26774.593        -495.938           0.255  
G07  23398775.781      -68352.600       -1306.584           0.248  
G09  23121207.162      -63596.866       -1427.383           0.252  
> 2023 05 18 00 01 18.3688020  0  7                     
G02  24237432.109      210117.612        2904.270           0.239  
G03  22341485.586      -32677.449        -611.722           0.255  
G04  23604177.853     -131253.258       -2149.012           0.244  
G05  22514006.891      129319.748        1992.064           0.255  
G06  20632486.140      -26824.214        -495.168           0.255  
G07  23398809.240      -68483.288       -1331.973           0.248  
G09  23121244.666      -63739.558       -1417.272           0.252  
> 2023 05 18 00 01 18.4688020  0  7                     
G02  24237358.321      210408.184        2905.719           0.239  
G03  22341497.600      -32729.671        -510.513           0.255  
G04  23604231.370     -131465.131       -2096.953           0.244  
G05  22513955.148      129523.841        2039.378           0.255  
G06  20632498.805      -26873.820        -495.765           0.255  
G07  23398842.864      -68613.825       -1306.279           0.248  
G09  23121281.095      -63882.227       -1426.701           0.252  
> 2023 05 18 00 01 18.5688020  0  7                     
G02  24237284.335      210698.740        2905.782           0.239  
G03  22341511.363      -32781.152        -517.977           0.255  
G04  23604285.527     -131677.443       -2121.680           0.244  
G05  22513903.086      129727.717        2039.531           0.255  
G06  20632511.646      -26923.461        -497.303           0.255  
G07  23398876.157      -68744.449       -1306.261           0.248  
G09  23121317.502      -64024.931       -1426.209           0.252  
> 2023 05 18 00 01 18.6688020  0  7                     
G02  24237210.247      210989.289        2904.802           0.239  
G03  22341525.362      -32833.153        -522.068           0.255  
G04  23604339.512     -131889.611       -2121.256           0.244  
G05  22513850.892      129931.596        2039.099           0.255  
G06  20632523.984      -26973.080        -496.028           0.255  
G07  23398909.694      -68875.077       -1306.550           0.248  
G09  23121353.094      -64167.581       -1425.800           0.251  
> 2023 05 18 00 01 18.7688020  0  7                     
G02  24237136.427      211279.845        2906.351           0.239  
G03  22341538.027      -32885.149        -518.441           0.255  
G04  23604393.288     -132101.790       -2121.864           0.244  
G05  22513799.338      130135.475        2038.661           0.255  
G06  20632536.770      -27022.697        -496.668           0.255  
G07  23398942.919      -69005.709       -1306.301           0.248  
G09  23121389.735      -64310.274       -1427.085           0.251  
> 2023 05 18 00 01 18.8688020  0  7                     
G02  24237061.839      211570.403        2906.293           0.239  
G03  22341551.495      -32937.111        -519.703           0.255  
G04  23604448.249     -132313.969       -2121.438           0.244  
G05  22513746.965      130339.347        2037.691           0.255  
G06  20632549.487      -27072.349        -497.271           0.255  
G07  23398975.906      -69136.340       -1306.534           0.248  
G09  23121426.653      -64452.953       -1425.927           0.252  
> 2023 05 18 00 01 18.9688020  0  7                     
G02  24236986.497      211860.653        2892.938           0.239  
G03  22341565.530      -32989.157        -521.971           0.255  
G04  23604502.704     -132526.143       -2121.336           0.244  
G05  22513695.373      130543.221        2037.523           0.255  
G06  20632561.266      -27121.947        -494.780           0.255  
G07  23399008.745      -69266.970       -1306.081           0.248  
G09  23121463.381      -64595.638       -1426.113           0.251  
> 2023 05 18 00 01 19.0688020  0  7                     
G02  24236914.431      212151.524        2907.067           0.239  
G03  22341578.390      -33041.139        -517.567           0.255  
G04  23604555.688     -132738.330       -2123.306           0.244  
G05  22513643.666      130747.098        2039.073           0.255  
G06  20632574.851      -27171.593        -497.044           0.255  
G07  23399041.842      -69397.616       -1306.913           0.248  
G09  23121499.238      -64738.322       -1426.467           0.251  
> 2023 05 18 00 01 19.1688020  0  7                     
G02  24236839.216      212442.067        2905.749           0.239  
G03  22341590.693      -33093.132        -521.124           0.255  
G04  23604609.920     -132950.491       -2121.104           0.244  
G05  22513591.589      130950.972        2039.230           0.255  
G06  20632587.694      -27221.246        -496.257           0.255  
G07  23399075.393      -69528.306       -1314.764           0.248  
G09  23121535.746      -64881.004       -1425.879           0.252  
> 2023 05 18 00 01 19.2688020  0  7                     
G02  24236766.070      212732.625        2904.472           0.239  
G03  22341603.376      -33145.173        -521.140           0.255  
G04  23604663.945     -133162.434       -2125.491           0.244  
G05  22513539.616      131155.309        2092.429           0.255  
G06  20632599.904      -27270.873        -496.015           0.255  
G07  23399108.626      -69658.907       -1306.810           0.248  
G09  23121572.412      -65023.690       -1425.653           0.251  
> 2023 05 18 00 01 19.3688020  0  7                     
G02  24236692.209      213023.198        2906.655           0.239  
G03  22341617.251      -33197.167        -517.748           0.255  
G04  23604718.121     -133374.866       -2122.945           0.244  
G05  22513487.501      131358.696        2039.031           0.255  
G06  20632612.980      -27320.528        -497.305           0.255  
G07  23399142.023      -69789.547       -1310.043           0.248  
G09  23121608.555      -65166.393       -1426.998           0.252  
> 2023 05 18 00 01 19.4688020  0  7                     
G02  24236617.402      213313.749        2906.690           0.239  
G03  22341631.053      -33249.195        -521.111           0.255  
G04  23604772.365     -133587.365       -2133.170           0.244  
G05  22513435.508      131562.564        2039.403           0.255  
G06  20632625.273      -27370.183        -495.854           0.255  
G07  23399176.129      -69920.202       -1306.543           0.248  
G09  23121644.672      -65309.073       -1426.942           0.252  
> 2023 05 18 00 01 19.5688020  0  7                     
G02  24236543.496      213604.287        2904.405           0.239  
G03  22341643.930      -33301.228        -519.435           0.255  
G04  23604826.706     -133799.214       -2120.969           0.244  
G05  22513383.495      131766.426        2038.337           0.255  
G06  20632637.708      -27419.828        -496.645           0.255  
G07  23399209.343      -70050.860       -1307.294           0.248  
G09  23121681.361      -65451.755       -1426.655           0.252  
> 2023 05 18 00 01 19.6688020  0  7                     
G02  24236470.152      213894.865        2906.323           0.239  
G03  22341658.002      -33353.250        -519.316           0.255  
G04  23604880.168     -134011.404       -2121.954           0.244  
G05  22513331.719      131970.276        2037.295           0.255  
G06  20632650.368      -27469.496        -496.683           0.255  
G07  23399242.956      -70181.516       -1306.959           0.248  
G09  23121717.424      -65594.456       -1427.716           0.251  
> 2023 05 18 00 01 19.7688020  0  7                     
G02  24236395.058      214185.415        2906.906           0.239  
G03  22341670.965      -33405.304        -522.982           0.255  
G04  23604934.708     -134223.583       -2122.513           0.244  
G05  22513279.857      132174.137        2038.129           0.255  
G06  20632662.716      -27519.145        -495.044           0.255  
G07  23399275.758      -70312.168       -1306.747           0.248  
G09  23121754.410      -65737.132       -1426.720           0.252  
> 2023 05 18 00 01 19.8688020  0  7                     
G02  24236322.061      214475.962        2904.900           0.239  
G03  22341683.617      -33456.971        -392.027           0.255  
G04  23604987.774     -134435.821       -2125.626           0.244  
G05  22513228.017      132377.995        2038.981           0.255  
G06  20632675.408      -27568.815        -497.329           0.255  
G07  23399308.527      -70442.606       -1297.133           0.248  
G09  23121791.158      -65879.823       -1427.347           0.251  
> 2023 05 18 00 01 19.9688020  0  7                     
G02  24236247.786      214766.528        2905.693           0.239  
G03  22341697.599      -33509.361        -521.944           0.255  
G04  23605042.647     -134647.956       -2122.359           0.244  
G05  22513175.950      132581.851        2038.756           0.255  
G06  20632688.279      -27618.493        -496.497           0.255  
G07  23399342.163      -70573.491       -1306.113           0.248  
G09  23121826.665      -66022.747       -1459.630           0.251  
> 2023 05 18 00 01 20.0688020  0  7                     
G02  24236172.952      215057.087        2905.532           0.239  
G03  22341710.270      -33561.455        -523.015           0.255  
G04  23605096.998     -134860.142       -2121.658           0.244  
G05  22513124.015      132785.694        2038.872           0.255  
G06  20632701.029      -27668.134        -494.851           0.255  
G07  23399375.303      -70704.160       -1306.772           0.248  
G09  23121862.733      -66165.201       -1426.427           0.251  
> 2023 05 18 00 01 20.1688020  0  7                     
G02  24236099.199      215347.653        2906.303           0.239  
G03  22341723.588      -33613.457        -518.460           0.255  
G04  23605151.159     -135072.341       -2122.759           0.244  
G05  22513071.863      132989.543        2038.926           0.255  
G06  20632714.052      -27717.841        -498.378           0.255  
G07  23399408.663      -70834.833       -1306.750           0.248  
G09  23121899.190      -66307.896       -1426.325           0.251  
> 2023 05 18 00 01 20.2688020  0  7                     
G02  24236024.471      215638.208        2906.896           0.239  
G03  22341738.040      -33665.530        -523.398           0.255  
G04  23605205.215     -135284.525       -2123.358           0.244  
G05  22513020.208      133193.385        2037.763           0.255  
G06  20632726.142      -27767.511        -495.742           0.255  
G07  23399441.856      -70965.499       -1306.257           0.248  
G09  23121935.023      -66450.591       -1426.750           0.251  
> 2023 05 18 00 01 20.3688020  0  7                     
G02  24235950.779      215928.742        2905.141           0.239  
G03  22341749.264      -33717.604        -519.830           0.255  
G04  23605259.266     -135496.700       -2121.395           0.244  
G05  22512967.955      133397.225        2037.192           0.255  
G06  20632739.829      -27817.181        -496.872           0.255  
G07  23399475.160      -71096.186       -1307.579           0.248  
G09  23121971.858      -66593.286       -1427.214           0.252  
> 2023 05 18 00 01 20.4688020  0  7                     
G02  24235877.340      216219.309        2906.095           0.239  
G03  22341763.060      -33769.639        -519.439           0.255  
G04  23605312.758     -135708.907       -2122.199           0.244  
G05  22512915.898      133601.075        2039.075           0.255  
G06  20632751.959      -27866.885        -497.795           0.255  
G07  23399508.831      -71226.857       -1307.219           0.248  
G09  23122009.494      -66735.981       -1426.857           0.251  
> 2023 05 18 00 01 20.5688020  0  7                     
G02  24235803.124      216509.862        2905.820           0.239  
G03  22341776.387      -33821.736        -521.194           0.255  
G04  23605367.260     -135921.096       -2121.971           0.244  
G05  22512864.131      133804.917        2039.029           0.255  
G06  20632764.152      -27916.554        -496.113           0.255  
G07  23399541.571      -71357.537       -1306.974           0.248  
G09  23122045.586      -66878.673       -1427.110           0.251  
> 2023 05 18 00 01 20.6688020  0  7                     
G02  24235729.014      216800.420        2905.751           0.239  
G03  22341789.747      -33873.802        -519.427           0.255  
G04  23605420.837     -136133.290       -2121.953           0.244  
G05  22512812.555      134008.747        2038.251           0.255  
G06  20632777.228      -27966.250        -497.301           0.255  
G07  23399574.514      -71488.217       -1305.734           0.248  
G09  23122081.267      -67021.371       -1427.854           0.251  
> 2023 05 18 00 01 20.7688020  0  7                     
G02  24235655.243      217090.977        2904.928           0.239  
G03  22341803.908      -33925.877        -522.051           0.255  
G04  23605474.899     -136345.483       -2121.790           0.244  
G05  22512760.442      134212.573        2038.490           0.255  
G06  20632789.352      -28015.955        -496.499           0.255  
G07  23399608.393      -71618.908       -1307.164           0.248  
G09  23122117.625      -67164.057       -1427.199           0.251  
> 2023 05 18 00 01 20.8688020  0  7                     
G02  24235580.844      217381.539        2905.327           0.239  
G03  22341816.446      -33977.969        -520.606           0.255  
G04  23605529.227     -136557.678       -2121.844           0.244  
G05  22512708.146      134416.407        2037.942           0.255  
G06  20632802.110      -28065.638        -497.168           0.255  
G07  23399641.848      -71749.601       -1306.942           0.248  
G09  23122154.338      -67306.764       -1427.765           0.252  
> 2023 05 18 00 01 20.9688020  0  7                     
G02  24235506.926      217672.095        2904.232           0.239  
G03  22341829.919      -34030.036        -518.716           0.255  
G04  23605583.389     -136769.867       -2120.787           0.244  
G05  22512656.182      134620.234        2037.209           0.255  
G06  20632815.092      -28115.353        -498.552           0.255  
G07  23399674.790      -71880.296       -1307.314           0.248  
G09  23122190.514      -67449.462       -1427.394           0.251  
> 2023 05 18 00 01 21.0688020  0  7                     
G02  24235433.186      217962.657        2906.110           0.239  
G03  22341843.896      -34082.153        -524.060           0.255  
G04  23605637.085     -136982.080       -2122.505           0.244  
G05  22512604.175      134824.067        2038.556           0.255  
G06  20632828.123      -28165.049        -495.805           0.255  
G07  23399707.830      -72010.988       -1306.829           0.248  
G09  23122225.887      -67592.161       -1427.577           0.251  
> 2023 05 18 00 01 21.1688020  0  7                     
G02  24235359.280      218253.209        2905.353           0.239  
G03  22341856.169      -34134.251        -518.706           0.255  
G04  23605690.805     -137194.273       -2121.580           0.244  
G05  22512552.251      135027.901        2039.080           0.255  
G06  20632840.633      -28214.756        -497.718           0.255  
G07  23399741.577      -72141.688       -1307.225           0.248  
G09  23122262.682      -67734.859       -1428.774           0.251  
> 2023 05 18 00 01 21.2688020  0  7                     
G02  24235285.438      218543.769        2904.479           0.239  
G03  22341870.046      -34186.330        -521.228           0.255  
G04  23605745.267     -137406.474       -2120.975           0.244  
G05  22512500.336      135231.712        2038.407           0.255  
G06  20632852.848      -28264.485        -497.542           0.255  
G07  23399775.135      -72272.390       -1307.088           0.248  
G09  23122299.085      -67877.560       -1427.490           0.251  
> 2023 05 18 00 01 21.3688020  0  7                     
G02  24235212.177      218834.316        2904.899           0.239  
G03  22341883.169      -34239.540        -584.000           0.255  
G04  23605799.082     -137618.660       -2141.254           0.244  
G05  22512448.754      135435.750        2097.740           0.255  
G06  20632865.463      -28314.168        -495.559           0.255  
G07  23399808.502      -72403.059       -1294.208           0.248  
G09  23122336.004      -68020.103       -1383.339           0.252  
> 2023 05 18 00 01 21.4688020  0  7                     
G02  24235137.407      219124.873        2905.303           0.239  
G03  22341896.252      -34290.547        -517.689           0.255  
G04  23605853.670     -137830.971       -2128.300           0.244  
G05  22512396.808      135638.965        1975.069           0.255  
G06  20632878.658      -28363.914        -499.304           0.255  
G07  23399841.790      -72533.792       -1303.580           0.248  
G09  23122372.112      -68162.727       -1375.791           0.252  
> 2023 05 18 00 01 21.5688020  0  7                     
G02  24235063.162      219415.485        2919.386           0.239  
G03  22341909.945      -34342.684        -523.575           0.255  
G04  23605908.202     -138043.162       -2167.318           0.244  
G05  22512344.956      135843.181        2079.996           0.255  
G06  20632891.068      -28413.628        -496.392           0.255  
G07  23399874.905      -72664.496       -1281.232           0.248  
G09  23122407.622      -68305.666       -1435.806           0.252  
> 2023 05 18 00 01 21.6688020  0  7                     
G02  24234989.329      219706.006        2906.852           0.239  
G03  22341923.130      -34394.809        -520.291           0.255  
G04  23605961.740     -138255.276       -2077.940           0.244  
G05  22512292.656      136047.036        2020.257           0.255  
G06  20632903.652      -28463.343        -497.476           0.255  
G07  23399908.452      -72795.259       -1308.784           0.248  
G09  23122444.368      -68448.359       -1427.743           0.251  
> 2023 05 18 00 01 21.7688020  0  7                     
G02  24234915.163      219996.550        2905.591           0.239  
G03  22341936.305      -34446.921        -521.387           0.255  
G04  23606015.635     -138467.495       -2122.209           0.244  
G05  22512240.912      136250.802        2038.773           0.255  
G06  20632916.329      -28513.079        -496.965           0.255  
G07  23399941.822      -72925.949       -1307.477           0.248  
G09  23122481.571      -68591.073       -1429.078           0.251  
> 2023 05 18 00 01 21.8688020  0  7                     
G02  24234840.817      220287.105        2904.059           0.239  
G03  22341949.173      -34499.081        -523.037           0.255  
G04  23606069.607     -138679.682       -2172.981           0.244  
G05  22512189.002      136454.802        2113.202           0.255  
G06  20632929.029      -28562.794        -496.118           0.255  
G07  23399975.330      -73056.749       -1308.020           0.248  
G09  23122518.089      -68733.701       -1406.568           0.251  
> 2023 05 18 00 01 21.9688020  0  7                     
G02  24234766.753      220577.674        2905.649           0.239  
G03  22341962.502      -34551.179        -518.553           0.255  
G04  23606123.729     -138891.912       -2122.585           0.244  
G05  22512136.953      136658.418        2037.683           0.255  
G06  20632941.941      -28612.552        -499.237           0.255  
G07  23400008.450      -73187.394       -1307.217           0.248  
G09  23122554.082      -68876.479       -1427.359           0.252  
> 2023 05 18 00 01 22.0688020  0  7                     
G02  24234692.324      220868.230        2905.839           0.239  
G03  22341976.224      -34603.337        -523.518           0.255  
G04  23606178.143     -139104.114       -2122.689           0.244  
G05  22512085.230      136862.222        2037.165           0.255  
G06  20632954.482      -28662.280        -496.271           0.255  
G07  23400041.450      -73318.118       -1307.240           0.248  
G09  23122590.899      -69019.184       -1426.751           0.252  
> 2023 05 18 00 01 22.1688020  0  7                     
G02  24234618.711      221158.936        2943.278           0.239  
G03  22341989.185      -34655.479        -519.244           0.255  
G04  23606232.085     -139316.331       -2121.195           0.244  
G05  22512033.207      137066.034        2038.699           0.255  
G06  20632967.162      -28712.019        -498.446           0.255  
G07  23400074.743      -73448.850       -1307.798           0.248  
G09  23122627.155      -69161.891       -1426.607           0.252  
> 2023 05 18 00 01 22.2688020  0  7                     
G02  24234544.962      221449.342        2904.358           0.239  
G03  22342002.317      -34707.617        -521.957           0.255  
G04  23606286.468     -139528.536       -2120.437           0.244  
G05  22511981.162      137269.840        2038.725           0.255  
G06  20632979.894      -28761.775        -497.208           0.255  
G07  23400107.935      -73579.580       -1306.989           0.248  
G09  23122663.930      -69304.600       -1427.499           0.252  
> 2023 05 18 00 01 22.3688020  0  7                     
G02  24234470.838      221739.974        2877.846           0.239  
G03  22342015.731      -34759.789        -522.172           0.255  
G04  23606340.184     -139740.765       -2122.945           0.244  
G05  22511929.191      137473.624        2038.042           0.255  
G06  20632992.312      -28811.504        -496.785           0.255  
G07  23400141.502      -73710.308       -1307.470           0.248  
G09  23122699.856      -69447.305       -1427.312           0.251  
> 2023 05 18 00 01 22.4688020  0  7                     
G02  24234396.364      222030.461        2905.216           0.239  
G03  22342029.611      -34811.904        -517.580           0.255  
G04  23606395.331     -139952.978       -2121.435           0.244  
G05  22511876.769      137677.427        2037.697           0.255  
G06  20633005.245      -28861.278        -499.928           0.255  
G07  23400174.410      -73841.048       -1307.241           0.248  
G09  23122736.539      -69590.011       -1427.054           0.251  
> 2023 05 18 00 01 22.5688020  0  7                     
G02  24234322.246      222321.024        2905.475           0.239  
G03  22342042.929      -34864.080        -522.364           0.255  
G04  23606448.041     -140165.210       -2122.909           0.244  
G05  22511825.313      137881.218        2037.215           0.255  
G06  20633017.581      -28911.022        -496.909           0.255  
G07  23400208.201      -73971.782       -1307.691           0.248  
G09  23122772.913      -69732.727       -1427.475           0.252  
> 2023 05 18 00 01 22.6688020  0  7                     
G02  24234247.874      222611.584        2905.215           0.239  
G03  22342055.051      -34916.262        -520.219           0.255  
G04  23606503.622     -140377.415       -2122.191           0.244  
G05  22511773.223      138085.021        2038.942           0.255  
G06  20633030.712      -28960.782        -498.090           0.255  
G07  23400241.183      -74102.534       -1307.653           0.248  
G09  23122809.565      -69875.419       -1426.559           0.251  
> 2023 05 18 00 01 22.7688020  0  7                     
G02  24234175.403      222902.139        2905.712           0.239  
G03  22342069.310      -34968.416        -522.230           0.255  
G04  23606556.716     -140589.649       -2124.121           0.244  
G05  22511721.094      138288.807        2038.345           0.255  
G06  20633042.911      -29010.557        -497.614           0.255  
G07  23400274.583      -74233.271       -1307.524           0.248  
G09  23122845.120      -70018.134       -1425.935           0.251  
> 2023 05 18 00 01 22.8688020  0  7                     
G02  24234099.381      223192.681        2905.445           0.239  
G03  22342082.157      -35020.607        -522.258           0.255  
G04  23606611.130     -140801.846       -2121.354           0.244  
G05  22511669.802      138492.595        2038.194           0.255  
G06  20633055.604      -29060.307        -496.863           0.255  
G07  23400307.701      -74364.026       -1307.564           0.248  
G09  23122881.530      -70160.853       -1427.192           0.252  
> 2023 05 18 00 01 22.9688020  0  7                     
G02  24234025.510      223483.238        2904.945           0.239  
G03  22342095.089      -35072.758        -520.135           0.255  
G04  23606664.278     -141014.069       -2122.039           0.244  
G05  22511618.354      138696.379        2037.404           0.255  
G06  20633068.331      -29110.096        -498.856           0.255  
G07  23400341.379      -74494.766       -1307.420           0.248  
G09  23122918.610      -70303.568       -1427.531           0.251  
> 2023 05 18 00 01 23.0688020  0  7                     
G02  24233951.610      223773.794        2905.792           0.239  
G03  22342109.241      -35124.957        -523.624           0.255  
G04  23606718.308     -141226.226       -2095.298           0.244  
G05  22511566.224      138900.162        2037.521           0.255  
G06  20633081.003      -29159.862        -497.306           0.255  
G07  23400374.650      -74625.532       -1307.875           0.248  
G09  23122953.853      -70446.272       -1426.997           0.251  
> 2023 05 18 00 01 23.1688020  0  7                     
G02  24233877.441      224064.345        2906.287           0.239  
G03  22342122.110      -35176.754        -402.983           0.255  
G04  23606772.254     -141438.511       -2123.146           0.244  
G05  22511514.253      139104.440        2073.431           0.255  
G06  20633094.314      -29209.637        -498.428           0.255  
G07  23400407.940      -74756.281       -1307.504           0.248  
G09  23122989.606      -70588.989       -1427.655           0.252  
> 2023 05 18 00 01 23.2688020  0  7                     
G02  24233803.753      224354.894        2906.312           0.239  
G03  22342136.034      -35229.335        -523.390           0.255  
G04  23606826.500     -141650.718       -2121.268           0.244  
G05  22511462.065      139307.727        2038.110           0.255  
G06  20633106.596      -29259.421        -497.133           0.255  
G07  23400441.412      -74887.049       -1308.462           0.248  
G09  23123026.702      -70731.701       -1427.813           0.251  
> 2023 05 18 00 01 23.3688020  0  7                     
G02  24233730.810      224645.452        2904.726           0.239  
G03  22342148.464      -35281.552        -522.707           0.255  
G04  23606880.625     -141862.952       -2121.796           0.244  
G05  22511410.309      139511.504        2037.798           0.255  
G06  20633119.032      -29309.182        -497.145           0.255  
G07  23400474.758      -75017.808       -1307.636           0.248  
G09  23123063.220      -70874.421       -1427.844           0.252  
> 2023 05 18 00 01 23.4688020  0  7                     
G02  24233656.623      224935.995        2904.732           0.239  
G03  22342162.135      -35333.730        -520.671           0.255  
G04  23606934.762     -142074.786       -2068.103           0.244  
G05  22511357.964      139714.594        1942.463           0.255  
G06  20633132.129      -29358.985        -498.084           0.255  
G07  23400508.129      -75148.538       -1309.364           0.248  
G09  23123099.566      -71017.270       -1442.028           0.252  
> 2023 05 18 00 01 23.5688020  0  7                     
G02  24233582.095      225226.547        2906.245           0.239  
G03  22342174.739      -35385.973        -526.408           0.255  
G04  23606989.035     -142287.396       -2123.042           0.244  
G05  22511306.267      139919.056        2038.174           0.255  
G06  20633144.779      -29408.760        -495.080           0.255  
G07  23400541.354      -75279.343       -1307.737           0.248  
G09  23123136.114      -71159.851       -1426.879           0.251  
> 2023 05 18 00 01 23.6688020  0  7                     
G02  24233507.718      225517.093        2906.245           0.239  
G03  22342188.221      -35438.160        -520.903           0.255  
G04  23607043.441     -142499.621       -2121.876           0.244  
G05  22511254.345      140122.831        2038.465           0.255  
G06  20633157.487      -29458.562        -498.177           0.255  
G07  23400574.404      -75410.114       -1307.811           0.248  
G09  23123172.646      -71302.568       -1426.440           0.252  
> 2023 05 18 00 01 23.7688020  0  7                     
G02  24233434.007      225807.646        2904.550           0.239  
G03  22342202.420      -35490.370        -524.437           0.255  
G04  23607097.142     -142711.839       -2120.464           0.244  
G05  22511202.352      140326.589        2038.138           0.255  
G06  20633169.721      -29508.368        -496.817           0.255  
G07  23400608.032      -75540.891       -1307.426           0.248  
G09  23123208.692      -71445.289       -1426.868           0.252  
> 2023 05 18 00 01 23.8688020  0  7                     
G02  24233359.841      226098.221        2906.352           0.239  
G03  22342215.255      -35542.682        -448.237           0.255  
G04  23607151.662     -142924.090       -2123.185           0.244  
G05  22511150.220      140530.355        2036.788           0.255  
G06  20633182.760      -29558.157        -497.930           0.255  
G07  23400641.452      -75671.671       -1307.758           0.248  
G09  23123245.413      -71588.007       -1427.117           0.251  
> 2023 05 18 00 01 23.9688020  0  7                     
G02  24233286.049      226388.764        2906.130           0.239  
G03  22342228.559      -35594.795        -521.767           0.255  
G04  23607205.548     -143136.313       -2122.998           0.244  
G05  22511098.100      140734.125        2037.437           0.255  
G06  20633195.827      -29607.982        -498.754           0.255  
G07  23400674.737      -75802.451       -1307.600           0.248  
G09  23123281.505      -71730.728       -1427.449           0.252  
> 2023 05 18 00 01 24.0688020  0  7                     
G02  24233211.855      226679.314        2905.266           0.239  
G03  22342241.553      -35647.052        -523.960           0.255  
G04  23607259.812     -143348.776       -2145.406           0.244  
G05  22511046.377      140938.277        2073.692           0.255  
G06  20633208.306      -29657.770        -497.342           0.255  
G07  23400708.120      -75933.333       -1319.035           0.248  
G09  23123317.953      -71873.417       -1418.302           0.252  
> 2023 05 18 00 01 24.1688020  0  7                     
G02  24233136.443      226969.862        2905.072           0.239  
G03  22342255.615      -35698.775        -439.241           0.255  
G04  23607313.986     -143560.787       -2148.505           0.244  
G05  22510994.842      141141.791        2094.485           0.255  
G06  20633220.704      -29707.585        -498.141           0.255  
G07  23400742.190      -76063.948       -1302.393           0.248  
G09  23123353.623      -72015.998       -1410.133           0.251  
> 2023 05 18 00 01 24.2688020  0  7                     
G02  24233064.437      227260.426        2905.745           0.239  
G03  22342269.387      -35751.507        -523.365           0.255  
G04  23607367.273     -143773.013       -2123.104           0.244  
G05  22510942.251      141345.402        2037.429           0.255  
G06  20633232.763      -29757.404        -498.070           0.255  
G07  23400774.805      -76194.817       -1307.960           0.248  
G09  23123391.332      -72158.879       -1427.718           0.252  
> 2023 05 18 00 01 24.3688020  0  7                     
G02  24232989.730      227550.977        2906.674           0.239  
G03  22342282.178      -35803.741        -519.171           0.255  
G04  23607422.068     -143985.243       -2123.810           0.244  
G05  22510890.472      141549.156        2037.218           0.255  
G06  20633246.005      -29807.221        -499.873           0.255  
G07  23400807.991      -76325.609       -1308.068           0.248  
G09  23123427.027      -72301.602       -1427.956           0.252  
> 2023 05 18 00 01 24.4688020  0  7                     
G02  24232915.513      227841.518        2905.127           0.239  
G03  22342295.570      -35855.995        -524.661           0.255  
G04  23607476.293     -144197.468       -2122.161           0.244  
G05  22510838.719      141752.917        2038.107           0.255  
G06  20633258.535      -29857.047        -497.656           0.255  
G07  23400841.314      -76456.407       -1307.692           0.248  
G09  23123463.176      -72444.326       -1427.182           0.251  
> 2023 05 18 00 01 24.5688020  0  7                     
G02  24232841.573      228132.076        2904.488           0.239  
G03  22342308.918      -35908.254        -393.887           0.255  
G04  23607530.013     -144409.711       -2121.388           0.244  
G05  22510786.878      141956.990        2133.638           0.255  
G06  20633271.533      -29906.850        -498.165           0.255  
G07  23400874.670      -76587.238       -1314.658           0.248  
G09  23123499.451      -72587.050       -1426.817           0.252  
> 2023 05 18 00 01 24.6688020  0  7                     
G02  24232767.141      228422.052        2829.344           0.239  
G03  22342321.743      -35960.500        -521.930           0.255  
G04  23607583.900     -144621.800       -2096.629           0.244  
G05  22510735.124      142160.415        2037.380           0.255  
G06  20633284.205      -29956.693        -497.929           0.255  
G07  23400907.866      -76718.004       -1308.148           0.248  
G09  23123536.398      -72729.786       -1427.558           0.251  
> 2023 05 18 00 01 24.7688020  0  7                     
G02  24232692.595      228713.183        2906.357           0.239  
G03  22342335.099      -36012.774        -523.865           0.255  
G04  23607637.944     -144834.194       -2123.582           0.244  
G05  22510683.431      142364.158        2036.784           0.255  
G06  20633297.163      -30006.507        -497.711           0.255  
G07  23400941.395      -76848.805       -1308.059           0.248  
G09  23123572.553      -72872.507       -1426.182           0.251  
> 2023 05 18 00 01 24.8688020  0  7                     
G02  24232619.207      229003.733        2906.268           0.239  
G03  22342348.382      -36065.014        -520.090           0.255  
G04  23607691.551     -145046.513       -2110.001           0.244  
G05  22510631.114      142567.916        2038.180           0.255  
G06  20633309.946      -30056.362        -499.815           0.255  
G07  23400975.654      -76979.614       -1308.106           0.248  
G09  23123609.068      -73015.229       -1426.402           0.251  
> 2023 05 18 00 01 24.9688020  0  7                     
G02  24232545.017      229294.284        2905.497           0.239  
G03  22342362.714      -36118.014        -640.585           0.255  
G04  23607746.345     -145258.656       -2122.068           0.244  
G05  22510579.269      142771.649        2037.746           0.255  
G06  20633321.913      -30106.182        -497.543           0.255  
G07  23401008.253      -77110.420       -1307.518           0.248  
G09  23123644.666      -73157.955       -1426.413           0.251  
> 2023 05 18 00 01 25.0688020  0  7                     
G02  24232471.598      229584.830        2903.937           0.239  
G03  22342376.090      -36169.567        -520.311           0.255  
G04  23607800.590     -145470.900       -2121.297           0.244  
G05  22510527.044      142975.392        2036.943           0.255  
G06  20633334.884      -30156.033        -499.571           0.255  
G07  23401041.400      -77241.231       -1307.841           0.248  
G09  23123680.544      -73300.684       -1428.086           0.251  
> 2023 05 18 00 01 25.1688020  0  7                     
G02  24232396.838      229875.395        2906.155           0.239  
G03  22342388.466      -36221.841        -523.486           0.255  
G04  23607854.998     -145683.147       -2122.899           0.244  
G05  22510475.492      143179.127        2037.352           0.255  
G06  20633347.814      -30205.889        -499.009           0.255  
G07  23401074.391      -77372.052       -1308.096           0.248  
G09  23123718.111      -73443.391       -1426.796           0.252  
> 2023 05 18 00 01 25.2688020  0  7                     
G02  24232322.987      230165.940        2905.088           0.239  
G03  22342401.740      -36274.140        -521.837           0.255  
G04  23607909.330     -145895.390       -2122.383           0.244  
G05  22510423.580      143382.869        2038.053           0.255  
G06  20633360.667      -30255.720        -498.664           0.255  
G07  23401107.749      -77502.866       -1308.175           0.248  
G09  23123754.030      -73586.128       -1428.639           0.251  
> 2023 05 18 00 01 25.3688020  0  7                     
G02  24232248.786      230456.487        2904.098           0.239  
G03  22342414.809      -36326.411        -522.360           0.255  
G04  23607962.879     -146107.575       -2119.789           0.244  
G05  22510371.704      143586.597        2037.580           0.255  
G06  20633373.394      -30305.584        -498.932           0.255  
G07  23401141.328      -77633.698       -1312.984           0.248  
G09  23123791.383      -73728.871       -1427.644           0.252  
> 2023 05 18 00 01 25.4688020  0  7                     
G02  24232174.612      230747.055        2906.521           0.239  
G03  22342428.208      -36378.716        -523.581           0.255  
G04  23608016.569     -146319.882       -2123.062           0.244  
G05  22510320.035      143790.322        2036.166           0.255  
G06  20633385.895      -30355.421        -498.034           0.255  
G07  23401174.926      -77764.519       -1307.943           0.248  
G09  23123826.761      -73871.607       -1428.214           0.252  
> 2023 05 18 00 01 25.5688020  0  7                     
G02  24232101.627      231036.607        2836.756           0.239  
G03  22342442.225      -36431.022        -570.924           0.255  
G04  23608070.340     -146532.431       -2119.902           0.244  
G05  22510267.808      143994.065        2038.295           0.255  
G06  20633398.707      -30405.288        -497.804           0.255  
G07  23401207.572      -77895.318       -1303.135           0.248  
G09  23123862.232      -74014.339       -1428.266           0.251  
> 2023 05 18 00 01 25.6688020  0  7                     
G02  24232028.301      231328.135        2905.974           0.239  
G03  22342455.412      -36483.313        -524.698           0.255  
G04  23608124.117     -146744.368       -2093.738           0.244  
G05  22510215.836      144197.794        2038.122           0.255  
G06  20633410.753      -30455.142        -497.797           0.255  
G07  23401241.088      -78026.132       -1303.070           0.248  
G09  23123900.894      -74157.066       -1426.764           0.251  
> 2023 05 18 00 01 25.7688020  0  7                     
G02  24231954.088      231618.679        2904.450           0.239  
G03  22342468.664      -36535.628        -521.759           0.255  
G04  23608177.766     -146956.630       -2122.429           0.244  
G05  22510164.413      144401.303        2027.071           0.255  
G06  20633423.312      -30505.011        -498.971           0.255  
G07  23401275.051      -78157.085       -1335.454           0.248  
G09  23123936.996      -74299.785       -1425.330           0.251  
> 2023 05 18 00 01 25.8688020  0  7                     
G02  24231879.264      231909.242        2904.639           0.239  
G03  22342481.949      -36587.919        -525.535           0.255  
G04  23608233.100     -147168.879       -2121.755           0.244  
G05  22510111.815      144605.232        2036.640           0.255  
G06  20633436.875      -30554.890        -498.392           0.255  
G07  23401308.031      -78287.853       -1308.154           0.248  
G09  23123971.954      -74442.343       -1398.551           0.251  
> 2023 05 18 00 01 25.9688020  0  7                     
G02  24231804.911      232199.792        2904.214           0.239  
G03  22342494.614      -36640.238        -521.566           0.255  
G04  23608287.431     -147381.131       -2121.252           0.244  
G05  22510059.999      144808.961        2037.962           0.255  
G06  20633449.781      -30604.750        -499.468           0.255  
G07  23401341.183      -78418.697       -1308.465           0.248  
G09  23124008.894      -74585.253       -1427.362           0.252  
> 2023 05 18 00 01 26.0688020  0  7                     
G02  24231730.379      232490.354        2905.700           0.239  
G03  22342508.629      -36692.544        -524.003           0.255  
G04  23608341.840     -147593.387       -2122.003           0.244  
G05  22510008.104      145012.671        2037.613           0.255  
G06  20633462.436      -30654.635        -498.890           0.255  
G07  23401374.448      -78549.540       -1308.531           0.248  
G09  23124045.168      -74727.987       -1427.445           0.251  
> 2023 05 18 00 01 26.1688020  0  7                     
G02  24231656.829      232780.908        2906.987           0.239  
G03  22342521.563      -36744.896        -523.255           0.255  
G04  23608395.957     -147805.645       -2123.015           0.244  
G05  22509956.292      145216.389        2036.512           0.255  
G06  20633474.932      -30704.494        -498.476           0.255  
G07  23401408.224      -78680.383       -1308.248           0.248  
G09  23124081.307      -74870.724       -1427.119           0.252  
> 2023 05 18 00 01 26.2688020  0  7                     
G02  24231582.514      233071.449        2905.114           0.239  
G03  22342534.911      -36796.665        -527.484           0.255  
G04  23608449.941     -148017.891       -2121.821           0.244  
G05  22509904.331      145420.103        2037.377           0.255  
G06  20633487.709      -30754.402        -499.964           0.255  
G07  23401441.411      -78811.152       -1304.926           0.248  
G09  23124117.639      -75013.500       -1416.902           0.251  
> 2023 05 18 00 01 26.3688020  0  7                     
G02  24231509.317      233362.005        2905.327           0.239  
G03  22342548.410      -36849.558        -524.944           0.255  
G04  23608503.491     -148230.148       -2122.115           0.244  
G05  22509852.394      145623.944        2089.295           0.255  
G06  20633500.087      -30804.263        -497.791           0.255  
G07  23401474.657      -78942.083       -1308.351           0.248  
G09  23124154.056      -75156.197       -1427.266           0.252  
> 2023 05 18 00 01 26.4688020  0  7                     
G02  24231434.849      233652.541        2904.186           0.239  
G03  22342561.942      -36900.780        -444.550           0.255  
G04  23608557.681     -148442.522       -2139.379           0.244  
G05  22509800.440      145827.522        2037.128           0.255  
G06  20633512.892      -30854.173        -500.531           0.255  
G07  23401507.907      -79072.941       -1308.892           0.248  
G09  23124190.381      -75298.933       -1426.954           0.251  
> 2023 05 18 00 01 26.5688020  0  7                     
G02  24231360.695      233943.092        2904.273           0.239  
G03  22342575.126      -36954.236        -527.013           0.255  
G04  23608612.085     -148654.664       -2121.942           0.244  
G05  22509748.438      146031.224        2035.998           0.255  
G06  20633525.569      -30904.042        -496.791           0.255  
G07  23401541.124      -79203.796       -1308.577           0.248  
G09  23124226.748      -75441.671       -1426.808           0.252  
> 2023 05 18 00 01 26.6688020  0  7                     
G02  24231286.882      234233.650        2904.377           0.239  
G03  22342588.391      -37006.542        -519.824           0.255  
G04  23608665.987     -148866.929       -2122.519           0.244  
G05  22509696.539      146234.930        2037.772           0.255  
G06  20633538.594      -30953.955        -500.781           0.255  
G07  23401574.502      -79334.658       -1308.687           0.248  
G09  23124263.152      -75584.409       -1427.420           0.251  
> 2023 05 18 00 01 26.7688020  0  7                     
G02  24231212.420      234524.212        2906.413           0.239  
G03  22342601.958      -37058.916        -526.082           0.255  
G04  23608719.986     -149079.189       -2123.287           0.244  
G05  22509644.844      146438.626        2037.187           0.255  
G06  20633551.137      -31003.844        -497.648           0.255  
G07  23401607.897      -79465.525       -1309.110           0.248  
G09  23124299.503      -75727.143       -1426.822           0.251  
> 2023 05 18 00 01 26.8688020  0  7                     
G02  24231138.817      234814.765        2907.752           0.239  
G03  22342615.352      -37111.263        -520.238           0.255  
G04  23608774.256     -149291.446       -2123.801           0.244  
G05  22509592.822      146642.324        2036.333           0.255  
G06  20633563.633      -31053.745        -500.497           0.255  
G07  23401641.177      -79596.391       -1308.698           0.248  
G09  23124336.323      -75869.879       -1427.072           0.252  
> 2023 05 18 00 01 26.9688020  0  7                     
G02  24231064.308      235105.300        2905.354           0.239  
G03  22342628.490      -37163.775        -645.145           0.255  
G04  23608828.545     -149503.704       -2122.658           0.244  
G05  22509540.920      146846.243        2047.253           0.255  
G06  20633576.699      -31103.659        -498.315           0.255  
G07  23401674.864      -79727.348       -1313.717           0.248  
G09  23124372.561      -76012.623       -1427.161           0.251  
> 2023 05 18 00 01 27.0688020  0  7                     
G02  24230990.321      235395.859        2905.116           0.239  
G03  22342641.707      -37215.999        -523.150           0.255  
G04  23608882.394     -149715.967       -2122.482           0.244  
G05  22509489.071      147049.727        2037.366           0.255  
G06  20633589.341      -31153.547        -498.855           0.255  
G07  23401708.020      -79858.093       -1306.764           0.248  
G09  23124408.659      -76155.370       -1427.455           0.252  
> 2023 05 18 00 01 27.1688020  0  7                     
G02  24230916.386      235686.416        2905.504           0.239  
G03  22342655.637      -37268.337        -523.618           0.255  
G04  23608936.902     -149928.235       -2123.561           0.244  
G05  22509436.963      147253.074        1986.348           0.255  
G06  20633602.067      -31203.486        -499.605           0.255  
G07  23401741.555      -79988.994       -1308.317           0.248  
G09  23124445.014      -76298.115       -1427.932           0.252  
> 2023 05 18 00 01 27.2688020  0  7                     
G02  24230842.314      235976.952        2905.512           0.239  
G03  22342668.474      -37320.744        -524.525           0.255  
G04  23608990.916     -150140.498       -2123.261           0.244  
G05  22509385.174      147457.231        2029.039           0.255  
G06  20633614.718      -31253.378        -498.421           0.255  
G07  23401774.887      -80119.759       -1295.018           0.248  
G09  23124481.192      -76440.855       -1420.155           0.252  
> 2023 05 18 00 01 27.3688020  0  7                     
G02  24230768.440      236267.507        2906.218           0.239  
G03  22342681.949      -37373.077        -521.908           0.255  
G04  23609044.529     -150352.764       -2122.994           0.244  
G05  22509333.112      147661.062        2107.781           0.255  
G06  20633627.484      -31303.325        -500.656           0.255  
G07  23401808.107      -80250.750       -1308.805           0.248  
G09  23124517.881      -76583.707       -1443.127           0.252  
> 2023 05 18 00 01 27.4688020  0  7                     
G02  24230694.345      236558.060        2906.415           0.239  
G03  22342695.201      -37425.502        -525.966           0.255  
G04  23609099.212     -150565.029       -2123.424           0.244  
G05  22509281.420      147864.488        2036.784           0.255  
G06  20633640.073      -31353.222        -497.833           0.255  
G07  23401841.475      -80381.636       -1308.748           0.248  
G09  23124554.476      -76726.337       -1427.191           0.251  
> 2023 05 18 00 01 27.5688020  0  7                     
G02  24230620.295      236848.599        2905.877           0.239  
G03  22342708.728      -37477.853        -521.657           0.255  
G04  23609152.762     -150777.292       -2122.565           0.244  
G05  22509229.497      148068.174        2036.305           0.255  
G06  20633652.712      -31403.165        -500.554           0.255  
G07  23401875.263      -80512.523       -1309.274           0.248  
G09  23124590.863      -76869.083       -1427.089           0.251  
> 2023 05 18 00 01 27.6688020  0  7                     
G02  24230546.509      237139.152        2905.819           0.239  
G03  22342721.829      -37530.290        -527.611           0.255  
G04  23609206.951     -150989.558       -2122.242           0.244  
G05  22509177.537      148271.863        2037.629           0.255  
G06  20633665.704      -31453.071        -496.936           0.255  
G07  23401908.313      -80643.409       -1309.033           0.248  
G09  23124627.173      -77011.827       -1427.686           0.252  
> 2023 05 18 00 01 27.7688020  0  7                     
G02  24230472.198      237429.691        2905.565           0.239  
G03  22342734.965      -37582.639        -520.268           0.255  
G04  23609260.924     -151201.896       -2124.697           0.244  
G05  22509125.830      148475.407        2034.842           0.255  
G06  20633678.690      -31503.025        -501.224           0.255  
G07  23401941.652      -80774.302       -1308.849           0.248  
G09  23124663.186      -77154.629       -1411.577           0.252  
> 2023 05 18 00 01 27.8688020  0  7                     
G02  24230398.147      237720.240        2904.972           0.239  
G03  22342748.632      -37636.201        -679.943           0.255  
G04  23609315.272     -151414.101       -2122.295           0.244  
G05  22509073.951      148679.214        2035.768           0.255  
G06  20633691.222      -31552.954        -497.981           0.255  
G07  23401974.943      -80905.199       -1309.152           0.248  
G09  23124700.017      -77297.321       -1427.286           0.252  
> 2023 05 18 00 01 27.9688020  0  7                     
G02  24230324.585      238010.787        2906.784           0.239  
G03  22342762.205      -37687.448        -520.008           0.255  
G04  23609369.160     -151626.381       -2123.815           0.244  
G05  22509022.042      148883.521        2096.273           0.255  
G06  20633703.719      -31602.900        -501.445           0.255  
G07  23402008.246      -81036.178       -1319.014           0.248  
G09  23124735.992      -77440.099       -1417.598           0.252  
> 2023 05 18 00 01 28.0688020  0  7                     
G02  24230250.502      238301.333        2906.142           0.239  
G03  22342775.157      -37739.875        -527.294           0.255  
G04  23609423.375     -151838.653       -2123.381           0.244  
G05  22508970.113      149086.558        2036.753           0.255  
G06  20633716.574      -31652.844        -498.060           0.255  
G07  23402041.534      -81166.996       -1309.223           0.248  
G09  23124772.850      -77582.819       -1427.257           0.252  
> 2023 05 18 00 01 28.1688020  0  7                     
G02  24230175.657      238591.871        2905.271           0.239  
G03  22342788.866      -37792.287        -522.041           0.255  
G04  23609477.815     -152050.922       -2122.591           0.244  
G05  22508918.141      149290.005        1991.277           0.255  
G06  20633729.193      -31702.780        -500.084           0.255  
G07  23402075.252      -81297.895       -1308.767           0.248  
G09  23124809.218      -77725.573       -1427.783           0.252  
> 2023 05 18 00 01 28.2688020  0  7                     
G02  24230102.094      238882.428        2905.317           0.239  
G03  22342802.456      -37844.693        -525.401           0.255  
G04  23609531.458     -152263.192       -2128.279           0.244  
G05  22508866.231      149493.910        2037.730           0.255  
G06  20633741.837      -31752.745        -499.175           0.255  
G07  23402108.331      -81428.806       -1308.984           0.248  
G09  23124845.191      -77868.319       -1427.887           0.252  
> 2023 05 18 00 01 28.3688020  0  7                     
G02  24230027.883      239172.976        2905.824           0.239  
G03  22342815.231      -37897.133        -523.315           0.255  
G04  23609585.660     -152475.475       -2122.950           0.244  
G05  22508814.179      149697.569        2037.011           0.255  
G06  20633754.810      -31802.681        -499.549           0.255  
G07  23402141.839      -81559.711       -1309.186           0.248  
G09  23124881.348      -78011.070       -1427.761           0.252  
> 2023 05 18 00 01 28.4688020  0  7                     
G02  24229953.814      239463.516        2905.274           0.239  
G03  22342828.725      -37949.532        -524.620           0.255  
G04  23609639.476     -152687.750       -2122.605           0.244  
G05  22508762.337      149901.232        2035.673           0.255  
G06  20633767.573      -31852.658        -499.808           0.255  
G07  23402175.149      -81690.627       -1308.998           0.248  
G09  23124918.011      -78153.815       -1427.314           0.252  
> 2023 05 18 00 01 28.5688020  0  7                     
G02  24229880.456      239754.065        2905.281           0.239  
G03  22342842.143      -38001.997        -524.522           0.255  
G04  23609693.739     -152900.359       -2191.593           0.244  
G05  22508710.506      150104.907        2037.566           0.255  
G06  20633780.104      -31902.592        -498.879           0.255  
G07  23402208.629      -81821.561       -1314.543           0.248  
G09  23124954.241      -78296.532       -1434.579           0.252  
> 2023 05 18 00 01 28.6688020  0  7                     
G02  24229806.250      240044.620        2906.993           0.239  
G03  22342855.417      -38054.397        -523.719           0.255  
G04  23609747.689     -153112.320       -2123.953           0.244  
G05  22508658.445      150308.562        2037.166           0.255  
G06  20633793.123      -31952.579        -500.393           0.255  
G07  23402241.768      -81952.462       -1309.509           0.248  
G09  23124990.767      -78439.193       -1403.675           0.252  
> 2023 05 18 00 01 28.7688020  0  7                     
G02  24229732.034      240335.190        2898.192           0.239  
G03  22342868.904      -38106.880        -525.587           0.255  
G04  23609801.829     -153324.588       -2122.713           0.244  
G05  22508606.617      150512.038        1994.794           0.255  
G06  20633805.588      -32002.525        -498.682           0.255  
G07  23402275.096      -82083.384       -1309.103           0.248  
G09  23125027.072      -78582.076       -1427.886           0.252  
> 2023 05 18 00 01 28.8688020  0  7                     
G02  24229657.512      240625.693        2904.220           0.239  
G03  22342882.491      -38159.267        -521.890           0.255  
G04  23609856.139     -153536.998       -2156.747           0.244  
G05  22508554.785      150715.881        2037.329           0.255  
G06  20633818.578      -32052.527        -501.850           0.255  
G07  23402308.502      -82214.315       -1309.762           0.248  
G09  23125063.445      -78724.828       -1427.701           0.252  
> 2023 05 18 00 01 28.9688020  0  7                     
G02  24229584.279      240916.252        2904.713           0.239  
G03  22342895.660      -38211.762        -526.313           0.255  
G04  23609909.858     -153749.154       -2122.418           0.244  
G05  22508502.931      150919.530        2036.762           0.255  
G06  20633831.165      -32102.476        -498.694           0.255  
G07  23402341.894      -82345.238       -1309.458           0.248  
G09  23125100.003      -78867.580       -1426.894           0.251  
> 2023 05 18 00 01 29.0688020  0  7                     
G02  24229509.779      241206.785        2905.197           0.239  
G03  22342908.795      -38264.170        -521.609           0.255  
G04  23609963.970     -153961.740       -2143.426           0.244  
G05  22508451.191      151123.237        2023.652           0.255  
G06  20633844.076      -32152.476        -501.844           0.255  
G07  23402375.264      -82476.170       -1309.282           0.248  
G09  23125136.300      -79010.341       -1427.317           0.251  
> 2023 05 18 00 01 29.1688020  0  7                     
G02  24229435.165      241497.322        2903.644           0.239  
G03  22342922.429      -38316.683        -527.824           0.255  
G04  23610018.885     -154173.720       -2121.606           0.244  
G05  22508399.098      151326.838        2037.329           0.255  
G06  20633856.655      -32202.428        -497.242           0.255  
G07  23402408.669      -82607.100       -1309.109           0.248  
G09  23125172.560      -79153.100       -1428.146           0.251  
> 2023 05 18 00 01 29.2688020  0  7                     
G02  24229361.669      241787.877        2905.052           0.239  
G03  22342935.950      -38369.095        -521.280           0.255  
G04  23610072.515     -154386.014       -2122.723           0.244  
G05  22508347.486      151530.478        2036.165           0.255  
G06  20633869.074      -32252.436        -501.953           0.255  
G07  23402441.986      -82738.042       -1309.507           0.248  
G09  23125209.111      -79295.849       -1427.725           0.252  
> 2023 05 18 00 01 29.3688020  0  7                     
G02  24229287.452      242078.420        2905.197           0.239  
G03  22342948.998      -38421.600        -527.568           0.255  
G04  23610126.845     -154598.299       -2122.903           0.244  
G05  22508295.445      151734.122        2035.880           0.255  
G06  20633881.923      -32302.404        -498.311           0.255  
G07  23402475.585      -82868.976       -1309.251           0.248  
G09  23125245.866      -79438.599       -1426.815           0.251  
> 2023 05 18 00 01 29.4688020  0  7                     
G02  24229213.885      242368.972        2905.814           0.239  
G03  22342962.357      -38474.037        -521.625           0.255  
G04  23610180.649     -154810.587       -2123.409           0.244  
G05  22508243.405      151937.771        2036.829           0.255  
G06  20633895.004      -32352.407        -501.599           0.255  
G07  23402508.634      -82999.930       -1311.508           0.248  
G09  23125281.913      -79581.367       -1426.970           0.252  
> 2023 05 18 00 01 29.5688020  0  7                     
G02  24229139.720      242659.513        2905.386           0.239  
G03  22342976.090      -38526.549        -527.804           0.255  
G04  23610234.377     -155022.966       -2145.479           0.244  
G05  22508191.564      152141.412        2035.846           0.255  
G06  20633907.612      -32402.389        -497.978           0.255  
G07  23402542.270      -83130.865       -1309.502           0.248  
G09  23125318.105      -79724.132       -1428.116           0.252  
> 2023 05 18 00 01 29.6688020  0  7                     
G02  24229065.328      242950.062        2905.073           0.239  
G03  22342989.328      -38578.996        -521.195           0.255  
G04  23610288.634     -155235.168       -2122.361           0.244  
G05  22508139.859      152345.056        2037.080           0.255  
G06  20633920.546      -32452.402        -502.047           0.255  
G07  23402575.596      -83261.807       -1309.300           0.248  
G09  23125354.391      -79866.891       -1428.374           0.251  
> 2023 05 18 00 01 29.7688020  0  7                     
G02  24228991.733      243240.602        2904.038           0.239  
G03  22343002.596      -38631.504        -527.232           0.255  
G04  23610342.916     -155447.460       -2122.209           0.244  
G05  22508087.768      152548.689        2037.164           0.255  
G06  20633933.289      -32502.396        -499.063           0.255  
G07  23402608.739      -83392.758       -1309.495           0.248  
G09  23125391.356      -80009.645       -1427.354           0.252  
> 2023 05 18 00 01 29.8688020  0  7                     
G02  24228918.116      243531.161        2905.248           0.239  
G03  22343015.885      -38683.977        -521.870           0.255  
G04  23610396.901     -155659.757       -2122.623           0.244  
G05  22508035.993      152752.320        2035.423           0.255  
G06  20633945.738      -32552.403        -501.565           0.255  
G07  23402642.162      -83523.816       -1319.015           0.248  
G09  23125427.867      -80152.299       -1461.352           0.252  
> 2023 05 18 00 01 29.9688020  0  7                     
G02  24228843.810      243821.709        2906.214           0.239  
G03  22343029.363      -38736.496        -528.875           0.255  
G04  23610451.459     -155872.047       -2123.093           0.244  
G05  22507984.052      152955.960        2037.013           0.255  
G06  20633958.343      -32602.404        -497.702           0.255  
G07  23402675.835      -83654.669       -1309.574           0.248  
G09  23125463.731      -80295.180       -1428.400           0.251  
> 2023 05 18 00 01 30.0688020  0  7                     
G02  24228769.809      244112.254        2906.884           0.239  
G03  22343042.854      -38788.993        -524.495           0.255  
G04  23610505.407     -156084.344       -2123.607           0.244  
G05  22507932.107      153159.591        2036.563           0.255  
G06  20633971.165      -32652.421        -500.013           0.255  
G07  23402708.960      -83785.621       -1309.280           0.248  
G09  23125499.936      -80437.933       -1428.608           0.251  
> 2023 05 18 00 01 30.1688020  0  7                     
G02  24228696.394      244402.549        2887.049           0.239  
G03  22343056.418      -38842.063        -670.807           0.255  
G04  23610559.534     -156296.636       -2123.164           0.244  
G05  22507879.751      153363.214        2035.766           0.255  
G06  20633984.108      -32702.436        -498.984           0.255  
G07  23402741.955      -83916.586       -1309.411           0.248  
G09  23125536.100      -80580.722       -1430.050           0.252  
> 2023 05 18 00 01 30.2688020  0  7                     
G02  24228621.520      244693.337        2905.084           0.239  
G03  22343069.557      -38894.006        -523.251           0.255  
G04  23610612.992     -156508.935       -2123.415           0.244  
G05  22507827.888      153567.173        2116.622           0.255  
G06  20633997.216      -32752.437        -499.904           0.255  
G07  23402775.663      -84047.549       -1309.227           0.248  
G09  23125572.142      -80723.471       -1427.641           0.251  
> 2023 05 18 00 01 30.3688020  0  7                     
G02  24228547.857      244983.976        2886.662           0.239  
G03  22343082.769      -38946.516        -527.983           0.255  
G04  23610667.117     -156721.230       -2123.243           0.244  
G05  22507776.338      153769.897        1957.166           0.255  
G06  20634009.727      -32802.466        -498.435           0.255  
G07  23402808.917      -84178.520       -1309.471           0.248  
G09  23125609.086      -80865.871       -1367.213           0.251  
> 2023 05 18 00 01 30.4688020  0  7                     
G02  24228472.989      245274.434        2905.410           0.239  
G03  22343096.255      -38999.022        -522.548           0.255  
G04  23610721.647     -156933.530       -2123.111           0.244  
G05  22507724.603      153974.087        2036.169           0.255  
G06  20634022.258      -32852.494        -501.458           0.255  
G07  23402842.272      -84309.489       -1309.579           0.248  
G09  23125645.686      -81008.997       -1428.624           0.252  
> 2023 05 18 00 01 30.5688020  0  7                     
G02  24228399.589      245564.971        2903.784           0.239  
G03  22343110.037      -39051.546        -527.590           0.255  
G04  23610775.746     -157145.825       -2121.800           0.244  
G05  22507672.569      154177.926        2108.185           0.255  
G06  20634034.722      -32902.530        -499.760           0.255  
G07  23402875.833      -84440.467       -1309.872           0.248  
G09  23125681.837      -81151.759       -1426.861           0.252  
> 2023 05 18 00 01 30.6688020  0  7                     
G02  24228326.038      245855.532        2905.327           0.239  
G03  22343123.456      -39104.086        -523.591           0.255  
G04  23610829.538     -157357.807       -2105.805           0.244  
G05  22507620.663      154381.323        2035.190           0.255  
G06  20634047.707      -32952.542        -500.191           0.255  
G07  23402908.897      -84571.438       -1309.786           0.248  
G09  23125717.759      -81294.536       -1427.317           0.251  
> 2023 05 18 00 01 30.7688020  0  7                     
G02  24228251.125      246146.082        2906.366           0.239  
G03  22343136.095      -39156.594        -527.578           0.255  
G04  23610884.432     -157570.435       -2124.040           0.244  
G05  22507568.679      154584.947        2037.006           0.255  
G06  20634060.385      -33002.604        -500.390           0.255  
G07  23402942.839      -84702.427       -1309.988           0.248  
G09  23125754.986      -81437.288       -1425.826           0.251  
> 2023 05 18 00 01 30.8688020  0  7                     
G02  24228177.269      246436.617        2905.448           0.239  
G03  22343149.251      -39209.134        -523.455           0.255  
G04  23610938.728     -157782.735       -2123.394           0.244  
G05  22507516.709      154788.554        2036.535           0.255  
G06  20634073.299      -33052.628        -501.242           0.255  
G07  23402976.294      -84833.405       -1310.119           0.248  
G09  23125791.899      -81580.061       -1428.300           0.252  
> 2023 05 18 00 01 30.9688020  0  7                     
G02  24228103.033      246727.165        2905.373           0.239  
G03  22343163.413      -39261.667        -527.084           0.255  
G04  23610991.477     -157995.046       -2123.593           0.244  
G05  22507465.022      154992.162        2035.340           0.255  
G06  20634086.161      -33102.677        -499.691           0.255  
G07  23403009.145      -84964.393       -1309.651           0.248  
G09  23125827.571      -81722.826       -1427.406           0.252  
> 2023 05 18 00 01 31.0688020  0  7                     
G02  24228028.357      247017.709        2905.323           0.239  
G03  22343176.593      -39314.217        -523.062           0.255  
G04  23611046.374     -158207.345       -2123.507           0.244  
G05  22507413.378      155196.209        2150.752           0.255  
G06  20634098.774      -33152.705        -500.850           0.255  
G07  23403042.621      -85095.406       -1316.383           0.248  
G09  23125863.820      -81865.614       -1427.473           0.252  
> 2023 05 18 00 01 31.1688020  0  7                     
G02  24227954.645      247308.264        2905.529           0.239  
G03  22343190.028      -39366.756        -527.335           0.255  
G04  23611100.304     -158419.653       -2123.271           0.244  
G05  22507361.234      155399.379        2035.222           0.255  
G06  20634111.631      -33202.780        -500.427           0.255  
G07  23403076.090      -85226.373       -1309.966           0.248  
G09  23125900.640      -82008.356       -1427.366           0.252  
> 2023 05 18 00 01 31.2688020  0  7                     
G02  24227881.662      247598.812        2906.798           0.239  
G03  22343203.420      -39419.316        -523.924           0.255  
G04  23611154.417     -158631.957       -2123.609           0.244  
G05  22507309.362      155602.991        2036.829           0.255  
G06  20634124.045      -33252.813        -500.610           0.255  
G07  23403109.523      -85357.370       -1310.125           0.248  
G09  23125937.181      -82151.132       -1429.788           0.251  
> 2023 05 18 00 01 31.3688020  0  7                     
G02  24227806.690      247889.352        2906.637           0.239  
G03  22343217.023      -39471.870        -527.847           0.255  
G04  23611208.065     -158844.476       -2125.044           0.244  
G05  22507257.707      155806.584        2036.597           0.255  
G06  20634137.033      -33302.871        -499.396           0.255  
G07  23403142.964      -85488.369       -1309.936           0.248  
G09  23125972.950      -82293.910       -1426.889           0.252  
> 2023 05 18 00 01 31.4688020  0  7                     
G02  24227733.000      248179.892        2904.844           0.239  
G03  22343230.485      -39524.446        -524.180           0.255  
G04  23611262.947     -159056.576       -2122.573           0.244  
G05  22507205.763      156010.188        2035.821           0.255  
G06  20634150.176      -33352.928        -501.650           0.255  
G07  23403175.984      -85619.366       -1310.257           0.248  
G09  23126008.308      -82436.672       -1424.786           0.252  
> 2023 05 18 00 01 31.5688020  0  7                     
G02  24227658.782      248470.442        2905.601           0.239  
G03  22343243.655      -39576.995        -527.687           0.255  
G04  23611316.763     -159268.885       -2122.568           0.244  
G05  22507153.979      156213.785        2036.708           0.255  
G06  20634162.757      -33403.007        -500.565           0.255  
G07  23403209.476      -85750.361       -1309.747           0.248  
G09  23126045.693      -82579.447       -1427.218           0.252  
> 2023 05 18 00 01 31.6688020  0  7                     
G02  24227584.884      248760.987        2905.610           0.239  
G03  22343256.843      -39629.569        -523.534           0.255  
G04  23611370.607     -159481.191       -2123.172           0.244  
G05  22507102.006      156417.372        2035.309           0.255  
G06  20634175.450      -33453.062        -502.131           0.255  
G07  23403243.220      -85881.374       -1309.922           0.248  
G09  23126082.146      -82722.231       -1426.570           0.251  
> 2023 05 18 00 01 31.7688020  0  7                     
G02  24227510.462      249051.529        2904.654           0.239  
G03  22343270.541      -39682.145        -528.058           0.255  
G04  23611424.328     -159693.502       -2122.767           0.244  
G05  22507050.496      156620.978        2036.843           0.255  
G06  20634188.203      -33503.130        -499.398           0.255  
G07  23403276.321      -86012.378       -1310.180           0.248  
G09  23126118.092      -82865.017       -1427.511           0.251  
> 2023 05 18 00 01 31.8688020  0  7                     
G02  24227436.746      249341.901        2873.315           0.239  
G03  22343283.782      -39734.733        -524.436           0.255  
G04  23611478.086     -159905.785       -2107.139           0.244  
G05  22506998.461      156824.560        2035.967           0.255  
G06  20634201.036      -33553.199        -501.233           0.255  
G07  23403309.661      -86143.367       -1309.336           0.248  
G09  23126155.217      -83007.682       -1445.079           0.252  
> 2023 05 18 00 01 31.9688020  0  7                     
G02  24227363.223      249632.626        2905.279           0.239  
G03  22343297.509      -39787.311        -528.016           0.255  
G04  23611532.684     -160118.221       -2112.997           0.244  
G05  22506946.359      157028.148        2035.500           0.255  
G06  20634213.482      -33603.280        -499.921           0.255  
G07  23403343.116      -86274.414       -1315.129           0.248  
G09  23126191.350      -83150.555       -1428.100           0.251  
> 2023 05 18 00 01 32.0688020  0  7                     
G02  24227288.394      249923.179        2905.439           0.239  
G03  22343310.838      -39839.095        -377.732           0.255  
G04  23611586.840     -160330.455       -2122.926           0.244  
G05  22506894.388      157231.987        2129.787           0.255  
G06  20634226.189      -33653.354        -501.987           0.255  
G07  23403376.773      -86405.419       -1310.111           0.248  
G09  23126227.626      -83293.341       -1427.311           0.252  
> 2023 05 18 00 01 32.1688020  0  7                     
G02  24227214.273      250213.707        2903.737           0.239  
G03  22343323.952      -39892.499        -528.782           0.255  
G04  23611640.870     -160542.816       -2150.843           0.244  
G05  22506842.442      157435.304        2034.686           0.255  
G06  20634239.240      -33703.435        -499.213           0.255  
G07  23403410.070      -86536.439       -1310.369           0.248  
G09  23126264.413      -83436.123       -1428.325           0.252  
> 2023 05 18 00 01 32.2688020  0  7                     
G02  24227140.481      250504.261        2905.892           0.239  
G03  22343337.449      -39945.088        -523.365           0.255  
G04  23611695.375     -160755.093       -2123.465           0.244  
G05  22506790.552      157638.898        2036.372           0.255  
G06  20634251.923      -33753.522        -502.254           0.255  
G07  23403443.515      -86667.465       -1310.177           0.248  
G09  23126300.406      -83578.895       -1427.385           0.251  
> 2023 05 18 00 01 32.3688020  0  7                     
G02  24227066.553      250794.795        2905.523           0.239  
G03  22343350.670      -39997.703        -529.289           0.255  
G04  23611749.285     -160967.405       -2123.402           0.244  
G05  22506738.268      157842.474        2035.650           0.255  
G06  20634264.517      -33803.609        -499.145           0.255  
G07  23403476.912      -86798.489       -1310.480           0.248  
G09  23126337.487      -83721.679       -1427.388           0.251  
> 2023 05 18 00 01 32.4688020  0  7                     
G02  24226992.734      251085.343        2905.253           0.239  
G03  22343364.327      -40050.318        -524.958           0.255  
G04  23611804.072     -161179.731       -2123.287           0.244  
G05  22506687.036      158046.053        2035.985           0.255  
G06  20634277.769      -33853.696        -500.833           0.255  
G07  23403509.886      -86929.518       -1310.308           0.248  
G09  23126372.036      -83864.454       -1426.941           0.252  
> 2023 05 18 00 01 32.5688020  0  7                     
G02  24226918.612      251376.257        2971.102           0.239  
G03  22343377.557      -40102.928        -528.905           0.255  
G04  23611857.937     -161392.047       -2122.052           0.244  
G05  22506634.937      158249.626        2036.160           0.255  
G06  20634290.451      -33903.797        -499.539           0.255  
G07  23403543.580      -87060.548       -1310.394           0.248  
G09  23126409.393      -84007.382       -1442.971           0.252  
> 2023 05 18 00 01 32.6688020  0  7                     
G02  24226844.613      251666.413        2904.387           0.239  
G03  22343390.816      -40154.521        -412.789           0.255  
G04  23611911.918     -161604.503       -2142.327           0.244  
G05  22506583.112      158452.954        2011.941           0.255  
G06  20634303.008      -33953.905        -502.833           0.255  
G07  23403576.938      -87191.619       -1314.447           0.248  
G09  23126445.752      -84150.189       -1453.761           0.252  
> 2023 05 18 00 01 32.7688020  0  7                     
G02  24226770.318      251956.956        2904.992           0.239  
G03  22343404.357      -40208.158        -529.392           0.255  
G04  23611966.132     -161816.695       -2122.729           0.244  
G05  22506531.381      158656.771        2036.161           0.255  
G06  20634315.714      -34003.999        -499.160           0.255  
G07  23403610.273      -87322.623       -1310.167           0.248  
G09  23126482.339      -84292.800       -1428.084           0.252  
> 2023 05 18 00 01 32.8688020  0  7                     
G02  24226696.805      252247.496        2904.526           0.239  
G03  22343417.879      -40259.702        -438.503           0.255  
G04  23612020.217     -162029.017       -2122.675           0.244  
G05  22506479.659      158860.340        2035.100           0.255  
G06  20634328.532      -34054.117        -502.906           0.255  
G07  23403643.508      -87453.664       -1310.704           0.248  
G09  23126519.049      -84435.574       -1427.902           0.252  
> 2023 05 18 00 01 32.9688020  0  7                     
G02  24226621.366      252538.041        2905.516           0.239  
G03  22343431.256      -40313.959        -631.522           0.255  
G04  23612075.106     -162241.345       -2123.812           0.244  
G05  22506427.616      159064.175        2100.238           0.255  
G06  20634340.805      -34104.207        -498.807           0.255  
G07  23403677.241      -87584.707       -1310.424           0.248  
G09  23126556.305      -84578.361       -1427.435           0.252  
> 2023 05 18 00 01 33.0688020  0  7                     
G02  24226547.369      252828.577        2905.253           0.239  
G03  22343444.471      -40366.045        -525.881           0.255  
G04  23612129.157     -162453.480       -2119.480           0.244  
G05  22506375.458      159267.467        2035.292           0.255  
G06  20634354.132      -34154.326        -500.625           0.255  
G07  23403710.372      -87715.610       -1311.672           0.248  
G09  23126590.659      -84721.142       -1427.149           0.252  
> 2023 05 18 00 01 33.1688020  0  7                     
G02  24226474.039      253119.113        2906.099           0.239  
G03  22343458.208      -40418.694        -528.199           0.255  
G04  23612182.509     -162665.994       -2123.695           0.244  
G05  22506323.736      159471.038        2035.955           0.255  
G06  20634366.918      -34204.429        -499.442           0.255  
G07  23403743.876      -87846.803       -1310.760           0.248  
G09  23126627.953      -84863.928       -1427.770           0.252  
> 2023 05 18 00 01 33.2688020  0  7                     
G02  24226400.408      253409.653        2905.653           0.239  
G03  22343471.411      -40471.289        -523.535           0.255  
G04  23612236.442     -162878.327       -2123.524           0.244  
G05  22506271.794      159674.591        2036.018           0.255  
G06  20634379.564      -34254.577        -502.810           0.255  
G07  23403777.256      -87977.862       -1310.947           0.248  
G09  23126664.491      -85006.726       -1427.652           0.252  
> 2023 05 18 00 01 33.3688020  0  7                     
G02  24226326.314      253700.185        2905.638           0.239  
G03  22343485.249      -40523.977        -528.512           0.255  
G04  23612290.841     -163090.883       -2142.426           0.244  
G05  22506219.962      159878.151        2035.072           0.255  
G06  20634392.349      -34304.681        -499.655           0.255  
G07  23403810.671      -88108.771       -1296.647           0.248  
G09  23126700.798      -85149.514       -1428.596           0.252  
> 2023 05 18 00 01 33.4688020  0  7                     
G02  24226252.490      253990.726        2905.100           0.239  
G03  22343498.183      -40577.735        -727.842           0.255  
G04  23612344.498     -163302.984       -2122.501           0.244  
G05  22506168.097      160081.731        2070.875           0.255  
G06  20634405.025      -34354.832        -502.731           0.255  
G07  23403844.102      -88239.973       -1310.313           0.248  
G09  23126737.179      -85292.292       -1427.461           0.252  
> 2023 05 18 00 01 33.5688020  0  7                     
G02  24226178.037      254281.265        2905.164           0.239  
G03  22343511.705      -40629.286        -528.260           0.255  
G04  23612398.712     -163515.311       -2122.792           0.244  
G05  22506116.114      160285.260        2034.398           0.255  
G06  20634417.919      -34404.932        -499.653           0.255  
G07  23403877.224      -88371.036       -1310.790           0.248  
G09  23126773.662      -85435.087       -1428.036           0.252  
> 2023 05 18 00 01 33.6688020  0  7                     
G02  24226104.423      254571.801        2905.170           0.239  
G03  22343525.063      -40681.932        -527.617           0.255  
G04  23612452.444     -163727.638       -2122.275           0.244  
G05  22506064.339      160488.819        2036.233           0.255  
G06  20634430.939      -34455.090        -501.160           0.255  
G07  23403910.770      -88502.108       -1295.212           0.248  
G09  23126809.045      -85577.857       -1427.204           0.252  
> 2023 05 18 00 01 33.7688020  0  7                     
G02  24226030.520      254862.348        2906.131           0.239  
G03  22343538.995      -40734.614        -526.527           0.255  
G04  23612506.512     -163939.986       -2123.664           0.244  
G05  22506012.456      160692.356        2034.667           0.255  
G06  20634443.421      -34505.205        -501.007           0.255  
G07  23403944.129      -88633.167       -1310.366           0.248  
G09  23126846.278      -85720.737       -1483.492           0.252  
> 2023 05 18 00 01 33.8688020  0  7                     
G02  24225955.793      255152.886        2906.345           0.239  
G03  22343551.865      -40787.245        -526.535           0.255  
G04  23612561.152     -164152.317       -2123.677           0.244  
G05  22505960.752      160895.915        2036.311           0.255  
G06  20634456.450      -34555.367        -501.601           0.255  
G07  23403977.686      -88764.235       -1310.491           0.248  
G09  23126882.528      -85863.455       -1428.060           0.251  
> 2023 05 18 00 01 33.9688020  0  7                     
G02  24225881.401      255443.423        2905.609           0.239  
G03  22343565.559      -40839.943        -526.157           0.255  
G04  23612615.534     -164364.651       -2122.988           0.244  
G05  22505908.916      161099.452        2035.089           0.255  
G06  20634469.064      -34605.500        -501.536           0.255  
G07  23404011.041      -88895.307       -1310.829           0.248  
G09  23126919.309      -86006.242       -1428.500           0.252  
> 2023 05 18 00 01 34.0688020  0  7                     
G02  24225807.817      255733.967        2905.478           0.239  
G03  22343579.423      -40892.586        -525.887           0.255  
G04  23612669.642     -164576.991       -2123.208           0.244  
G05  22505857.423      161302.998        2035.993           0.255  
G06  20634481.547      -34655.667        -502.130           0.255  
G07  23404044.239      -89026.378       -1310.345           0.248  
G09  23126955.578      -86149.026       -1426.964           0.252  
> 2023 05 18 00 01 34.1688020  0  7                     
G02  24225735.081      256024.269        2930.544           0.239  
G03  22343592.094      -40946.174        -596.661           0.255  
G04  23612723.282     -164789.337       -2123.077           0.244  
G05  22505805.313      161506.833        2014.471           0.255  
G06  20634494.664      -34705.812        -503.508           0.255  
G07  23404077.605      -89157.353       -1313.535           0.248  
G09  23126992.260      -86291.814       -1425.281           0.252  
> 2023 05 18 00 01 34.2688020  0  7                     
G02  24225656.286      256315.040        2904.730           0.240  
G03  22343605.361      -40997.977        -525.708           0.255  
G04  23612780.728     -165001.670       -2123.033           0.245  
G05  22505753.827      161710.080        2035.980           0.255  
G06  20634507.501      -34755.958        -502.099           0.255  
G07  23404111.313      -89288.454       -1313.815           0.248  
G09  23127027.827      -86434.616       -1427.255           0.252  
> 2023 05 18 00 01 34.3688020  0  7                     
G02  24225584.368      256605.602        2907.064           0.239  
G03  22343618.981      -41050.691        -530.375           0.255  
G04  23612832.690     -165214.028       -2124.884           0.244  
G05  22505701.861      161913.606        2035.759           0.255  
G06  20634520.175      -34806.110        -500.101           0.255  
G07  23404144.881      -89419.627       -1310.903           0.248  
G09  23127064.626      -86577.402       -1426.670           0.252  
> 2023 05 18 00 01 34.4688020  0  7                     
G02  24225511.361      256896.125        2906.296           0.240  
G03  22343633.296      -41103.095        -460.895           0.255  
G04  23612885.250     -165426.052       -2084.585           0.245  
G05  22505649.828      162117.499        2053.132           0.255  
G06  20634532.073      -34856.283        -501.595           0.255  
G07  23404178.760      -89550.706       -1310.435           0.248  
G09  23127101.038      -86720.200       -1427.753           0.251  
> 2023 05 18 00 01 34.5688020  0  7                     
G02  24225437.834      257186.654        2904.685           0.239  
G03  22343646.140      -41156.473        -638.970           0.255  
G04  23612939.663     -165638.778       -2104.289           0.244  
G05  22505597.610      162320.666        2035.861           0.255  
G06  20634545.404      -34906.439        -501.362           0.255  
G07  23404211.278      -89681.804       -1310.802           0.248  
G09  23127138.082      -86862.997       -1428.984           0.252  
> 2023 05 18 00 01 34.6688020  0  7                     
G02  24225363.124      257477.202        2904.133           0.239  
G03  22343659.618      -41208.761        -525.407           0.255  
G04  23612993.287     -165851.027       -2122.257           0.244  
G05  22505545.815      162524.191        2034.574           0.255  
G06  20634558.314      -34956.618        -503.313           0.255  
G07  23404244.665      -89812.894       -1310.594           0.248  
G09  23127174.001      -87005.789       -1427.726           0.252  
> 2023 05 18 00 01 34.7688020  0  7                     
G02  24225289.442      257767.744        2905.029           0.239  
G03  22343672.978      -41261.505        -528.611           0.255  
G04  23613047.301     -166063.379       -2122.898           0.244  
G05  22505494.293      162727.726        2035.703           0.255  
G06  20634571.252      -35006.763        -500.625           0.255  
G07  23404277.970      -89943.989       -1310.777           0.248  
G09  23127210.571      -87148.593       -1427.916           0.252  
> 2023 05 18 00 01 34.8688020  0  7                     
G02  24225215.470      258058.289        2905.978           0.239  
G03  22343685.697      -41314.221        -526.947           0.255  
G04  23613101.813     -166275.745       -2124.307           0.244  
G05  22505442.307      162931.249        2034.058           0.255  
G06  20634584.217      -35056.939        -501.339           0.255  
G07  23404311.430      -90075.091       -1311.391           0.248  
G09  23127246.629      -87291.387       -1428.346           0.252  
> 2023 05 18 00 01 34.9688020  0  7                     
G02  24225141.912      258348.832        2906.121           0.239  
G03  22343699.907      -41366.945        -528.849           0.255  
G04  23613156.417     -166488.090       -2124.302           0.244  
G05  22505390.192      163134.774        2035.594           0.255  
G06  20634597.168      -35107.117        -500.374           0.255  
G07  23404345.149      -90206.198       -1311.146           0.248  
G09  23127283.028      -87434.186       -1427.806           0.251  
> 2023 05 18 00 01 35.0688020  0  7                     
G02  24225068.152      258639.371        2906.045           0.239  
G03  22343713.018      -41419.634        -526.196           0.255  
G04  23613210.092     -166700.435       -2124.151           0.244  
G05  22505338.243      163338.290        2033.701           0.255  
G06  20634609.904      -35157.321        -502.644           0.255  
G07  23404377.955      -90337.300       -1310.857           0.248  
G09  23127319.245      -87576.984       -1428.127           0.252  
> 2023 05 18 00 01 35.1688020  0  7                     
G02  24224993.270      258929.902        2903.960           0.239  
G03  22343726.419      -41472.355        -527.867           0.255  
G04  23613264.821     -166912.789       -2122.672           0.244  
G05  22505286.376      163541.813        2035.614           0.255  
G06  20634622.666      -35207.510        -502.016           0.255  
G07  23404411.683      -90468.414       -1311.031           0.248  
G09  23127355.940      -87719.784       -1428.483           0.251  
> 2023 05 18 00 01 35.2688020  0  7                     
G02  24224918.076      259220.444        2904.467           0.239  
G03  22343739.893      -41525.124        -526.992           0.255  
G04  23613320.374     -167125.136       -2122.803           0.244  
G05  22505234.303      163745.323        2033.869           0.255  
G06  20634635.563      -35257.676        -501.507           0.255  
G07  23404445.004      -90599.518       -1297.899           0.248  
G09  23127392.042      -87862.582       -1428.094           0.251  
> 2023 05 18 00 01 35.3688020  0  7                     
G02  24224845.245      259510.994        2905.439           0.239  
G03  22343753.826      -41577.831        -524.551           0.255  
G04  23613373.657     -167337.494       -2123.004           0.244  
G05  22505182.394      163948.848        2035.771           0.255  
G06  20634647.754      -35307.877        -503.107           0.255  
G07  23404478.963      -90730.511       -1299.726           0.248  
G09  23127428.518      -88005.380       -1427.971           0.251  
> 2023 05 18 00 01 35.4688020  0  7                     
G02  24224772.972      259801.525        2904.848           0.239  
G03  22343767.624      -41630.586        -522.676           0.255  
G04  23613425.943     -167549.576       -2107.215           0.244  
G05  22505130.479      164152.349        2034.162           0.255  
G06  20634660.251      -35358.065        -503.556           0.255  
G07  23404512.867      -90861.754       -1311.277           0.248  
G09  23127463.739      -88148.183       -1428.535           0.251  
