     3.03           OBSERVATION DATA    M: Mixed            RINEX VERSION / TYPE
GNSS-SDRLIB v1.1                        20230913 063928 UTC PGM / RUN BY / DATE 
                                                            MARKER NAME         
                                                            MARKER NUMBER       
                                                            MARKER TYPE         
                                                            OBSERVER / AGENCY   
GNSS-SDRLIB         GNSS-SDRLIB         1.1                 REC # / TYPE / VERS 
                                                            ANT # / TYPE        
        0.0000        0.0000        0.0000                  APPROX POSITION XYZ 
        0.0000        0.0000        0.0000                  ANTENNA: DELTA H/E/N
G    4 C1C L1C D1C S1C                                      SYS / # / OBS TYPES 
R    4 C1C L1C D1C S1C                                      SYS / # / OBS TYPES 
E    4 C1C L1C D1C S1C                                      SYS / # / OBS TYPES 
J    4 C1C L1C D1C S1C                                      SYS / # / OBS TYPES 
S    4 C1C L1C D1C S1C                                      SYS / # / OBS TYPES 
C    4 C1C L1C D1C S1C                                      SYS / # / OBS TYPES 
I    4 C1C L1C D1C S1C                                      SYS / # / OBS TYPES 
  1970    01    01    00    00   00.0000000     GPS         TIME OF FIRST OBS   
  1970    01    01    00    00   00.0000000     GPS         TIME OF LAST OBS    
G L1C                                                       SYS / PHASE SHIFT   
R L1C                                                       SYS / PHASE SHIFT   
E L1C  0.00000                                              SYS / PHASE SHIFT   
J L1C                                                       SYS / PHASE SHIFT   
S L1C                                                       SYS / PHASE SHIFT   
C L1C  0.00000                                              SYS / PHASE SHIFT   
I L1C  0.00000                                              SYS / PHASE SHIFT   
  0                                                         GLONASS SLOT / FRQ #
 C1C    0.000 C1P    0.000 C2C    0.000 C2P    0.000        GLONASS COD/PHS/BIS 
                                                            END OF HEADER       
> 2017 09 21 00 02 00.0688020  0  1                     
G06  20669906.212     -232930.278       -2246.475           0.147  
> 2017 09 21 00 02 00.1688020  0  1                     
G06  20669981.668     -233155.195       -2265.878           0.131  
> 2017 09 21 00 02 00.2688020  0  1                     
G06  20670058.206     -233379.838       -2254.485           0.145  
> 2017 09 21 00 02 00.3688020  0  1                     
G06  20670135.393     -233604.259       -2263.656           0.134  
> 2017 09 21 00 02 00.4688020  0  1                     
G06  20670187.216     -233829.052       -2258.720           0.126  
> 2017 09 21 00 02 00.5688020  0  1                     
G06  20670249.804     -234054.606       -2248.839           0.126  
> 2017 09 21 00 02 00.6688020  0  1                     
G06  20670281.207     -234279.802       -2220.986           0.131  
> 2017 09 21 00 02 00.7688020  0  1                     
G06  20670312.935     -234504.595       -2244.151           0.144  
> 2017 09 21 00 02 00.8688020  0  1                     
G06  20670382.970     -234729.441       -2261.644           0.152  
> 2017 09 21 00 02 00.9688020  0  1                     
G06  20670472.681     -234954.780       -2239.227           0.139  
> 2017 09 21 00 02 01.0688020  0  1                     
G06  20670537.581     -235179.543       -2261.206           0.140  
> 2017 09 21 00 02 01.1688020  0  1                     
G06  20670611.353     -235403.798       -2247.118           0.126  
> 2017 09 21 00 02 01.2688020  0  1                     
G06  20670650.942     -235626.997       -2202.507           0.126  
> 2017 09 21 00 02 01.3688020  0  1                     
G06  20670680.410     -235848.354       -2192.236           0.124  
> 2017 09 21 00 02 01.4688020  0  1                     
G06  20670720.606     -236068.772       -2198.752           0.119  
> 2017 09 21 00 02 01.5688020  0  1                     
G06  20670718.492     -236288.008       -2177.374           0.107  
> 2017 09 21 00 02 01.6688020  0  1                     
G06  20670773.765     -236507.845       -2179.083           0.124  
> 2017 09 21 00 02 01.7688020  0  1                     
G06  20670860.436     -236727.998       -2220.310           0.118  
> 2017 09 21 00 02 01.8688020  0  1                     
G06  20670930.067     -236946.739       -2186.999           0.114  
> 2017 09 21 00 02 01.9688020  0  1                     
G06  20670980.891     -237166.562       -2177.760           0.104  
> 2017 09 21 00 02 02.0688020  0  1                     
G06  20671036.641     -237387.135       -2184.367           0.120  
> 2017 09 21 00 02 02.1688020  0  1                     
G06  20671074.587     -237606.882       -2198.470           0.131  
> 2017 09 21 00 02 02.2688020  0  1                     
G06  20671142.320     -237826.774       -2206.709           0.125  
> 2017 09 21 00 02 02.3688020  0  1                     
G06  20671179.235     -238046.541       -2193.519           0.136  
> 2017 09 21 00 02 02.4688020  0  1                     
G06  20671251.415     -238266.333       -2181.196           0.136  
> 2017 09 21 00 02 02.5688020  0  1                     
G06  20671298.936     -238486.111       -2177.037           0.124  
> 2017 09 21 00 02 02.6688020  0  1                     
G06  20671353.667     -238705.400       -2212.653           0.101  
> 2017 09 21 00 02 02.7688020  0  1                     
G06  20671441.893     -238925.174       -2191.165           0.108  
> 2017 09 21 00 02 02.8688020  0  1                     
G06  20671453.493     -239146.353       -2246.998           0.119  
> 2017 09 21 00 02 02.9688020  0  1                     
G06  20671538.146     -239368.653       -2246.735           0.137  
> 2017 09 21 00 02 03.0688020  0  1                     
G06  20671598.739     -239592.217       -2227.403           0.121  
> 2017 09 21 00 02 03.1688020  0  1                     
G06  20671663.246     -239817.046       -2238.808           0.151  
> 2017 09 21 00 02 03.2688020  0  1                     
G06  20671751.524     -240041.922       -2249.708           0.157  
> 2017 09 21 00 02 03.3688020  0  1                     
G06  20671845.971     -240266.797       -2246.878           0.136  
> 2017 09 21 00 02 03.4688020  0  1                     
G06  20671870.844     -240490.559       -2219.580           0.136  
> 2017 09 21 00 02 03.5688020  0  1                     
G06  20671891.690     -240713.164       -2241.742           0.132  
> 2017 09 21 00 02 03.6688020  0  1                     
G06  20671920.935     -240935.536       -2237.484           0.136  
> 2017 09 21 00 02 03.7688020  0  1                     
G06  20671996.240     -241158.006       -2235.514           0.133  
> 2017 09 21 00 02 03.8688020  0  1                     
G06  20672055.640     -241380.394       -2237.063           0.133  
> 2017 09 21 00 02 03.9688020  0  1                     
G06  20672156.706     -241602.527       -2213.000           0.132  
> 2017 09 21 00 02 04.0688020  0  1                     
G06  20672176.846     -241824.656       -2249.420           0.124  
> 2017 09 21 00 02 04.1688020  0  1                     
G06  20672200.850     -242047.176       -2244.195           0.133  
> 2017 09 21 00 02 04.2688020  0  1                     
G06  20672292.794     -242269.550       -2239.042           0.135  
> 2017 09 21 00 02 04.3688020  0  1                     
G06  20672337.159     -242492.385       -2239.007           0.126  
> 2017 09 21 00 02 04.4688020  0  1                     
G06  20672414.825     -242714.544       -2208.670           0.133  
> 2017 09 21 00 02 04.5688020  0  1                     
G06  20672450.645     -242934.167       -2196.291           0.116  
> 2017 09 21 00 02 04.6688020  0  1                     
G06  20672494.319     -243154.221       -2191.430           0.125  
> 2017 09 21 00 02 04.7688020  0  1                     
G06  20672573.843     -243373.468       -2201.635           0.114  
> 2017 09 21 00 02 04.8688020  0  1                     
G06  20672622.181     -243593.694       -2220.420           0.127  
> 2017 09 21 00 02 04.9688020  0  1                     
G06  20672672.366     -243813.601       -2218.270           0.125  
> 2017 09 21 00 02 05.0688020  0  1                     
G06  20672758.282     -244034.292       -2199.220           0.120  
> 2017 09 21 00 02 05.1688020  0  1                     
G06  20672805.495     -244254.479       -2203.016           0.130  
> 2017 09 21 00 02 05.2688020  0  1                     
G06  20672861.888     -244473.790       -2203.151           0.122  
> 2017 09 21 00 02 05.3688020  0  1                     
G06  20672914.235     -244693.579       -2188.674           0.129  
> 2017 09 21 00 02 05.4688020  0  1                     
G06  20672962.844     -244915.027       -2239.507           0.119  
> 2017 09 21 00 02 05.5688020  0  1                     
G06  20673031.659     -245137.526       -2252.153           0.133  
> 2017 09 21 00 02 05.6688020  0  1                     
G06  20673072.431     -245359.427       -2212.726           0.135  
> 2017 09 21 00 02 05.7688020  0  1                     
G06  20673130.038     -245582.786       -2215.155           0.117  
> 2017 09 21 00 02 05.8688020  0  1                     
G06  20673220.848     -245807.053       -2249.177           0.133  
> 2017 09 21 00 02 05.9688020  0  1                     
G06  20673273.034     -246031.870       -2245.919           0.146  
> 2017 09 21 00 02 06.0688020  0  1                     
G06  20673368.271     -246256.674       -2240.988           0.154  
> 2017 09 21 00 02 06.1688020  0  1                     
G06  20673450.240     -246481.184       -2247.641           0.135  
> 2017 09 21 00 02 06.2688020  0  1                     
G06  20673544.046     -246707.760       -2286.569           0.127  
> 2017 09 21 00 02 06.3688020  0  1                     
G06  20673628.126     -246934.171       -2283.510           0.125  
> 2017 09 21 00 02 06.4688020  0  1                     
G06  20673713.959     -247160.870       -2284.089           0.127  
> 2017 09 21 00 02 06.5688020  0  1                     
G06  20673766.838     -247388.855       -2290.518           0.112  
> 2017 09 21 00 02 06.6688020  0  1                     
G06  20673819.722     -247617.593       -2317.058           0.123  
> 2017 09 21 00 02 06.7688020  0  1                     
G06  20673855.494     -247845.337       -2280.405           0.114  
> 2017 09 21 00 02 06.8688020  0  1                     
G06  20673898.230     -248071.237       -2273.680           0.141  
> 2017 09 21 00 02 06.9688020  0  1                     
G06  20673931.146     -248296.270       -2253.317           0.130  
> 2017 09 21 00 02 07.0688020  0  1                     
G06  20673991.603     -248521.753       -2245.480           0.103  
> 2017 09 21 00 02 07.1688020  0  1                     
G06  20674045.492     -248748.087       -2259.228           0.141  
> 2017 09 21 00 02 07.2688020  0  1                     
G06  20674104.976     -248975.142       -2268.982           0.127  
> 2017 09 21 00 02 07.3688020  0  1                     
G06  20674151.410     -249199.954       -2241.602           0.120  
> 2017 09 21 00 02 07.4688020  0  1                     
G06  20674206.626     -249426.032       -2241.586           0.129  
> 2017 09 21 00 02 07.5688020  0  1                     
G06  20674254.161     -249652.147       -2237.348           0.082  
> 2017 09 21 00 02 07.6688020  0  1                     
G06  20674306.852     -249877.130       -2251.602           0.138  
> 2017 09 21 00 02 07.7688020  0  1                     
G06  20674364.823     -250102.054       -2261.025           0.132  
> 2017 09 21 00 02 07.8688020  0  1                     
G06  20674375.388     -250327.099       -2252.741           0.143  
> 2017 09 21 00 02 07.9688020  0  1                     
G06  20674423.942     -250551.784       -2230.170           0.147  
> 2017 09 21 00 02 08.0688020  0  1                     
G06  20674483.896     -250776.775       -2225.405           0.135  
> 2017 09 21 00 02 08.1688020  0  1                     
G06  20674504.050     -250999.913       -2255.605           0.122  
> 2017 09 21 00 02 08.2688020  0  1                     
G06  20674536.010     -251222.096       -2249.483           0.128  
> 2017 09 21 00 02 08.3688020  0  1                     
G06  20674606.678     -251444.210       -2212.581           0.129  
> 2017 09 21 00 02 08.4688020  0  1                     
G06  20674660.333     -251666.954       -2235.816           0.125  
> 2017 09 21 00 02 08.5688020  0  1                     
G06  20674707.527     -251888.992       -2197.207           0.131  
> 2017 09 21 00 02 08.6688020  0  1                     
G06  20674807.513     -252113.321       -2224.422           0.125  
> 2017 09 21 00 02 08.7688020  0  1                     
G06  20674877.821     -252335.752       -2251.048           0.126  
> 2017 09 21 00 02 08.8688020  0  1                     
G06  20674985.793     -252560.440       -2224.431           0.125  
> 2017 09 21 00 02 08.9688020  0  1                     
G06  20675066.953     -252785.690       -2258.437           0.132  
> 2017 09 21 00 02 09.0688020  0  1                     
G06  20675132.492     -253010.662       -2277.142           0.126  
> 2017 09 21 00 02 09.1688020  0  1                     
G06  20675201.307     -253233.621       -2248.695           0.115  
> 2017 09 21 00 02 09.2688020  0  1                     
G06  20675258.855     -253458.097       -2255.582           0.114  
> 2017 09 21 00 02 09.3688020  0  1                     
G06  20675328.130     -253682.984       -2237.461           0.131  
> 2017 09 21 00 02 09.4688020  0  1                     
G06  20675380.458     -253907.781       -2248.083           0.116  
> 2017 09 21 00 02 09.5688020  0  1                     
G06  20675449.819     -254134.585       -2260.493           0.129  
> 2017 09 21 00 02 09.6688020  0  1                     
G06  20675509.421     -254361.588       -2284.050           0.114  
> 2017 09 21 00 02 09.7688020  0  1                     
G06  20675551.596     -254588.942       -2246.068           0.146  
> 2017 09 21 00 02 09.8688020  0  1                     
G06  20675612.198     -254813.322       -2252.774           0.109  
> 2017 09 21 00 02 09.9688020  0  1                     
G06  20675658.172     -255040.778       -2287.297           0.129  
> 2017 09 21 00 02 10.0688020  0  1                     
G06  20675738.112     -255266.987       -2243.591           0.094  
> 2017 09 21 00 02 10.1688020  0  1                     
G06  20675775.672     -255492.362       -2252.590           0.122  
> 2017 09 21 00 02 10.2688020  0  1                     
G06  20675814.100     -255716.486       -2258.963           0.114  
> 2017 09 21 00 02 10.3688020  0  1                     
G06  20675841.480     -255941.279       -2223.628           0.141  
> 2017 09 21 00 02 10.4688020  0  1                     
G06  20675831.903     -256163.777       -2252.402           0.113  
> 2017 09 21 00 02 10.5688020  0  1                     
G06  20675863.905     -256385.840       -2196.109           0.129  
> 2017 09 21 00 02 10.6688020  0  1                     
G06  20675952.220     -256606.703       -2192.274           0.129  
> 2017 09 21 00 02 10.7688020  0  1                     
G06  20675978.698     -256826.787       -2220.426           0.137  
> 2017 09 21 00 02 10.8688020  0  1                     
G06  20676046.188     -257046.002       -2179.469           0.132  
> 2017 09 21 00 02 10.9688020  0  1                     
G06  20676100.237     -257265.726       -2178.016           0.126  
> 2017 09 21 00 02 11.0688020  0  1                     
G06  20676153.051     -257486.018       -2216.077           0.122  
> 2017 09 21 00 02 11.1688020  0  1                     
G06  20676235.473     -257709.263       -2230.791           0.120  
> 2017 09 21 00 02 11.2688020  0  1                     
G06  20676282.881     -257936.335       -2259.262           0.120  
> 2017 09 21 00 02 11.3688020  0  1                     
G06  20676375.838     -258163.989       -2279.704           0.112  
> 2017 09 21 00 02 11.4688020  0  1                     
G06  20676439.569     -258389.612       -2234.559           0.129  
> 2017 09 21 00 02 11.5688020  0  1                     
G06  20676493.330     -258614.641       -2265.431           0.131  
> 2017 09 21 00 02 11.6688020  0  1                     
G06  20676566.823     -258839.177       -2241.607           0.146  
> 2017 09 21 00 02 11.7688020  0  1                     
G06  20676594.808     -259064.428       -2267.273           0.142  
> 2017 09 21 00 02 11.8688020  0  1                     
G06  20676652.493     -259290.403       -2232.422           0.111  
> 2017 09 21 00 02 11.9688020  0  1                     
G06  20676702.512     -259514.546       -2255.917           0.116  
> 2017 09 21 00 02 12.0688020  0  1                     
G06  20676717.218     -259738.231       -2253.028           0.129  
> 2017 09 21 00 02 12.1688020  0  1                     
G06  20676795.954     -259963.083       -2246.832           0.157  
> 2017 09 21 00 02 12.2688020  0  1                     
G06  20676883.247     -260187.970       -2244.774           0.155  
> 2017 09 21 00 02 12.3688020  0  1                     
G06  20676956.767     -260412.778       -2245.481           0.139  
> 2017 09 21 00 02 12.4688020  0  1                     
G06  20677018.231     -260639.493       -2239.516           0.130  
> 2017 09 21 00 02 12.5688020  0  1                     
G06  20677036.716     -260865.200       -2266.856           0.123  
> 2017 09 21 00 02 12.6688020  0  1                     
G06  20677077.421     -261091.877       -2256.531           0.119  
> 2017 09 21 00 02 12.7688020  0  1                     
G06  20677141.482     -261319.266       -2261.956           0.139  
> 2017 09 21 00 02 12.8688020  0  1                     
G06  20677166.423     -261546.676       -2262.235           0.139  
> 2017 09 21 00 02 12.9688020  0  1                     
G06  20677250.720     -261773.952       -2252.989           0.134  
> 2017 09 21 00 02 13.0688020  0  1                     
G06  20677402.905     -262002.113       -2304.872           0.060  
> 2017 09 21 00 02 13.1688020  0  1                     
G06  20677587.953     -262229.419       -2266.851           0.104  
> 2017 09 21 00 02 13.2688020  0  1                     
G06  20677663.952     -262456.795       -2267.246           0.132  
> 2017 09 21 00 02 13.3688020  0  1                     
G06  20677736.556     -262684.114       -2259.757           0.135  
> 2017 09 21 00 02 13.4688020  0  1                     
G06  20677763.860     -262911.517       -2261.102           0.140  
> 2017 09 21 00 02 13.5688020  0  1                     
G06  20677805.729     -263139.021       -2263.935           0.141  
> 2017 09 21 00 02 13.6688020  0  1                     
G06  20677867.210     -263366.446       -2258.013           0.138  
> 2017 09 21 00 02 13.7688020  0  1                     
G06  20677920.444     -263593.874       -2253.603           0.142  
> 2017 09 21 00 02 13.8688020  0  1                     
G06  20677989.907     -263821.363       -2254.351           0.136  
> 2017 09 21 00 02 13.9688020  0  1                     
G06  20678068.120     -264048.909       -2263.789           0.137  
> 2017 09 21 00 02 14.0688020  0  1                     
G06  20678089.936     -264276.417       -2265.031           0.138  
> 2017 09 21 00 02 14.1688020  0  1                     
G06  20678165.890     -264503.780       -2256.795           0.138  
> 2017 09 21 00 02 14.2688020  0  1                     
G06  20678213.368     -264731.245       -2264.668           0.136  
> 2017 09 21 00 02 14.3688020  0  1                     
G06  20678251.326     -264958.700       -2252.409           0.137  
> 2017 09 21 00 02 14.4688020  0  1                     
G06  20678321.990     -265186.310       -2255.970           0.140  
> 2017 09 21 00 02 14.5688020  0  1                     
G06  20678362.630     -265413.881       -2257.785           0.140  
> 2017 09 21 00 02 14.6688020  0  1                     
G06  20678424.932     -265641.471       -2262.165           0.142  
> 2017 09 21 00 02 14.7688020  0  1                     
G06  20678503.379     -265868.936       -2257.717           0.131  
> 2017 09 21 00 02 14.8688020  0  1                     
G06  20678572.571     -266096.447       -2254.420           0.137  
> 2017 09 21 00 02 14.9688020  0  1                     
G06  20678605.796     -266323.997       -2261.665           0.139  
> 2017 09 21 00 02 15.0688020  0  1                     
G06  20678652.502     -266551.481       -2263.153           0.128  
> 2017 09 21 00 02 15.1688020  0  1                     
G06  20678724.608     -266778.954       -2256.189           0.130  
> 2017 09 21 00 02 15.2688020  0  1                     
G06  20678768.077     -267006.451       -2260.809           0.139  
> 2017 09 21 00 02 15.3688020  0  1                     
G06  20678826.445     -267233.912       -2263.527           0.141  
> 2017 09 21 00 02 15.4688020  0  1                     
G06  20678889.559     -267461.300       -2258.348           0.144  
> 2017 09 21 00 02 15.5688020  0  1                     
G06  20678932.026     -267688.770       -2256.530           0.140  
> 2017 09 21 00 02 15.6688020  0  1                     
G06  20679013.048     -267916.211       -2259.073           0.140  
> 2017 09 21 00 02 15.7688020  0  1                     
G06  20679091.776     -268143.684       -2271.530           0.134  
> 2017 09 21 00 02 15.8688020  0  1                     
G06  20679131.848     -268371.078       -2268.404           0.134  
> 2017 09 21 00 02 15.9688020  0  1                     
G06  20679196.445     -268598.539       -2263.117           0.136  
> 2017 09 21 00 02 16.0688020  0  1                     
G06  20679223.985     -268825.986       -2257.834           0.130  
> 2017 09 21 00 02 16.1688020  0  1                     
G06  20679279.049     -269053.531       -2252.590           0.136  
> 2017 09 21 00 02 16.2688020  0  1                     
G06  20679342.880     -269281.039       -2254.458           0.142  
> 2017 09 21 00 02 16.3688020  0  1                     
G06  20679383.631     -269508.516       -2260.077           0.136  
> 2017 09 21 00 02 16.4688020  0  1                     
G06  20679441.862     -269735.847       -2259.766           0.145  
> 2017 09 21 00 02 16.5688020  0  1                     
G06  20679522.401     -269963.367       -2261.571           0.137  
> 2017 09 21 00 02 16.6688020  0  1                     
G06  20679595.137     -270190.837       -2262.615           0.138  
> 2017 09 21 00 02 16.7688020  0  1                     
G06  20679642.939     -270418.252       -2259.829           0.137  
> 2017 09 21 00 02 16.8688020  0  1                     
G06  20679687.860     -270645.714       -2257.166           0.132  
> 2017 09 21 00 02 16.9688020  0  1                     
G06  20679761.418     -270873.291       -2270.264           0.135  
> 2017 09 21 00 02 17.0688020  0  1                     
G06  20679808.986     -271100.729       -2258.778           0.140  
> 2017 09 21 00 02 17.1688020  0  1                     
G06  20679858.244     -271328.303       -2262.958           0.142  
> 2017 09 21 00 02 17.2688020  0  1                     
G06  20679925.155     -271555.834       -2257.561           0.143  
> 2017 09 21 00 02 17.3688020  0  1                     
G06  20679951.369     -271783.436       -2262.469           0.140  
> 2017 09 21 00 02 17.4688020  0  1                     
G06  20680034.249     -272010.873       -2257.267           0.138  
> 2017 09 21 00 02 17.5688020  0  1                     
G06  20680115.477     -272238.384       -2261.970           0.135  
> 2017 09 21 00 02 17.6688020  0  1                     
G06  20680163.332     -272465.859       -2265.460           0.136  
> 2017 09 21 00 02 17.7688020  0  1                     
G06  20680224.573     -272693.339       -2267.448           0.136  
> 2017 09 21 00 02 17.8688020  0  1                     
G06  20680249.245     -272920.792       -2259.973           0.128  
> 2017 09 21 00 02 17.9688020  0  1                     
G06  20680311.659     -273148.279       -2257.716           0.136  
> 2017 09 21 00 02 18.0688020  0  1                     
G06  20680372.157     -273375.776       -2259.289           0.144  
> 2017 09 21 00 02 18.1688020  0  1                     
G06  20680413.264     -273603.313       -2262.408           0.136  
> 2017 09 21 00 02 18.2688020  0  1                     
G06  20680467.491     -273830.751       -2263.672           0.141  
> 2017 09 21 00 02 18.3688020  0  1                     
G06  20680552.324     -274058.239       -2254.926           0.136  
> 2017 09 21 00 02 18.4688020  0  1                     
G06  20680623.790     -274285.735       -2263.945           0.141  
> 2017 09 21 00 02 18.5688020  0  1                     
G06  20680669.826     -274513.224       -2259.345           0.137  
> 2017 09 21 00 02 18.6688020  0  1                     
G06  20680718.859     -274740.710       -2260.502           0.133  
> 2017 09 21 00 02 18.7688020  0  1                     
G06  20680782.202     -274968.305       -2259.052           0.130  
> 2017 09 21 00 02 18.8688020  0  1                     
G06  20680831.756     -275195.721       -2257.103           0.136  
> 2017 09 21 00 02 18.9688020  0  1                     
G06  20680880.578     -275423.269       -2254.680           0.140  
> 2017 09 21 00 02 19.0688020  0  1                     
G06  20680952.892     -275650.756       -2258.430           0.141  
> 2017 09 21 00 02 19.1688020  0  1                     
G06  20680970.167     -275878.264       -2263.563           0.140  
> 2017 09 21 00 02 19.2688020  0  1                     
G06  20681050.435     -276105.600       -2252.529           0.138  
> 2017 09 21 00 02 19.3688020  0  1                     
G06  20681117.761     -276333.244       -2259.478           0.133  
> 2017 09 21 00 02 19.4688020  0  1                     
G06  20681180.088     -276560.663       -2260.745           0.137  
> 2017 09 21 00 02 19.5688020  0  1                     
G06  20681248.299     -276788.120       -2259.796           0.135  
> 2017 09 21 00 02 19.6688020  0  1                     
G06  20681293.862     -277015.639       -2257.394           0.127  
> 2017 09 21 00 02 19.7688020  0  1                     
G06  20681343.787     -277243.017       -2259.728           0.138  
> 2017 09 21 00 02 19.8688020  0  1                     
G06  20681403.332     -277470.375       -2256.321           0.142  
> 2017 09 21 00 02 19.9688020  0  1                     
G06  20681439.785     -277697.828       -2260.038           0.143  
> 2017 09 21 00 02 20.0688020  0  1                     
G06  20681495.731     -277925.294       -2262.712           0.142  
> 2017 09 21 00 02 20.1688020  0  1                     
G06  20681579.720     -278152.756       -2264.219           0.137  
> 2017 09 21 00 02 20.2688020  0  1                     
G06  20681651.125     -278380.094       -2261.619           0.135  
> 2017 09 21 00 02 20.3688020  0  1                     
G06  20681696.828     -278607.546       -2254.026           0.133  
> 2017 09 21 00 02 20.4688020  0  1                     
G06  20681742.212     -278835.095       -2258.612           0.134  
> 2017 09 21 00 02 20.5688020  0  1                     
G06  20681817.210     -279062.589       -2264.285           0.140  
> 2017 09 21 00 02 20.6688020  0  1                     
G06  20681855.107     -279290.094       -2263.785           0.138  
> 2017 09 21 00 02 20.7688020  0  1                     
G06  20681903.401     -279517.666       -2264.918           0.143  
> 2017 09 21 00 02 20.8688020  0  1                     
G06  20681977.971     -279745.171       -2261.356           0.144  
> 2017 09 21 00 02 20.9688020  0  1                     
G06  20682007.375     -279972.724       -2255.866           0.140  
> 2017 09 21 00 02 21.0688020  0  1                     
G06  20682081.839     -280200.317       -2258.729           0.141  
> 2017 09 21 00 02 21.1688020  0  1                     
G06  20682143.742     -280427.805       -2254.877           0.135  
> 2017 09 21 00 02 21.2688020  0  1                     
G06  20682224.969     -280655.289       -2257.175           0.137  
> 2017 09 21 00 02 21.3688020  0  1                     
G06  20682272.302     -280882.914       -2263.078           0.137  
> 2017 09 21 00 02 21.4688020  0  1                     
G06  20682314.824     -281110.331       -2256.769           0.132  
> 2017 09 21 00 02 21.5688020  0  1                     
G06  20682373.925     -281337.802       -2248.645           0.133  
> 2017 09 21 00 02 21.6688020  0  1                     
G06  20682423.336     -281565.309       -2248.031           0.137  
> 2017 09 21 00 02 21.7688020  0  1                     
G06  20682468.134     -281792.831       -2261.857           0.139  
> 2017 09 21 00 02 21.8688020  0  1                     
G06  20682522.817     -282020.369       -2270.804           0.142  
> 2017 09 21 00 02 21.9688020  0  1                     
G06  20682602.102     -282247.829       -2263.969           0.139  
> 2017 09 21 00 02 22.0688020  0  1                     
G06  20682675.306     -282475.413       -2267.237           0.134  
> 2017 09 21 00 02 22.1688020  0  1                     
G06  20682727.357     -282702.864       -2267.215           0.132  
> 2017 09 21 00 02 22.2688020  0  1                     
G06  20682775.068     -282930.273       -2262.994           0.135  
> 2017 09 21 00 02 22.3688020  0  1                     
G06  20682843.022     -283157.956       -2272.138           0.136  
> 2017 09 21 00 02 22.4688020  0  1                     
G06  20682897.109     -283385.369       -2263.726           0.134  
> 2017 09 21 00 02 22.5688020  0  1                     
G06  20682935.409     -283612.910       -2263.866           0.142  
> 2017 09 21 00 02 22.6688020  0  1                     
G06  20682999.802     -283840.476       -2260.167           0.142  
> 2017 09 21 00 02 22.7688020  0  1                     
G06  20683039.757     -284067.880       -2254.709           0.138  
> 2017 09 21 00 02 22.8688020  0  1                     
G06  20683101.431     -284295.410       -2266.854           0.140  
> 2017 09 21 00 02 22.9688020  0  1                     
G06  20683180.605     -284522.934       -2269.110           0.135  
> 2017 09 21 00 02 23.0688020  0  1                     
G06  20683253.056     -284750.331       -2249.875           0.135  
> 2017 09 21 00 02 23.1688020  0  1                     
G06  20683316.300     -284978.042       -2261.876           0.137  
> 2017 09 21 00 02 23.2688020  0  1                     
G06  20683339.244     -285205.487       -2258.125           0.132  
> 2017 09 21 00 02 23.3688020  0  1                     
G06  20683398.026     -285433.063       -2256.805           0.134  
> 2017 09 21 00 02 23.4688020  0  1                     
G06  20683451.818     -285660.590       -2265.772           0.141  
> 2017 09 21 00 02 23.5688020  0  1                     
G06  20683500.955     -285888.163       -2262.131           0.139  
> 2017 09 21 00 02 23.6688020  0  1                     
G06  20683556.070     -286115.638       -2263.659           0.143  
> 2017 09 21 00 02 23.7688020  0  1                     
G06  20683626.629     -286343.149       -2258.545           0.141  
> 2017 09 21 00 02 23.8688020  0  1                     
G06  20683703.192     -286570.656       -2253.500           0.138  
> 2017 09 21 00 02 23.9688020  0  1                     
G06  20683772.537     -286798.197       -2258.625           0.136  
> 2019 07 18 00 02 24.0688020  0  1                     
G06  20683820.241     -287025.710       -2258.711           0.136  
> 2019 07 18 00 02 24.1688020  0  1                     
G06  20683878.003     -287253.238       -2259.924           0.139  
> 2019 07 18 00 02 24.2688020  0  1                     
G06  20683913.316     -287480.744       -2265.124           0.135  
> 2019 07 18 00 02 24.3688020  0  1                     
G06  20683965.616     -287708.238       -2261.662           0.140  
> 2019 07 18 00 02 24.4688020  0  1                     
G06  20684028.030     -287935.827       -2263.993           0.142  
> 2019 07 18 00 02 24.5688020  0  1                     
G06  20684069.418     -288163.441       -2264.623           0.141  
> 2019 07 18 00 02 24.6688020  0  1                     
G06  20684128.125     -288391.020       -2261.452           0.137  
> 2019 07 18 00 02 24.7688020  0  1                     
G06  20684198.372     -288618.588       -2263.700           0.138  
> 2019 07 18 00 02 24.8688020  0  1                     
G06  20684278.122     -288846.180       -2264.453           0.138  
> 2019 07 18 00 02 24.9688020  0  1                     
G06  20684334.241     -289073.841       -2270.302           0.139  
> 2019 07 18 00 02 25.0688020  0  1                     
G06  20684361.102     -289301.436       -2260.167           0.126  
> 2019 07 18 00 02 25.1688020  0  1                     
G06  20684419.486     -289528.895       -2263.855           0.137  
> 2019 07 18 00 02 25.2688020  0  1                     
G06  20684478.092     -289756.314       -2263.547           0.140  
> 2019 07 18 00 02 25.3688020  0  1                     
G06  20684486.302     -289984.093       -2254.572           0.121  
> 2019 07 18 00 02 25.4688020  0  1                     
G06  20684541.299     -290209.466       -2274.110           0.098  
> 2019 07 18 00 02 25.5688020  0  1                     
G06  20684588.186     -290434.507       -2225.128           0.126  
> 2019 07 18 00 02 25.6688020  0  1                     
G06  20684636.502     -290659.380       -2265.178           0.139  
> 2019 07 18 00 02 25.7688020  0  1                     
G06  20684690.110     -290884.303       -2257.212           0.146  
> 2019 07 18 00 02 25.8688020  0  1                     
G06  20684736.070     -291109.168       -2248.282           0.142  
> 2019 07 18 00 02 25.9688020  0  1                     
G06  20684798.403     -291334.033       -2234.764           0.143  
> 2019 07 18 00 02 26.0688020  0  1                     
G06  20684847.845     -291559.266       -2248.100           0.129  
> 2019 07 18 00 02 26.1688020  0  1                     
G06  20684909.912     -291784.233       -2254.179           0.141  
> 2019 07 18 00 02 26.2688020  0  1                     
G06  20684969.791     -292009.026       -2268.551           0.137  
> 2019 07 18 00 02 26.3688020  0  1                     
G06  20685023.318     -292234.082       -2254.708           0.155  
> 2019 07 18 00 02 26.4688020  0  1                     
G06  20685092.335     -292459.084       -2250.749           0.162  
> 2019 07 18 00 02 26.5688020  0  1                     
G06  20685157.627     -292684.153       -2254.441           0.157  
> 2019 07 18 00 02 26.6688020  0  1                     
G06  20685220.385     -292909.113       -2249.281           0.165  
> 2019 07 18 00 02 26.7688020  0  1                     
G06  20685283.811     -293134.019       -2247.001           0.159  
> 2019 07 18 00 02 26.8688020  0  1                     
G06  20685329.520     -293359.072       -2250.475           0.157  
> 2019 07 18 00 02 26.9688020  0  1                     
G06  20685384.823     -293584.092       -2245.922           0.165  
> 2019 07 18 00 02 27.0688020  0  1                     
G06  20685431.508     -293809.104       -2248.097           0.161  
> 2019 07 18 00 02 27.1688020  0  1                     
G06  20685491.414     -294034.157       -2253.068           0.163  
> 2019 07 18 00 02 27.2688020  0  1                     
G06  20685562.991     -294259.139       -2251.682           0.169  
> 2019 07 18 00 02 27.3688020  0  1                     
G06  20685619.244     -294484.168       -2248.538           0.151  
> 2019 07 18 00 02 27.4688020  0  1                     
G06  20685688.186     -294709.249       -2256.070           0.166  
> 2019 07 18 00 02 27.5688020  0  1                     
G06  20685746.505     -294934.353       -2250.947           0.159  
> 2019 07 18 00 02 27.6688020  0  1                     
G06  20685798.412     -295159.489       -2248.940           0.164  
> 2019 07 18 00 02 27.7688020  0  1                     
G06  20685858.685     -295384.569       -2250.328           0.163  
> 2019 07 18 00 02 27.8688020  0  1                     
G06  20685910.911     -295609.695       -2254.054           0.153  
> 2019 07 18 00 02 27.9688020  0  1                     
G06  20685964.143     -295834.758       -2248.315           0.169  
> 2019 07 18 00 02 28.0688020  0  1                     
G06  20686015.054     -296059.847       -2251.635           0.161  
> 2019 07 18 00 02 28.1688020  0  1                     
G06  20686065.976     -296284.968       -2248.146           0.162  
> 2019 07 18 00 02 28.2688020  0  1                     
G06  20686135.297     -296510.069       -2252.431           0.165  
> 2019 07 18 00 02 28.3688020  0  1                     
G06  20686195.369     -296735.181       -2251.997           0.153  
> 2019 07 18 00 02 28.4688020  0  1                     
G06  20686261.566     -296960.225       -2251.896           0.166  
> 2019 07 18 00 02 28.5688020  0  1                     
G06  20686316.249     -297185.225       -2248.951           0.158  
> 2019 07 18 00 02 28.6688020  0  1                     
G06  20686362.349     -297410.355       -2252.146           0.160  
> 2019 07 18 00 02 28.7688020  0  1                     
G06  20686421.481     -297635.428       -2252.058           0.164  
> 2019 07 18 00 02 28.8688020  0  1                     
G06  20686465.301     -297860.526       -2245.750           0.159  
> 2019 07 18 00 02 28.9688020  0  1                     
G06  20686520.763     -298085.712       -2254.419           0.164  
> 2019 07 18 00 02 29.0688020  0  1                     
G06  20686584.093     -298310.710       -2249.547           0.168  
> 2019 07 18 00 02 29.1688020  0  1                     
G06  20686638.332     -298535.743       -2246.864           0.150  
> 2019 07 18 00 02 29.2688020  0  1                     
G06  20686707.172     -298760.835       -2249.567           0.164  
> 2019 07 18 00 02 29.3688020  0  1                     
G06  20686763.223     -298985.929       -2248.512           0.159  
> 2019 07 18 00 02 29.4688020  0  1                     
G06  20686815.218     -299210.998       -2248.241           0.160  
> 2019 07 18 00 02 29.5688020  0  1                     
G06  20686875.983     -299436.136       -2249.497           0.164  
> 2019 07 18 00 02 29.6688020  0  1                     
G06  20686930.382     -299661.258       -2248.494           0.151  
> 2019 07 18 00 02 29.7688020  0  1                     
G06  20686986.870     -299886.382       -2256.401           0.167  
> 2019 07 18 00 02 29.8688020  0  1                     
G06  20687037.845     -300111.461       -2252.467           0.161  
> 2019 07 18 00 02 29.9688020  0  1                     
G06  20687092.791     -300336.596       -2249.886           0.161  
> 2019 07 18 00 02 30.0688020  0  1                     
G06  20687166.544     -300561.843       -2252.801           0.165  
> 2019 07 18 00 02 30.1688020  0  1                     
G06  20687225.448     -300786.951       -2251.928           0.152  
> 2019 07 18 00 02 30.2688020  0  1                     
G06  20687285.005     -301012.077       -2251.948           0.168  
> 2019 07 18 00 02 30.3688020  0  1                     
G06  20687343.051     -301237.224       -2250.570           0.158  
> 2019 07 18 00 02 30.4688020  0  1                     
G06  20687393.292     -301462.459       -2242.310           0.125  
> 2019 07 18 00 02 30.5688020  0  1                     
G06  20687449.477     -301687.552       -2255.282           0.140  
> 2019 07 18 00 02 30.6688020  0  1                     
G06  20687499.574     -301912.680       -2261.463           0.134  
> 2019 07 18 00 02 30.7688020  0  1                     
G06  20687555.169     -302137.569       -2256.169           0.159  
> 2019 07 18 00 02 30.8688020  0  1                     
G06  20687617.503     -302362.557       -2251.354           0.165  
> 2019 07 18 00 02 30.9688020  0  1                     
G06  20687667.359     -302587.688       -2253.196           0.153  
> 2019 07 18 00 02 31.0688020  0  1                     
G06  20687737.072     -302812.717       -2254.760           0.158  
> 2019 07 18 00 02 31.1688020  0  1                     
G06  20687784.844     -303037.861       -2264.479           0.144  
> 2019 07 18 00 02 31.2688020  0  1                     
G06  20687834.184     -303262.915       -2252.584           0.158  
> 2019 07 18 00 02 31.3688020  0  1                     
G06  20687885.040     -303488.028       -2253.476           0.153  
> 2019 07 18 00 02 31.4688020  0  1                     
G06  20687941.730     -303713.094       -2255.027           0.143  
> 2019 07 18 00 02 31.5688020  0  1                     
G06  20687993.359     -303938.272       -2261.407           0.159  
> 2019 07 18 00 02 31.6688020  0  1                     
G06  20688051.387     -304163.368       -2254.660           0.149  
> 2019 07 18 00 02 31.7688020  0  1                     
G06  20688096.901     -304388.471       -2254.059           0.153  
> 2019 07 18 00 02 31.8688020  0  1                     
G06  20688173.985     -304613.662       -2251.553           0.148  
> 2019 07 18 00 02 31.9688020  0  1                     
G06  20688241.216     -304838.910       -2244.407           0.141  
> 2019 07 18 00 02 32.0688020  0  1                     
G06  20688304.404     -305064.181       -2250.826           0.164  
> 2019 07 18 00 02 32.1688020  0  1                     
G06  20688360.500     -305289.475       -2251.779           0.159  
> 2019 07 18 00 02 32.2688020  0  1                     
G06  20688416.299     -305514.823       -2252.277           0.151  
> 2019 07 18 00 02 32.3688020  0  1                     
G06  20688478.057     -305740.009       -2247.407           0.158  
> 2019 07 18 00 02 32.4688020  0  1                     
G06  20688535.661     -305965.153       -2251.016           0.157  
> 2019 07 18 00 02 32.5688020  0  1                     
G06  20688594.337     -306190.347       -2249.344           0.169  
> 2019 07 18 00 02 32.6688020  0  1                     
G06  20688651.600     -306415.611       -2253.156           0.162  
> 2019 07 18 00 02 32.7688020  0  1                     
G06  20688697.033     -306640.798       -2249.319           0.155  
> 2019 07 18 00 02 32.8688020  0  1                     
G06  20688773.907     -306865.888       -2253.401           0.151  
> 2019 07 18 00 02 32.9688020  0  1                     
G06  20688828.663     -307091.154       -2256.834           0.154  
> 2019 07 18 00 02 33.0688020  0  1                     
G06  20688886.762     -307316.282       -2251.050           0.164  
> 2019 07 18 00 02 33.1688020  0  1                     
G06  20688942.991     -307541.473       -2251.797           0.159  
> 2019 07 18 00 02 33.2688020  0  1                     
G06  20688990.859     -307766.638       -2251.380           0.155  
> 2019 07 18 00 02 33.3688020  0  1                     
G06  20689039.998     -307991.878       -2254.917           0.167  
> 2019 07 18 00 02 33.4688020  0  1                     
G06  20689091.100     -308217.173       -2258.725           0.145  
> 2019 07 18 00 02 33.5688020  0  1                     
G06  20689143.964     -308442.397       -2258.648           0.157  
> 2019 07 18 00 02 33.6688020  0  1                     
G06  20689216.469     -308667.557       -2250.866           0.164  
> 2019 07 18 00 02 33.7688020  0  1                     
G06  20689274.319     -308892.769       -2253.015           0.149  
> 2019 07 18 00 02 33.8688020  0  1                     
G06  20689338.053     -309117.928       -2254.000           0.167  
> 2019 07 18 00 02 33.9688020  0  1                     
G06  20689389.051     -309343.129       -2258.979           0.157  
> 2019 07 18 00 02 34.0688020  0  1                     
G06  20689443.603     -309568.272       -2261.017           0.144  
> 2019 07 18 00 02 34.1688020  0  1                     
G06  20689506.219     -309793.645       -2250.734           0.154  
> 2019 07 18 00 02 34.2688020  0  1                     
G06  20689556.963     -310018.959       -2254.740           0.156  
> 2019 07 18 00 02 34.3688020  0  1                     
G06  20689616.828     -310244.221       -2254.592           0.168  
> 2019 07 18 00 02 34.4688020  0  1                     
G06  20689680.524     -310469.504       -2252.942           0.164  
> 2019 07 18 00 02 34.5688020  0  1                     
G06  20689727.861     -310694.829       -2262.267           0.142  
> 2019 07 18 00 02 34.6688020  0  1                     
G06  20689802.518     -310919.994       -2260.802           0.151  
> 2019 07 18 00 02 34.7688020  0  1                     
G06  20689856.307     -311145.192       -2255.744           0.151  
> 2019 07 18 00 02 34.8688020  0  1                     
G06  20689919.221     -311370.307       -2251.009           0.151  
> 2019 07 18 00 02 34.9688020  0  1                     
G06  20689977.063     -311595.532       -2259.823           0.145  
> 2019 07 18 00 02 35.0688020  0  1                     
G06  20690022.546     -311820.734       -2254.044           0.150  
> 2019 07 18 00 02 35.1688020  0  1                     
G06  20690077.135     -312045.923       -2248.498           0.165  
> 2019 07 18 00 02 35.2688020  0  1                     
G06  20690117.105     -312271.097       -2247.317           0.153  
> 2019 07 18 00 02 35.3688020  0  1                     
G06  20690173.724     -312496.200       -2252.204           0.162  
> 2019 07 18 00 02 35.4688020  0  1                     
G06  20690250.139     -312721.377       -2245.287           0.165  
> 2019 07 18 00 02 35.5688020  0  1                     
G06  20690308.666     -312946.642       -2248.609           0.148  
> 2019 07 18 00 02 35.6688020  0  1                     
G06  20690375.041     -313171.749       -2248.342           0.166  
> 2019 07 18 00 02 35.7688020  0  1                     
G06  20690431.566     -313396.889       -2250.683           0.150  
> 2019 07 18 00 02 35.8688020  0  1                     
G06  20690480.900     -313621.826       -2248.326           0.156  
> 2019 07 18 00 02 35.9688020  0  1                     
G06  20690550.543     -313846.932       -2254.969           0.164  
> 2019 07 18 00 02 36.0688020  0  1                     
G06  20690596.744     -314071.965       -2253.857           0.157  
> 2019 07 18 00 02 36.1688020  0  1                     
G06  20690653.522     -314297.153       -2251.368           0.161  
> 2019 07 18 00 02 36.2688020  0  1                     
G06  20690697.345     -314522.205       -2252.334           0.160  
> 2019 07 18 00 02 36.3688020  0  1                     
G06  20690754.111     -314747.289       -2252.366           0.144  
> 2019 07 18 00 02 36.4688020  0  1                     
G06  20690825.818     -314972.380       -2249.135           0.153  
> 2019 07 18 00 02 36.5688020  0  1                     
G06  20690887.616     -315197.546       -2245.795           0.147  
> 2019 07 18 00 02 36.6688020  0  1                     
G06  20690955.295     -315422.593       -2244.565           0.154  
> 2019 07 18 00 02 36.7688020  0  1                     
G06  20691003.658     -315647.825       -2245.625           0.151  
> 2019 07 18 00 02 36.8688020  0  1                     
G06  20691049.924     -315873.059       -2251.591           0.161  
> 2019 07 18 00 02 36.9688020  0  1                     
G06  20691104.955     -316098.221       -2253.693           0.168  
> 2019 07 18 00 02 37.0688020  0  1                     
G06  20691145.770     -316323.407       -2255.682           0.151  
> 2019 07 18 00 02 37.1688020  0  1                     
G06  20691200.023     -316548.603       -2252.026           0.158  
> 2019 07 18 00 02 37.2688020  0  1                     
G06  20691259.900     -316773.795       -2252.460           0.161  
> 2019 07 18 00 02 37.3688020  0  1                     
G06  20691327.946     -316998.956       -2259.782           0.134  
> 2019 07 18 00 02 37.4688020  0  1                     
G06  20691397.960     -317224.128       -2267.238           0.154  
> 2019 07 18 00 02 37.5688020  0  1                     
G06  20691457.695     -317449.252       -2243.317           0.148  
> 2019 07 18 00 02 37.6688020  0  1                     
G06  20691507.539     -317674.558       -2251.941           0.165  
> 2019 07 18 00 02 37.7688020  0  1                     
G06  20691570.433     -317899.731       -2239.966           0.162  
> 2019 07 18 00 02 37.8688020  0  1                     
G06  20691627.276     -318125.113       -2252.277           0.146  
> 2019 07 18 00 02 37.9688020  0  1                     
G06  20691689.502     -318350.271       -2248.253           0.168  
> 2019 07 18 00 02 38.0688020  0  1                     
G06  20691744.596     -318575.586       -2251.981           0.160  
> 2019 07 18 00 02 38.1688020  0  1                     
G06  20691806.362     -318800.812       -2261.785           0.151  
> 2019 07 18 00 02 38.2688020  0  1                     
G06  20691870.869     -319025.945       -2248.721           0.135  
> 2019 07 18 00 02 38.3688020  0  1                     
G06  20691911.290     -319251.282       -2246.227           0.154  
> 2019 07 18 00 02 38.4688020  0  1                     
G06  20691970.107     -319476.439       -2240.419           0.150  
> 2019 07 18 00 02 38.5688020  0  1                     
G06  20692015.126     -319701.749       -2241.876           0.136  
> 2019 07 18 00 02 38.6688020  0  1                     
G06  20692069.632     -319927.009       -2251.547           0.149  
> 2019 07 18 00 02 38.7688020  0  1                     
G06  20692124.820     -320152.392       -2261.651           0.155  
> 2019 07 18 00 02 38.8688020  0  1                     
G06  20692168.797     -320377.663       -2253.202           0.150  
> 2019 07 18 00 02 38.9688020  0  1                     
G06  20692224.027     -320603.006       -2261.541           0.158  
> 2019 07 18 00 02 39.0688020  0  1                     
G06  20692297.642     -320828.161       -2264.815           0.151  
> 2019 07 18 00 02 39.1688020  0  1                     
G06  20692351.259     -321053.462       -2259.412           0.138  
> 2019 07 18 00 02 39.2688020  0  1                     
G06  20692410.952     -321278.693       -2238.809           0.144  
> 2019 07 18 00 02 39.3688020  0  1                     
G06  20692470.080     -321504.040       -2268.338           0.120  
> 2019 07 18 00 02 39.4688020  0  1                     
G06  20692530.811     -321729.397       -2249.590           0.154  
> 2019 07 18 00 02 39.5688020  0  1                     
G06  20692597.648     -321954.702       -2245.765           0.154  
> 2019 07 18 00 02 39.6688020  0  1                     
G06  20692654.500     -322180.061       -2250.498           0.161  
> 2019 07 18 00 02 39.7688020  0  1                     
G06  20692715.448     -322405.388       -2250.872           0.163  
> 2019 07 18 00 02 39.8688020  0  1                     
G06  20692762.511     -322630.705       -2250.017           0.154  
> 2019 07 18 00 02 39.9688020  0  1                     
G06  20692811.244     -322855.956       -2255.263           0.155  
> 2019 07 18 00 02 40.0688020  0  1                     
G06  20692882.453     -323081.273       -2253.638           0.153  
> 2019 07 18 00 02 40.1688020  0  1                     
G06  20692941.089     -323306.725       -2252.728           0.151  
> 2019 07 18 00 02 40.2688020  0  1                     
G06  20693009.285     -323531.834       -2245.515           0.157  
> 2019 07 18 00 02 40.3688020  0  1                     
G06  20693056.027     -323756.097       -2230.271           0.139  
> 2019 07 18 00 02 40.4688020  0  1                     
G06  20693105.125     -323981.739       -2250.593           0.150  
> 2019 07 18 00 02 40.5688020  0  1                     
G06  20693158.709     -324207.115       -2260.408           0.152  
> 2019 07 18 00 02 40.6688020  0  1                     
G06  20693194.169     -324432.413       -2270.742           0.134  
> 2019 07 18 00 02 40.7688020  0  1                     
G06  20693256.376     -324658.336       -2255.121           0.140  
> 2019 07 18 00 02 40.8688020  0  1                     
G06  20693327.296     -324883.613       -2261.769           0.161  
> 2019 07 18 00 02 40.9688020  0  1                     
G06  20693379.748     -325108.955       -2273.457           0.129  
> 2019 07 18 00 02 41.0688020  0  1                     
G06  20693443.537     -325334.248       -2267.566           0.152  
> 2019 07 18 00 02 41.1688020  0  1                     
G06  20693494.154     -325559.580       -2253.690           0.147  
> 2019 07 18 00 02 41.2688020  0  1                     
G06  20693550.982     -325784.861       -2261.781           0.151  
> 2019 07 18 00 02 41.3688020  0  1                     
G06  20693613.139     -326010.249       -2258.965           0.159  
> 2019 07 18 00 02 41.4688020  0  1                     
G06  20693672.492     -326235.599       -2257.952           0.149  
> 2019 07 18 00 02 41.5688020  0  1                     
G06  20693730.440     -326460.963       -2252.073           0.162  
> 2019 07 18 00 02 41.6688020  0  1                     
G06  20693793.549     -326686.313       -2260.380           0.149  
> 2019 07 18 00 02 41.7688020  0  1                     
G06  20693862.929     -326911.509       -2264.991           0.142  
> 2019 07 18 00 02 41.8688020  0  1                     
G06  20693936.505     -327136.260       -2255.729           0.113  
> 2019 07 18 00 02 41.9688020  0  1                     
G06  20693990.774     -327361.699       -2241.264           0.136  
> 2019 07 18 00 02 42.0688020  0  1                     
G06  20694050.210     -327587.315       -2254.719           0.144  
> 2019 07 18 00 02 42.1688020  0  1                     
G06  20694099.224     -327812.641       -2254.248           0.150  
> 2019 07 18 00 02 42.2688020  0  1                     
G06  20694147.748     -328038.109       -2257.896           0.168  
> 2019 07 18 00 02 42.3688020  0  1                     
G06  20694199.230     -328263.456       -2255.537           0.165  
> 2019 07 18 00 02 42.4688020  0  1                     
G06  20694243.761     -328488.916       -2250.311           0.154  
> 2019 07 18 00 02 42.5688020  0  1                     
G06  20694307.995     -328714.239       -2255.948           0.162  
> 2019 07 18 00 02 42.6688020  0  1                     
G06  20694377.194     -328939.636       -2254.138           0.152  
> 2019 07 18 00 02 42.7688020  0  1                     
G06  20694429.896     -329165.085       -2248.067           0.152  
> 2019 07 18 00 02 42.8688020  0  1                     
G06  20694492.520     -329390.613       -2260.723           0.166  
> 2019 07 18 00 02 42.9688020  0  1                     
G06  20694542.234     -329616.066       -2256.966           0.152  
> 2019 07 18 00 02 43.0688020  0  1                     
G06  20694600.040     -329841.477       -2257.579           0.157  
> 2019 07 18 00 02 43.1688020  0  1                     
G06  20694651.291     -330066.852       -2253.574           0.147  
> 2019 07 18 00 02 43.2688020  0  1                     
G06  20694704.585     -330292.270       -2252.292           0.154  
> 2019 07 18 00 02 43.3688020  0  1                     
G06  20694763.457     -330517.521       -2245.710           0.153  
> 2019 07 18 00 02 43.4688020  0  1                     
G06  20694815.245     -330742.826       -2249.096           0.151  
> 2019 07 18 00 02 43.5688020  0  1                     
G06  20694877.061     -330968.243       -2257.508           0.149  
> 2019 07 18 00 02 43.6688020  0  1                     
G06  20694946.453     -331193.549       -2251.068           0.151  
> 2019 07 18 00 02 43.7688020  0  1                     
G06  20695001.149     -331418.893       -2254.650           0.152  
> 2019 07 18 00 02 43.8688020  0  1                     
G06  20695067.416     -331644.300       -2255.787           0.161  
> 2019 07 18 00 02 43.9688020  0  1                     
G06  20695112.007     -331869.673       -2260.987           0.145  
> 2019 07 18 00 02 44.0688020  0  1                     
G06  20695165.481     -332094.967       -2253.998           0.155  
> 2019 07 18 00 02 44.1688020  0  1                     
G06  20695213.164     -332320.259       -2256.893           0.146  
> 2019 07 18 00 02 44.2688020  0  1                     
G06  20695251.754     -332545.714       -2259.556           0.135  
> 2019 07 18 00 02 44.3688020  0  1                     
G06  20695313.126     -332771.034       -2258.329           0.154  
> 2019 07 18 00 02 44.4688020  0  1                     
G06  20695392.181     -332996.259       -2264.135           0.145  
> 2019 07 18 00 02 44.5688020  0  1                     
G06  20695447.878     -333221.688       -2250.102           0.135  
> 2019 07 18 00 02 44.6688020  0  1                     
G06  20695511.455     -333447.056       -2241.031           0.148  
> 2019 07 18 00 02 44.7688020  0  1                     
G06  20695571.365     -333672.313       -2255.115           0.137  
> 2019 07 18 00 02 44.8688020  0  1                     
G06  20695630.355     -333897.663       -2250.143           0.157  
> 2019 07 18 00 02 44.9688020  0  1                     
G06  20695685.816     -334122.926       -2248.911           0.140  
> 2019 07 18 00 02 45.0688020  0  1                     
G06  20695741.010     -334348.341       -2251.472           0.155  
> 2019 07 18 00 02 45.1688020  0  1                     
G06  20695802.820     -334573.730       -2251.919           0.152  
> 2019 07 18 00 02 45.2688020  0  1                     
G06  20695852.927     -334798.969       -2253.647           0.148  
> 2019 07 18 00 02 45.3688020  0  1                     
G06  20695910.110     -335024.266       -2252.396           0.149  
> 2019 07 18 00 02 45.4688020  0  1                     
G06  20695979.289     -335249.545       -2259.992           0.142  
> 2019 07 18 00 02 45.5688020  0  1                     
G06  20696037.066     -335474.714       -2248.303           0.158  
> 2019 07 18 00 02 45.6688020  0  1                     
G06  20696093.614     -335700.064       -2252.640           0.151  
> 2019 07 18 00 02 45.7688020  0  1                     
G06  20696140.715     -335925.293       -2280.055           0.126  
> 2019 07 18 00 02 45.8688020  0  1                     
G06  20696187.992     -336150.601       -2269.260           0.122  
> 2019 07 18 00 02 45.9688020  0  1                     
G06  20696253.896     -336376.542       -2260.773           0.094  
> 2019 07 18 00 02 46.0688020  0  1                     
G06  20696304.554     -336599.484       -2231.318           0.056  
> 2019 07 18 00 02 46.1688020  0  1                     
G06  20696312.944     -336820.387       -2232.866           0.071  
> 2019 07 18 00 02 46.2688020  0  1                     
G06  20696327.357     -337042.070       -2208.671           0.083  
> 2019 07 18 00 02 46.3688020  0  1                     
G06  20696361.364     -337264.635       -2221.605           0.079  
> 2019 07 18 00 02 46.4688020  0  1                     
G06  20696403.133     -337486.262       -2236.233           0.067  
> 2019 07 18 00 02 46.5688020  0  1                     
G06  20696445.132     -337710.618       -2230.044           0.059  
> 2019 07 18 00 02 46.6688020  0  1                     
G06  20696497.605     -337932.976       -2218.251           0.070  
> 2019 07 18 00 02 46.7688020  0  1                     
G06  20696512.031     -338153.548       -2218.985           0.085  
> 2019 07 18 00 02 46.8688020  0  1                     
G06  20696587.105     -338374.345       -2192.220           0.077  
> 2019 07 18 00 02 46.9688020  0  1                     
G06  20696661.579     -338595.408       -2223.815           0.084  
> 2019 07 18 00 02 47.0688020  0  1                     
G06  20696775.784     -338814.051       -2200.344           0.065  
> 2019 07 18 00 02 47.1688020  0  1                     
G06  20696885.644     -339031.335       -2143.423           0.073  
> 2019 07 18 00 02 47.2688020  0  1                     
G06  20697004.551     -339247.220       -2148.005           0.094  
> 2019 07 18 00 02 47.3688020  0  1                     
G06  20697105.570     -339463.473       -2167.923           0.101  
> 2019 07 18 00 02 47.4688020  0  1                     
G06  20697204.555     -339679.537       -2157.801           0.084  
> 2019 07 18 00 02 47.5688020  0  1                     
G06  20697293.429     -339895.007       -2126.081           0.076  
> 2019 07 18 00 02 47.6688020  0  1                     
G06  20697391.186     -340108.053       -2115.367           0.083  
> 2019 07 18 00 02 47.7688020  0  1                     
G06  20697471.146     -340320.843       -2098.262           0.074  
> 2019 07 18 00 02 47.8688020  0  1                     
G06  20697568.746     -340533.644       -2123.016           0.065  
> 2019 07 18 00 02 47.9688020  0  1                     
G06  20697671.019     -340745.592       -2102.101           0.054  
> 2019 07 18 00 02 48.0688020  0  1                     
G06  20697778.733     -340957.933       -2096.696           0.069  
> 2019 07 18 00 02 48.1688020  0  1                     
G06  20697901.901     -341168.460       -2093.512           0.061  
> 2019 07 18 00 02 48.2688020  0  1                     
G06  20698062.457     -341377.503       -2107.062           0.079  
> 2019 07 18 00 02 48.3688020  0  1                     
G06  20698200.646     -341587.973       -2104.480           0.068  
> 2019 07 18 00 02 48.4688020  0  1                     
G06  20698322.218     -341800.733       -2142.287           0.065  
> 2019 07 18 00 02 48.5688020  0  1                     
G06  20698446.467     -342014.047       -2120.433           0.040  
> 2019 07 18 00 02 48.6688020  0  1                     
G06  20698605.081     -342228.110       -2116.906           0.068  
> 2019 07 18 00 02 48.7688020  0  1                     
G06  20698689.096     -342444.625       -2166.849           0.074  
> 2019 07 18 00 02 48.8688020  0  1                     
G06  20698789.518     -342662.129       -2176.490           0.075  
> 2019 07 18 00 02 48.9688020  0  1                     
G06  20698853.798     -342880.496       -2189.289           0.065  
> 2019 07 18 00 02 49.0688020  0  1                     
G06  20698949.109     -343098.280       -2174.619           0.085  
> 2019 07 18 00 02 49.1688020  0  1                     
G06  20699078.492     -343315.518       -2185.197           0.074  
> 2019 07 18 00 02 49.2688020  0  1                     
G06  20699216.764     -343534.199       -2164.630           0.067  
> 2019 07 18 00 02 49.3688020  0  1                     
G06  20699390.393     -343754.272       -2195.434           0.102  
> 2019 07 18 00 02 49.4688020  0  1                     
G06  20699484.143     -343973.927       -2173.319           0.123  
> 2019 07 18 00 02 49.5688020  0  1                     
G06  20699529.761     -344192.027       -2170.899           0.110  
> 2019 07 18 00 02 49.6688020  0  1                     
G06  20699618.253     -344410.514       -2175.773           0.099  
> 2019 07 18 00 02 49.7688020  0  1                     
G06  20699711.165     -344630.726       -2201.103           0.109  
> 2019 07 18 00 02 49.8688020  0  1                     
G06  20699696.129     -344850.369       -2223.343           0.087  
> 2019 07 18 00 02 49.9688020  0  1                     
G06  20699724.303     -345070.759       -2200.863           0.119  
> 2019 07 18 00 02 50.0688020  0  1                     
G06  20699812.024     -345290.823       -2179.077           0.110  
> 2019 07 18 00 02 50.1688020  0  1                     
G06  20699832.085     -345509.393       -2208.814           0.097  
> 2019 07 18 00 02 50.2688020  0  1                     
G06  20699906.331     -345729.908       -2186.755           0.125  
> 2019 07 18 00 02 50.3688020  0  1                     
G06  20699954.237     -345952.448       -2207.914           0.113  
> 2019 07 18 00 02 50.4688020  0  1                     
G06  20699989.729     -346175.296       -2214.341           0.125  
> 2019 07 18 00 02 50.5688020  0  1                     
G06  20700076.014     -346398.148       -2203.879           0.133  
> 2019 07 18 00 02 50.6688020  0  1                     
G06  20700114.453     -346620.985       -2219.810           0.124  
> 2019 07 18 00 02 50.7688020  0  1                     
G06  20700124.228     -346844.006       -2236.588           0.116  
> 2019 07 18 00 02 50.8688020  0  1                     
G06  20700209.767     -347068.228       -2267.471           0.121  
> 2019 07 18 00 02 50.9688020  0  1                     
G06  20700285.224     -347291.139       -2210.992           0.112  
> 2019 07 18 00 02 51.0688020  0  1                     
G06  20700390.318     -347514.016       -2224.611           0.136  
> 2019 07 18 00 02 51.1688020  0  1                     
G06  20700409.842     -347736.920       -2248.594           0.122  
> 2019 07 18 00 02 51.2688020  0  1                     
G06  20700436.217     -347959.895       -2244.255           0.131  
> 2019 07 18 00 02 51.3688020  0  1                     
G06  20700523.120     -348182.873       -2244.407           0.137  
> 2019 07 18 00 02 51.4688020  0  1                     
G06  20700569.111     -348405.786       -2237.815           0.115  
> 2019 07 18 00 02 51.5688020  0  1                     
G06  20700612.635     -348628.730       -2227.658           0.118  
> 2019 07 18 00 02 51.6688020  0  1                     
G06  20700702.326     -348848.932       -2208.525           0.113  
> 2019 07 18 00 02 51.7688020  0  1                     
G06  20700767.927     -349069.537       -2204.626           0.136  
> 2019 07 18 00 02 51.8688020  0  1                     
G06  20700841.341     -349290.016       -2205.347           0.136  
> 2019 07 18 00 02 51.9688020  0  1                     
G06  20700868.998     -349510.564       -2200.175           0.131  
> 2019 07 18 00 02 52.0688020  0  1                     
G06  20700913.136     -349731.284       -2203.296           0.125  
> 2019 07 18 00 02 52.1688020  0  1                     
G06  20700990.420     -349951.773       -2215.869           0.127  
> 2019 07 18 00 02 52.2688020  0  1                     
G06  20701020.224     -350172.221       -2204.124           0.132  
> 2019 07 18 00 02 52.3688020  0  1                     
G06  20701134.146     -350392.624       -2209.662           0.126  
> 2019 07 18 00 02 52.4688020  0  1                     
G06  20701130.988     -350613.465       -2209.997           0.133  
> 2019 07 18 00 02 52.5688020  0  1                     
G06  20701202.962     -350833.916       -2198.396           0.121  
> 2019 07 18 00 02 52.6688020  0  1                     
G06  20701288.043     -351054.629       -2231.679           0.132  
> 2019 07 18 00 02 52.7688020  0  1                     
G06  20701328.852     -351275.172       -2219.791           0.122  
> 2019 07 18 00 02 52.8688020  0  1                     
G06  20701420.833     -351495.773       -2210.454           0.137  
> 2019 07 18 00 02 52.9688020  0  1                     
G06  20701431.903     -351716.495       -2212.335           0.123  
> 2019 07 18 00 02 53.0688020  0  1                     
G06  20701463.747     -351936.941       -2209.362           0.126  
> 2019 07 18 00 02 53.1688020  0  1                     
G06  20701545.068     -352158.725       -2195.815           0.120  
> 2019 07 18 00 02 53.2688020  0  1                     
G06  20701591.012     -352381.747       -2229.689           0.107  
> 2019 07 18 00 02 53.3688020  0  1                     
G06  20701703.187     -352603.079       -2197.404           0.116  
> 2019 07 18 00 02 53.4688020  0  1                     
G06  20701715.558     -352825.449       -2245.901           0.115  
> 2019 07 18 00 02 53.5688020  0  1                     
G06  20701775.946     -353047.778       -2189.774           0.103  
> 2019 07 18 00 02 53.6688020  0  1                     
G06  20701876.433     -353268.250       -2223.717           0.124  
> 2019 07 18 00 02 53.7688020  0  1                     
G06  20701889.150     -353488.832       -2205.742           0.134  
> 2019 07 18 00 02 53.8688020  0  1                     
G06  20701949.980     -353709.662       -2209.969           0.124  
> 2019 07 18 00 02 53.9688020  0  1                     
G06  20702009.835     -353932.820       -2244.635           0.131  
> 2019 07 18 00 02 54.0688020  0  1                     
G06  20702050.202     -354155.968       -2249.244           0.121  
> 2019 07 18 00 02 54.1688020  0  1                     
G06  20702149.841     -354379.006       -2249.040           0.117  
> 2019 07 18 00 02 54.2688020  0  1                     
G06  20702170.180     -354602.230       -2244.386           0.129  
> 2019 07 18 00 02 54.3688020  0  1                     
G06  20702196.198     -354825.300       -2253.109           0.119  
> 2019 07 18 00 02 54.4688020  0  1                     
G06  20702315.720     -355048.054       -2205.979           0.127  
> 2019 07 18 00 02 54.5688020  0  1                     
G06  20702355.090     -355268.719       -2224.051           0.111  
> 2019 07 18 00 02 54.6688020  0  1                     
G06  20702456.088     -355489.473       -2221.729           0.143  
> 2019 07 18 00 02 54.7688020  0  1                     
G06  20702471.298     -355710.606       -2191.579           0.120  
> 2019 07 18 00 02 54.8688020  0  1                     
G06  20702479.318     -355932.248       -2213.823           0.129  
> 2019 07 18 00 02 54.9688020  0  1                     
G06  20702599.423     -356152.691       -2206.239           0.136  
> 2019 07 18 00 02 55.0688020  0  1                     
G06  20702634.490     -356373.340       -2215.350           0.133  
> 2019 07 18 00 02 55.1688020  0  1                     
G06  20702717.127     -356595.259       -2192.138           0.116  
> 2019 07 18 00 02 55.2688020  0  1                     
G06  20702745.539     -356818.589       -2249.652           0.124  
> 2019 07 18 00 02 55.3688020  0  1                     
G06  20702787.128     -357041.076       -2245.364           0.119  
> 2019 07 18 00 02 55.4688020  0  1                     
G06  20702891.813     -357264.299       -2245.572           0.134  
> 2019 07 18 00 02 55.5688020  0  1                     
G06  20702909.140     -357487.466       -2256.091           0.116  
> 2019 07 18 00 02 55.6688020  0  1                     
G06  20702984.142     -357710.630       -2240.224           0.135  
> 2019 07 18 00 02 55.7688020  0  1                     
G06  20703037.536     -357933.867       -2248.223           0.136  
> 2019 07 18 00 02 55.8688020  0  1                     
G06  20703081.015     -358157.018       -2243.866           0.123  
> 2019 07 18 00 02 55.9688020  0  1                     
G06  20703172.544     -358380.064       -2217.159           0.134  
> 2019 07 18 00 02 56.0688020  0  1                     
G06  20703210.490     -358603.377       -2210.704           0.130  
> 2019 07 18 00 02 56.1688020  0  1                     
G06  20703239.137     -358826.284       -2218.704           0.123  
> 2019 07 18 00 02 56.2688020  0  1                     
G06  20703339.197     -359049.689       -2212.253           0.132  
> 2019 07 18 00 02 56.3688020  0  1                     
G06  20703430.413     -359272.845       -2215.849           0.129  
> 2019 07 18 00 02 56.4688020  0  1                     
G06  20703477.842     -359495.982       -2217.181           0.141  
> 2019 07 18 00 02 56.5688020  0  1                     
G06  20703484.185     -359719.209       -2216.441           0.136  
> 2019 07 18 00 02 56.6688020  0  1                     
G06  20703542.261     -359942.431       -2222.887           0.144  
> 2019 07 18 00 02 56.7688020  0  1                     
G06  20703629.573     -360165.686       -2215.719           0.126  
> 2019 07 18 00 02 56.8688020  0  1                     
G06  20703664.111     -360388.818       -2206.818           0.128  
> 2019 07 18 00 02 56.9688020  0  1                     
G06  20703741.752     -360612.234       -2211.893           0.134  
> 2019 07 18 00 02 57.0688020  0  1                     
G06  20703794.811     -360835.457       -2219.364           0.120  
> 2019 07 18 00 02 57.1688020  0  1                     
G06  20703864.308     -361058.720       -2219.109           0.141  
> 2019 07 18 00 02 57.2688020  0  1                     
G06  20703943.578     -361281.966       -2224.224           0.131  
> 2019 07 18 00 02 57.3688020  0  1                     
G06  20703970.854     -361505.221       -2216.659           0.141  
> 2019 07 18 00 02 57.4688020  0  1                     
G06  20704052.662     -361728.387       -2212.559           0.136  
> 2019 07 18 00 02 57.5688020  0  1                     
G06  20704075.409     -361951.692       -2222.382           0.139  
> 2019 07 18 00 02 57.6688020  0  1                     
G06  20704100.683     -362174.690       -2207.628           0.129  
> 2019 07 18 00 02 57.7688020  0  1                     
G06  20704201.483     -362397.852       -2213.587           0.130  
> 2019 07 18 00 02 57.8688020  0  1                     
G06  20704228.635     -362621.023       -2213.139           0.124  
> 2019 07 18 00 02 57.9688020  0  1                     
G06  20704282.126     -362844.189       -2210.126           0.131  
> 2019 07 18 00 02 58.0688020  0  1                     
G06  20704387.935     -363067.430       -2218.747           0.131  
> 2019 07 18 00 02 58.1688020  0  1                     
G06  20704437.059     -363290.587       -2218.928           0.141  
> 2019 07 18 00 02 58.2688020  0  1                     
G06  20704514.641     -363513.776       -2219.090           0.143  
> 2019 07 18 00 02 58.3688020  0  1                     
G06  20704508.536     -363736.954       -2215.179           0.143  
> 2019 07 18 00 02 58.4688020  0  1                     
G06  20704564.243     -363960.181       -2229.726           0.139  
> 2019 07 18 00 02 58.5688020  0  1                     
G06  20704652.814     -364183.180       -2213.825           0.135  
> 2019 07 18 00 02 58.6688020  0  1                     
G06  20704686.825     -364406.343       -2218.620           0.133  
> 2019 07 18 00 02 58.7688020  0  1                     
G06  20704784.928     -364629.500       -2217.386           0.134  
> 2019 07 18 00 02 58.8688020  0  1                     
G06  20704814.686     -364852.799       -2219.071           0.129  
> 2019 07 18 00 02 58.9688020  0  1                     
G06  20704902.398     -365076.050       -2215.768           0.138  
> 2019 07 18 00 02 59.0688020  0  1                     
G06  20704948.166     -365299.236       -2217.823           0.137  
> 2019 07 18 00 02 59.1688020  0  1                     
G06  20704978.986     -365522.512       -2213.820           0.138  
> 2019 07 18 00 02 59.2688020  0  1                     
G06  20705058.581     -365745.810       -2217.852           0.144  
> 2019 07 18 00 02 59.3688020  0  1                     
G06  20705090.761     -365969.084       -2218.177           0.139  
> 2019 07 18 00 02 59.4688020  0  1                     
G06  20705155.515     -366192.387       -2217.754           0.135  
> 2019 07 18 00 02 59.5688020  0  1                     
G06  20705222.287     -366415.692       -2221.657           0.124  
> 2019 07 18 00 02 59.6688020  0  1                     
G06  20705258.453     -366638.987       -2214.340           0.136  
> 2019 07 18 00 02 59.7688020  0  1                     
G06  20705366.245     -366862.281       -2223.072           0.127  
> 2019 07 18 00 02 59.8688020  0  1                     
G06  20705398.064     -367085.555       -2214.128           0.135  
> 2019 07 18 00 02 59.9688020  0  1                     
G06  20705490.306     -367308.847       -2221.697           0.139  
> 2012 03 01 00 03 00.0688020  0  1                     
G06  20705520.764     -367532.033       -2216.715           0.140  
> 2012 03 01 00 03 00.1688020  0  1                     
G06  20705540.960     -367755.276       -2215.691           0.137  
> 2012 03 01 00 03 00.2688020  0  1                     
G06  20705612.389     -367978.388       -2211.588           0.142  
> 2012 03 01 00 03 00.3688020  0  1                     
G06  20705674.778     -368201.518       -2219.484           0.124  
> 2012 03 01 00 03 00.4688020  0  1                     
G06  20705705.927     -368424.639       -2214.686           0.139  
> 2012 03 01 00 03 00.5688020  0  1                     
G06  20705784.374     -368647.903       -2247.324           0.132  
> 2012 03 01 00 03 00.6688020  0  1                     
G06  20705822.551     -368870.921       -2215.367           0.120  
> 2012 03 01 00 03 00.7688020  0  1                     
G06  20705912.773     -369094.079       -2251.884           0.128  
> 2012 03 01 00 03 00.8688020  0  1                     
G06  20705964.687     -369317.203       -2242.727           0.131  
> 2012 03 01 00 03 00.9688020  0  1                     
G06  20706009.961     -369540.318       -2244.241           0.141  
> 2012 03 01 00 03 01.0688020  0  1                     
G06  20706084.206     -369763.851       -2214.993           0.143  
> 2012 03 01 00 03 01.1688020  0  1                     
G06  20706124.277     -369986.532       -2221.231           0.117  
> 2012 03 01 00 03 01.2688020  0  1                     
G06  20706178.105     -370209.660       -2205.921           0.122  
> 2012 03 01 00 03 01.3688020  0  1                     
G06  20706253.138     -370432.958       -2214.044           0.134  
> 2012 03 01 00 03 01.4688020  0  1                     
G06  20706268.300     -370655.911       -2241.568           0.119  
> 2012 03 01 00 03 01.5688020  0  1                     
G06  20706340.861     -370879.264       -2250.030           0.141  
> 2012 03 01 00 03 01.6688020  0  1                     
G06  20706418.869     -371102.754       -2208.991           0.113  
> 2012 03 01 00 03 01.7688020  0  1                     
G06  20706455.474     -371326.286       -2223.863           0.130  
> 2012 03 01 00 03 01.8688020  0  1                     
G06  20706530.489     -371547.880       -2238.358           0.115  
> 2012 03 01 00 03 01.9688020  0  1                     
G06  20706580.307     -371772.718       -2246.878           0.117  
> 2012 03 01 00 03 02.0688020  0  1                     
G06  20706635.116     -371998.302       -2247.722           0.149  
> 2012 03 01 00 03 02.1688020  0  1                     
G06  20706711.120     -372224.107       -2257.495           0.148  
> 2012 03 01 00 03 02.2688020  0  1                     
G06  20706733.974     -372449.748       -2271.766           0.151  
> 2012 03 01 00 03 02.3688020  0  1                     
G06  20706785.798     -372675.232       -2246.748           0.135  
> 2012 03 01 00 03 02.4688020  0  1                     
G06  20706857.914     -372901.089       -2247.596           0.130  
> 2012 03 01 00 03 02.5688020  0  1                     
G06  20706933.801     -373127.072       -2245.316           0.152  
> 2012 03 01 00 03 02.6688020  0  1                     
G06  20707007.482     -373352.978       -2262.239           0.157  
> 2012 03 01 00 03 02.7688020  0  1                     
G06  20707035.595     -373578.800       -2256.787           0.157  
> 2012 03 01 00 03 02.8688020  0  1                     
G06  20707085.464     -373804.637       -2270.645           0.159  
> 2012 03 01 00 03 02.9688020  0  1                     
G06  20707147.364     -374029.381       -2276.841           0.116  
> 2012 03 01 00 03 03.0688020  0  1                     
G06  20707192.109     -374255.269       -2266.261           0.143  
> 2012 03 01 00 03 03.1688020  0  1                     
G06  20707265.101     -374480.977       -2244.597           0.151  
> 2012 03 01 00 03 03.2688020  0  1                     
G06  20707271.823     -374706.834       -2261.436           0.147  
> 2012 03 01 00 03 03.3688020  0  1                     
G06  20707192.653     -374933.725       -2245.606           0.117  
> 2012 03 01 00 03 03.4688020  0  1                     
G06  20707126.620     -375159.612       -2259.375           0.145  
> 2012 03 01 00 03 03.5688020  0  1                     
G06  20707125.800     -375385.410       -2257.505           0.151  
> 2012 03 01 00 03 03.6688020  0  1                     
G06  20707130.158     -375611.263       -2258.088           0.161  
> 2012 03 01 00 03 03.7688020  0  1                     
G06  20707136.998     -375837.036       -2256.679           0.160  
> 2012 03 01 00 03 03.8688020  0  1                     
G06  20707166.877     -376062.877       -2256.706           0.166  
> 2012 03 01 00 03 03.9688020  0  1                     
G06  20707223.686     -376288.717       -2258.926           0.166  
> 2012 03 01 00 03 04.0688020  0  1                     
G06  20707265.218     -376514.602       -2260.261           0.149  
> 2012 03 01 00 03 04.1688020  0  1                     
G06  20707337.891     -376740.483       -2267.296           0.137  
> 2012 03 01 00 03 04.2688020  0  1                     
G06  20707427.070     -376966.358       -2258.557           0.157  
> 2012 03 01 00 03 04.3688020  0  1                     
G06  20707500.602     -377192.248       -2256.509           0.159  
> 2012 03 01 00 03 04.4688020  0  1                     
G06  20707577.182     -377418.136       -2259.151           0.160  
> 2012 03 01 00 03 04.5688020  0  1                     
G06  20707638.249     -377643.952       -2258.638           0.158  
> 2012 03 01 00 03 04.6688020  0  1                     
G06  20707710.910     -377869.782       -2258.531           0.153  
> 2012 03 01 00 03 04.7688020  0  1                     
G06  20707770.763     -378095.702       -2258.635           0.154  
> 2012 03 01 00 03 04.8688020  0  1                     
G06  20707842.154     -378321.535       -2260.446           0.160  
> 2012 03 01 00 03 04.9688020  0  1                     
G06  20707891.282     -378547.408       -2259.440           0.142  
> 2012 03 01 00 03 05.0688020  0  1                     
G06  20707961.818     -378773.238       -2263.562           0.145  
> 2012 03 01 00 03 05.1688020  0  1                     
G06  20708027.595     -378998.972       -2259.549           0.153  
> 2012 03 01 00 03 05.2688020  0  1                     
G06  20708088.312     -379224.788       -2253.060           0.154  
> 2012 03 01 00 03 05.3688020  0  1                     
G06  20708152.688     -379450.697       -2260.938           0.158  
> 2012 03 01 00 03 05.4688020  0  1                     
G06  20708219.892     -379676.591       -2260.182           0.161  
> 2012 03 01 00 03 05.5688020  0  1                     
G06  20708276.080     -379902.432       -2261.841           0.163  
> 2012 03 01 00 03 05.6688020  0  1                     
G06  20708321.501     -380128.318       -2256.637           0.165  
> 2012 03 01 00 03 05.7688020  0  1                     
G06  20708368.365     -380354.174       -2250.027           0.160  
> 2012 03 01 00 03 05.8688020  0  1                     
G06  20708419.811     -380580.016       -2256.665           0.154  
> 2012 03 01 00 03 05.9688020  0  1                     
G06  20708480.400     -380805.813       -2241.918           0.139  
> 2012 03 01 00 03 06.0688020  0  1                     
G06  20708551.524     -381031.718       -2256.898           0.142  
> 2012 03 01 00 03 06.1688020  0  1                     
G06  20708616.785     -381257.279       -2254.724           0.156  
> 2012 03 01 00 03 06.2688020  0  1                     
G06  20708671.092     -381483.134       -2263.818           0.150  
> 2012 03 01 00 03 06.3688020  0  1                     
G06  20708731.181     -381708.798       -2269.127           0.146  
> 2012 03 01 00 03 06.4688020  0  1                     
G06  20708779.914     -381932.638       -2211.175           0.136  
> 2012 03 01 00 03 06.5688020  0  1                     
G06  20708837.972     -382155.787       -2229.923           0.151  
> 2012 03 01 00 03 06.6688020  0  1                     
G06  20708891.333     -382379.360       -2231.144           0.134  
> 2012 03 01 00 03 06.7688020  0  1                     
G06  20708937.900     -382601.797       -2203.677           0.125  
> 2012 03 01 00 03 06.8688020  0  1                     
G06  20708995.164     -382825.241       -2210.783           0.142  
> 2012 03 01 00 03 06.9688020  0  1                     
G06  20709056.037     -383048.653       -2217.457           0.146  
> 2012 03 01 00 03 07.0688020  0  1                     
G06  20709120.946     -383271.826       -2227.251           0.142  
> 2012 03 01 00 03 07.1688020  0  1                     
G06  20709180.379     -383495.162       -2203.853           0.136  
> 2012 03 01 00 03 07.2688020  0  1                     
G06  20709237.110     -383718.479       -2235.952           0.129  
> 2012 03 01 00 03 07.3688020  0  1                     
G06  20709289.462     -383943.261       -2261.987           0.143  
> 2012 03 01 00 03 07.4688020  0  1                     
G06  20709342.821     -384169.239       -2262.167           0.153  
> 2012 03 01 00 03 07.5688020  0  1                     
G06  20709394.796     -384395.070       -2259.416           0.159  
> 2012 03 01 00 03 07.6688020  0  1                     
G06  20709453.137     -384620.770       -2257.398           0.149  
> 2012 03 01 00 03 07.7688020  0  1                     
G06  20709513.371     -384846.597       -2254.309           0.155  
> 2012 03 01 00 03 07.8688020  0  1                     
G06  20709582.049     -385072.348       -2254.943           0.158  
> 2012 03 01 00 03 07.9688020  0  1                     
G06  20709648.402     -385298.125       -2258.563           0.151  
> 2012 03 01 00 03 08.0688020  0  1                     
G06  20709683.284     -385523.937       -2258.402           0.163  
> 2012 03 01 00 03 08.1688020  0  1                     
G06  20709754.981     -385749.641       -2266.499           0.147  
> 2012 03 01 00 03 08.2688020  0  1                     
G06  20709794.113     -385975.475       -2271.044           0.152  
> 2012 03 01 00 03 08.3688020  0  1                     
G06  20709853.553     -386201.140       -2260.378           0.151  
> 2012 03 01 00 03 08.4688020  0  1                     
G06  20709908.122     -386426.988       -2251.396           0.143  
> 2012 03 01 00 03 08.5688020  0  1                     
G06  20709957.619     -386652.820       -2252.413           0.137  
> 2012 03 01 00 03 08.6688020  0  1                     
G06  20710024.062     -386878.656       -2252.698           0.158  
> 2012 03 01 00 03 08.7688020  0  1                     
G06  20710090.408     -387104.507       -2249.247           0.146  
> 2012 03 01 00 03 08.8688020  0  1                     
G06  20710155.461     -387330.328       -2259.718           0.153  
> 2012 03 01 00 03 08.9688020  0  1                     
G06  20710224.594     -387556.108       -2267.872           0.151  
> 2012 03 01 00 03 09.0688020  0  1                     
G06  20710287.944     -387781.906       -2256.151           0.152  
> 2012 03 01 00 03 09.1688020  0  1                     
G06  20710347.641     -388007.792       -2253.937           0.155  
> 2012 03 01 00 03 09.2688020  0  1                     
G06  20710397.741     -388233.616       -2246.658           0.149  
> 2012 03 01 00 03 09.3688020  0  1                     
G06  20710455.118     -388458.521       -2218.558           0.131  
> 2012 03 01 00 03 09.4688020  0  1                     
G06  20710524.097     -388681.697       -2250.354           0.126  
> 2012 03 01 00 03 09.5688020  0  1                     
G06  20710594.538     -388905.309       -2214.941           0.126  
> 2012 03 01 00 03 09.6688020  0  1                     
G06  20710647.558     -389128.508       -2219.252           0.136  
> 2012 03 01 00 03 09.7688020  0  1                     
G06  20710688.639     -389351.699       -2222.079           0.139  
> 2012 03 01 00 03 09.8688020  0  1                     
G06  20710749.832     -389575.038       -2249.385           0.139  
> 2012 03 01 00 03 09.9688020  0  1                     
G06  20710787.772     -389798.256       -2244.450           0.138  
> 2012 03 01 00 03 10.0688020  0  1                     
G06  20710821.404     -390021.570       -2253.501           0.129  
> 2012 03 01 00 03 10.1688020  0  1                     
G06  20710889.268     -390244.671       -2240.761           0.135  
> 2012 03 01 00 03 10.2688020  0  1                     
G06  20710951.862     -390467.611       -2248.698           0.111  
> 2012 03 01 00 03 10.3688020  0  1                     
G06  20710998.785     -390689.343       -2207.696           0.121  
> 2012 03 01 00 03 10.4688020  0  1                     
G06  20711053.100     -390910.796       -2187.571           0.132  
> 2012 03 01 00 03 10.5688020  0  1                     
G06  20711115.048     -391131.758       -2243.470           0.105  
> 2012 03 01 00 03 10.6688020  0  1                     
G06  20711164.216     -391353.634       -2203.293           0.130  
> 2012 03 01 00 03 10.7688020  0  1                     
G06  20711224.998     -391577.073       -2257.705           0.131  
> 2012 03 01 00 03 10.8688020  0  1                     
G06  20711281.561     -391800.340       -2244.436           0.143  
> 2012 03 01 00 03 10.9688020  0  1                     
G06  20711336.301     -392022.628       -2189.350           0.127  
> 2012 03 01 00 03 11.0688020  0  1                     
G06  20711386.562     -392245.400       -2219.109           0.126  
> 2012 03 01 00 03 11.1688020  0  1                     
G06  20711453.900     -392466.205       -2207.219           0.136  
> 2012 03 01 00 03 11.2688020  0  1                     
G06  20711512.750     -392687.698       -2246.834           0.126  
> 2012 03 01 00 03 11.3688020  0  1                     
G06  20711565.626     -392911.062       -2210.235           0.124  
> 2012 03 01 00 03 11.4688020  0  1                     
G06  20711623.336     -393134.235       -2246.804           0.134  
> 2012 03 01 00 03 11.5688020  0  1                     
G06  20711682.061     -393357.312       -2256.803           0.130  
> 2012 03 01 00 03 11.6688020  0  1                     
G06  20711735.534     -393579.746       -2195.965           0.126  
> 2012 03 01 00 03 11.7688020  0  1                     
G06  20711800.864     -393801.076       -2211.454           0.130  
> 2012 03 01 00 03 11.8688020  0  1                     
G06  20711853.661     -394020.663       -2196.380           0.123  
> 2012 03 01 00 03 11.9688020  0  1                     
G06  20711900.279     -394241.764       -2206.521           0.133  
> 2016 10 20 00 03 12.0688020  0  1                     
G06  20711979.093     -394464.527       -2242.524           0.096  
> 2016 10 20 00 03 12.1688020  0  1                     
G06  20712054.283     -394685.389       -2216.578           0.130  
> 2016 10 20 00 03 12.2688020  0  1                     
G06  20712146.138     -394906.182       -2209.582           0.136  
> 2016 10 20 00 03 12.3688020  0  1                     
G06  20712235.696     -395127.061       -2212.518           0.149  
> 2016 10 20 00 03 12.4688020  0  1                     
G06  20712285.997     -395349.325       -2214.883           0.138  
> 2016 10 20 00 03 12.5688020  0  1                     
G06  20712317.372     -395572.504       -2235.731           0.142  
> 2016 10 20 00 03 12.6688020  0  1                     
G06  20712348.962     -395795.997       -2227.901           0.146  
> 2016 10 20 00 03 12.7688020  0  1                     
G06  20712385.778     -396019.266       -2246.165           0.138  
> 2016 10 20 00 03 12.8688020  0  1                     
G06  20712421.762     -396242.537       -2248.228           0.136  
> 2016 10 20 00 03 12.9688020  0  1                     
G06  20712470.000     -396465.891       -2250.063           0.135  
> 2016 10 20 00 03 13.0688020  0  1                     
G06  20712534.303     -396689.171       -2253.148           0.133  
> 2016 10 20 00 03 13.1688020  0  1                     
G06  20712587.594     -396912.607       -2246.853           0.130  
> 2016 10 20 00 03 13.2688020  0  1                     
G06  20712658.484     -397135.990       -2249.240           0.134  
> 2016 10 20 00 03 13.3688020  0  1                     
G06  20712721.641     -397359.242       -2239.188           0.131  
> 2016 10 20 00 03 13.4688020  0  1                     
G06  20712784.592     -397582.658       -2247.905           0.129  
> 2016 10 20 00 03 13.5688020  0  1                     
G06  20712844.314     -397804.069       -2216.872           0.117  
> 2016 10 20 00 03 13.6688020  0  1                     
G06  20712898.969     -398025.079       -2215.155           0.139  
> 2016 10 20 00 03 13.7688020  0  1                     
G06  20712947.798     -398248.614       -2252.567           0.118  
> 2016 10 20 00 03 13.8688020  0  1                     
G06  20713004.525     -398472.030       -2247.844           0.132  
> 2016 10 20 00 03 13.9688020  0  1                     
G06  20713068.780     -398695.364       -2239.118           0.142  
> 2016 10 20 00 03 14.0688020  0  1                     
G06  20713143.394     -398918.787       -2243.162           0.136  
> 2016 10 20 00 03 14.1688020  0  1                     
G06  20713195.427     -399142.280       -2222.215           0.126  
> 2016 10 20 00 03 14.2688020  0  1                     
G06  20713260.229     -399365.562       -2228.552           0.145  
> 2016 10 20 00 03 14.3688020  0  1                     
G06  20713308.063     -399588.853       -2258.091           0.134  
> 2016 10 20 00 03 14.4688020  0  1                     
G06  20713361.615     -399812.096       -2207.673           0.138  
> 2016 10 20 00 03 14.5688020  0  1                     
G06  20713416.331     -400035.549       -2223.754           0.144  
> 2016 10 20 00 03 14.6688020  0  1                     
G06  20713459.851     -400258.486       -2257.410           0.127  
> 2016 10 20 00 03 14.7688020  0  1                     
G06  20713515.318     -400481.757       -2250.785           0.127  
> 2016 10 20 00 03 14.8688020  0  1                     
G06  20713568.972     -400705.251       -2241.575           0.132  
> 2016 10 20 00 03 14.9688020  0  1                     
G06  20713629.041     -400928.637       -2244.111           0.129  
> 2016 10 20 00 03 15.0688020  0  1                     
G06  20713692.887     -401152.070       -2248.702           0.143  
> 2016 10 20 00 03 15.1688020  0  1                     
G06  20713751.443     -401375.474       -2245.607           0.134  
> 2016 10 20 00 03 15.2688020  0  1                     
G06  20713809.625     -401598.836       -2244.593           0.140  
> 2016 10 20 00 03 15.3688020  0  1                     
G06  20713869.104     -401822.236       -2249.850           0.137  
> 2016 10 20 00 03 15.4688020  0  1                     
G06  20713926.220     -402045.739       -2244.868           0.127  
> 2016 10 20 00 03 15.5688020  0  1                     
G06  20713980.079     -402269.192       -2257.200           0.133  
> 2016 10 20 00 03 15.6688020  0  1                     
G06  20714054.015     -402492.464       -2247.780           0.124  
> 2016 10 20 00 03 15.7688020  0  1                     
G06  20714120.650     -402715.703       -2240.249           0.137  
> 2016 10 20 00 03 15.8688020  0  1                     
G06  20714182.515     -402939.000       -2214.313           0.131  
> 2016 10 20 00 03 15.9688020  0  1                     
G06  20714229.805     -403162.313       -2233.229           0.141  
> 2016 10 20 00 03 16.0688020  0  1                     
G06  20714290.432     -403385.289       -2220.020           0.137  
> 2016 10 20 00 03 16.1688020  0  1                     
G06  20714332.630     -403607.290       -2216.206           0.128  
> 2016 10 20 00 03 16.2688020  0  1                     
G06  20714390.642     -403829.396       -2231.206           0.125  
> 2016 10 20 00 03 16.3688020  0  1                     
G06  20714446.045     -404052.120       -2239.880           0.135  
> 2016 10 20 00 03 16.4688020  0  1                     
G06  20714492.548     -404275.118       -2246.582           0.119  
> 2016 10 20 00 03 16.5688020  0  1                     
G06  20714560.914     -404498.387       -2248.726           0.133  
> 2016 10 20 00 03 16.6688020  0  1                     
G06  20714621.637     -404721.840       -2242.808           0.122  
> 2016 10 20 00 03 16.7688020  0  1                     
G06  20714679.685     -404945.537       -2216.410           0.130  
> 2016 10 20 00 03 16.8688020  0  1                     
G06  20714747.362     -405168.820       -2225.699           0.138  
> 2016 10 20 00 03 16.9688020  0  1                     
G06  20714807.037     -405392.245       -2229.456           0.139  
> 2016 10 20 00 03 17.0688020  0  1                     
G06  20714861.431     -405615.324       -2252.703           0.135  
> 2016 10 20 00 03 17.1688020  0  1                     
G06  20714907.216     -405838.363       -2247.126           0.131  
> 2016 10 20 00 03 17.2688020  0  1                     
G06  20714953.178     -406060.930       -2195.909           0.127  
> 2016 10 20 00 03 17.3688020  0  1                     
G06  20715028.792     -406281.928       -2210.584           0.128  
> 2016 10 20 00 03 17.4688020  0  1                     
G06  20715083.657     -406502.818       -2209.475           0.134  
> 2016 10 20 00 03 17.5688020  0  1                     
G06  20715154.099     -406723.838       -2219.086           0.145  
> 2016 10 20 00 03 17.6688020  0  1                     
G06  20715216.759     -406944.859       -2226.078           0.131  
> 2016 10 20 00 03 17.7688020  0  1                     
G06  20715265.684     -407164.503       -2198.482           0.117  
> 2016 10 20 00 03 17.8688020  0  1                     
G06  20715322.507     -407385.245       -2214.723           0.128  
> 2016 10 20 00 03 17.9688020  0  1                     
G06  20715354.733     -407608.266       -2248.385           0.119  
> 2016 10 20 00 03 18.0688020  0  1                     
G06  20715421.107     -407831.797       -2239.172           0.134  
> 2016 10 20 00 03 18.1688020  0  1                     
G06  20715524.664     -408054.271       -2220.757           0.094  
> 2016 10 20 00 03 18.2688020  0  1                     
G06  20715608.169     -408276.455       -2213.635           0.077  
> 2016 10 20 00 03 18.3688020  0  1                     
G06  20715720.433     -408496.434       -2191.193           0.070  
> 2016 10 20 00 03 18.4688020  0  1                     
G06  20715855.176     -408716.614       -2205.670           0.064  
> 2016 10 20 00 03 18.5688020  0  1                     
G06  20716021.585     -408937.196       -2178.277           0.078  
> 2016 10 20 00 03 18.6688020  0  1                     
G06  20716147.376     -409157.909       -2228.633           0.081  
> 2016 10 20 00 03 18.7688020  0  1                     
G06  20716240.735     -409380.537       -2250.171           0.056  
> 2016 10 20 00 03 18.8688020  0  1                     
G06  20716277.598     -409604.004       -2247.658           0.060  
> 2016 10 20 00 03 18.9688020  0  1                     
G06  20716345.873     -409828.893       -2224.366           0.059  
> 2016 10 20 00 03 19.0688020  0  1                     
G06  20716455.744     -410055.727       -2267.820           0.051  
> 2016 10 20 00 03 19.1688020  0  1                     
G06  20716557.989     -410281.683       -2278.765           0.074  
> 2016 10 20 00 03 19.2688020  0  1                     
G06  20716645.606     -410509.181       -2287.457           0.082  
> 2016 10 20 00 03 19.3688020  0  1                     
G06  20716651.032     -410737.449       -2314.183           0.091  
> 2016 10 20 00 03 19.4688020  0  1                     
G06  20716695.972     -410966.314       -2305.114           0.055  
> 2016 10 20 00 03 19.5688020  0  1                     
G06  20716787.109     -411194.015       -2266.067           0.083  
> 2016 10 20 00 03 19.6688020  0  1                     
G06  20716842.867     -411422.872       -2287.672           0.057  
> 2016 10 20 00 03 19.7688020  0  1                     
G06  20716834.745     -411653.092       -2298.682           0.073  
> 2016 10 20 00 03 19.8688020  0  1                     
G06  20716826.821     -411882.742       -2278.405           0.058  
> 2016 10 20 00 03 19.9688020  0  1                     
G06  20716884.180     -412111.752       -2291.889           0.024  
> 2016 10 20 00 03 20.0688020  0  1                     
G06  20716924.143     -412340.708       -2295.918           0.065  
> 2016 10 20 00 03 20.1688020  0  1                     
G06  20716919.779     -412571.012       -2330.073           0.077  
> 2016 10 20 00 03 20.2688020  0  1                     
G06  20716901.895     -412801.818       -2310.270           0.091  
> 2016 10 20 00 03 20.3688020  0  1                     
G06  20716890.133     -413032.222       -2292.103           0.084  
> 2016 10 20 00 03 20.4688020  0  1                     
G06  20716928.314     -413261.554       -2293.050           0.070  
> 2016 10 20 00 03 20.5688020  0  1                     
G06  20716931.461     -413492.164       -2304.468           0.051  
> 2016 10 20 00 03 20.6688020  0  1                     
G06  20716918.728     -413723.287       -2282.587           0.051  
> 2016 10 20 00 03 20.7688020  0  1                     
G06  20716926.139     -413954.094       -2308.625           0.067  
> 2016 10 20 00 03 20.8688020  0  1                     
G06  20716903.965     -414185.298       -2347.432           0.038  
> 2016 10 20 00 03 20.9688020  0  1                     
G06  20716929.063     -414417.911       -2308.330           0.049  
> 2016 10 20 00 03 21.0688020  0  1                     
G06  20716909.963     -414650.429       -2338.711           0.051  
> 2016 10 20 00 03 21.1688020  0  1                     
G06  20716911.681     -414882.140       -2326.056           0.036  
> 2016 10 20 00 03 21.2688020  0  1                     
G06  20716918.590     -415113.423       -2292.148           0.059  
> 2016 10 20 00 03 21.3688020  0  1                     
G06  20716917.748     -415343.619       -2285.804           0.085  
> 2016 10 20 00 03 21.4688020  0  1                     
G06  20716936.303     -415573.286       -2308.094           0.051  
> 2016 10 20 00 03 21.5688020  0  1                     
G06  20716922.437     -415802.442       -2293.551           0.070  
> 2016 10 20 00 03 21.6688020  0  1                     
G06  20716906.782     -416033.184       -2309.351           0.049  
> 2016 10 20 00 03 21.7688020  0  1                     
G06  20716898.491     -416261.523       -2262.690           0.041  
> 2016 10 20 00 03 21.8688020  0  1                     
G06  20716872.149     -416489.159       -2259.908           0.082  
> 2016 10 20 00 03 21.9688020  0  1                     
G06  20716752.272     -416717.332       -2265.784           0.074  
> 2016 10 20 00 03 22.0688020  0  1                     
G06  20716638.264     -416945.936       -2266.896           0.106  
> 2016 10 20 00 03 22.1688020  0  1                     
G06  20716643.119     -417174.478       -2270.995           0.134  
> 2016 10 20 00 03 22.2688020  0  1                     
G06  20716677.777     -417402.979       -2271.999           0.136  
> 2016 10 20 00 03 22.3688020  0  1                     
G06  20716751.970     -417631.526       -2270.901           0.135  
> 2016 10 20 00 03 22.4688020  0  1                     
G06  20716828.676     -417860.131       -2270.098           0.127  
> 2016 10 20 00 03 22.5688020  0  1                     
G06  20716899.768     -418088.686       -2268.263           0.142  
> 2016 10 20 00 03 22.6688020  0  1                     
G06  20716948.473     -418317.230       -2269.135           0.135  
> 2016 10 20 00 03 22.7688020  0  1                     
G06  20717035.316     -418545.835       -2273.291           0.131  
> 2016 10 20 00 03 22.8688020  0  1                     
G06  20717113.930     -418774.312       -2269.200           0.141  
> 2016 10 20 00 03 22.9688020  0  1                     
G06  20717181.408     -419002.845       -2271.455           0.139  
> 2016 10 20 00 03 23.0688020  0  1                     
G06  20717226.114     -419231.476       -2271.435           0.135  
> 2016 10 20 00 03 23.1688020  0  1                     
G06  20717265.516     -419460.043       -2273.156           0.135  
> 2016 10 20 00 03 23.2688020  0  1                     
G06  20717336.644     -419688.545       -2269.948           0.136  
> 2016 10 20 00 03 23.3688020  0  1                     
G06  20717378.585     -419917.438       -2267.450           0.124  
> 2016 10 20 00 03 23.4688020  0  1                     
G06  20717424.829     -420146.322       -2271.198           0.124  
> 2016 10 20 00 03 23.5688020  0  1                     
G06  20717438.075     -420376.073       -2330.279           0.115  
> 2016 10 20 00 03 23.6688020  0  1                     
G06  20717448.940     -420607.125       -2300.368           0.126  
> 2016 10 20 00 03 23.7688020  0  1                     
G06  20717459.745     -420835.283       -2270.942           0.124  
> 2016 10 20 00 03 23.8688020  0  1                     
G06  20717464.463     -421065.724       -2328.839           0.111  
> 2016 10 20 00 03 23.9688020  0  1                     
G06  20717502.136     -421295.899       -2311.946           0.106  
> 2016 10 20 00 03 24.0688020  0  1                     
G06  20717535.518     -421525.897       -2306.944           0.111  
> 2016 10 20 00 03 24.1688020  0  1                     
G06  20717554.075     -421755.585       -2296.920           0.141  
> 2016 10 20 00 03 24.2688020  0  1                     
G06  20717563.918     -421985.429       -2296.086           0.146  
> 2016 10 20 00 03 24.3688020  0  1                     
G06  20717595.022     -422215.233       -2298.681           0.148  
> 2016 10 20 00 03 24.4688020  0  1                     
G06  20717632.628     -422445.065       -2293.229           0.147  
> 2016 10 20 00 03 24.5688020  0  1                     
G06  20717634.334     -422674.896       -2301.490           0.137  
> 2016 10 20 00 03 24.6688020  0  1                     
G06  20717649.896     -422903.117       -2271.298           0.113  
> 2016 10 20 00 03 24.7688020  0  1                     
G06  20717656.865     -423129.050       -2283.054           0.121  
> 2016 10 20 00 03 24.8688020  0  1                     
G06  20717607.064     -423354.878       -2256.702           0.141  
> 2016 10 20 00 03 24.9688020  0  1                     
G06  20717563.543     -423580.839       -2258.387           0.159  
> 2016 10 20 00 03 25.0688020  0  1                     
G06  20717547.475     -423806.859       -2259.134           0.162  
> 2016 10 20 00 03 25.1688020  0  1                     
G06  20717538.958     -424032.759       -2269.298           0.149  
> 2016 10 20 00 03 25.2688020  0  1                     
G06  20717582.264     -424258.935       -2247.286           0.135  
> 2016 10 20 00 03 25.3688020  0  1                     
G06  20717611.343     -424484.916       -2267.866           0.132  
> 2016 10 20 00 03 25.4688020  0  1                     
G06  20717620.714     -424711.514       -2302.229           0.126  
> 2016 10 20 00 03 25.5688020  0  1                     
G06  20717630.066     -424939.973       -2298.216           0.127  
> 2016 10 20 00 03 25.6688020  0  1                     
G06  20717656.470     -425170.355       -2275.738           0.120  
> 2016 10 20 00 03 25.7688020  0  1                     
G06  20717679.352     -425400.390       -2328.362           0.111  
> 2016 10 20 00 03 25.8688020  0  1                     
G06  20717679.157     -425631.824       -2315.320           0.100  
> 2016 10 20 00 03 25.9688020  0  1                     
G06  20717681.930     -425861.407       -2299.080           0.122  
> 2016 10 20 00 03 26.0688020  0  1                     
G06  20717695.100     -426091.245       -2292.196           0.135  
> 2016 10 20 00 03 26.1688020  0  1                     
G06  20717749.213     -426321.191       -2306.916           0.138  
> 2016 10 20 00 03 26.2688020  0  1                     
G06  20717817.485     -426551.025       -2302.010           0.141  
> 2016 10 20 00 03 26.3688020  0  1                     
G06  20717943.693     -426780.997       -2312.290           0.133  
> 2016 10 20 00 03 26.4688020  0  1                     
G06  20718017.120     -427010.806       -2301.183           0.141  
> 2016 10 20 00 03 26.5688020  0  1                     
G06  20718110.431     -427240.593       -2288.124           0.143  
> 2016 10 20 00 03 26.6688020  0  1                     
G06  20718190.864     -427470.550       -2302.929           0.137  
> 2016 10 20 00 03 26.7688020  0  1                     
G06  20718262.800     -427700.303       -2296.141           0.132  
> 2016 10 20 00 03 26.8688020  0  1                     
G06  20718337.349     -427930.317       -2277.629           0.122  
> 2016 10 20 00 03 26.9688020  0  1                     
G06  20718399.733     -428161.292       -2333.623           0.120  
> 2016 10 20 00 03 27.0688020  0  1                     
G06  20718402.253     -428393.163       -2344.663           0.095  
> 2016 10 20 00 03 27.1688020  0  1                     
G06  20718419.447     -428628.035       -2333.100           0.099  
> 2016 10 20 00 03 27.2688020  0  1                     
G06  20718423.228     -428862.925       -2342.283           0.112  
> 2016 10 20 00 03 27.3688020  0  1                     
G06  20718517.604     -429097.730       -2349.307           0.126  
> 2016 10 20 00 03 27.4688020  0  1                     
G06  20718559.695     -429332.326       -2338.640           0.124  
> 2016 10 20 00 03 27.5688020  0  1                     
G06  20718601.667     -429567.130       -2349.270           0.123  
> 2016 10 20 00 03 27.6688020  0  1                     
G06  20718673.308     -429801.946       -2351.876           0.126  
> 2016 10 20 00 03 27.7688020  0  1                     
G06  20718707.529     -430036.630       -2345.083           0.125  
> 2016 10 20 00 03 27.8688020  0  1                     
G06  20718755.285     -430271.452       -2347.148           0.129  
> 2016 10 20 00 03 27.9688020  0  1                     
G06  20718864.861     -430506.237       -2351.207           0.127  
> 2016 10 20 00 03 28.0688020  0  1                     
G06  20718917.103     -430740.951       -2344.319           0.120  
> 2016 10 20 00 03 28.1688020  0  1                     
G06  20719006.884     -430975.591       -2341.410           0.125  
> 2016 10 20 00 03 28.2688020  0  1                     
G06  20719008.582     -431210.423       -2351.772           0.124  
> 2016 10 20 00 03 28.3688020  0  1                     
G06  20719085.060     -431445.164       -2352.655           0.122  
> 2016 10 20 00 03 28.4688020  0  1                     
G06  20719143.566     -431680.003       -2348.359           0.121  
> 2016 10 20 00 03 28.5688020  0  1                     
G06  20719177.857     -431914.670       -2347.347           0.120  
> 2016 10 20 00 03 28.6688020  0  1                     
G06  20719246.672     -432149.424       -2347.669           0.128  
> 2016 10 20 00 03 28.7688020  0  1                     
G06  20719323.625     -432384.183       -2353.318           0.125  
> 2016 10 20 00 03 28.8688020  0  1                     
G06  20719401.774     -432618.996       -2351.111           0.121  
> 2016 10 20 00 03 28.9688020  0  1                     
G06  20719461.932     -432853.782       -2341.842           0.123  
> 2016 10 20 00 03 29.0688020  0  1                     
G06  20719518.743     -433088.626       -2343.983           0.122  
> 2016 10 20 00 03 29.1688020  0  1                     
G06  20719566.663     -433323.345       -2348.054           0.123  
> 2016 10 20 00 03 29.2688020  0  1                     
G06  20719598.765     -433558.235       -2343.416           0.121  
> 2016 10 20 00 03 29.3688020  0  1                     
G06  20719641.501     -433793.091       -2337.394           0.114  
> 2016 10 20 00 03 29.4688020  0  1                     
G06  20719711.010     -434027.940       -2353.867           0.126  
> 2016 10 20 00 03 29.5688020  0  1                     
G06  20719777.228     -434262.796       -2351.120           0.124  
> 2016 10 20 00 03 29.6688020  0  1                     
G06  20719867.488     -434497.908       -2362.151           0.118  
> 2016 10 20 00 03 29.7688020  0  1                     
G06  20719914.789     -434732.507       -2341.381           0.119  
> 2016 10 20 00 03 29.8688020  0  1                     
G06  20719991.152     -434967.557       -2347.189           0.124  
> 2016 10 20 00 03 29.9688020  0  1                     
G06  20720021.116     -435202.498       -2350.946           0.121  
> 2016 10 20 00 03 30.0688020  0  1                     
G06  20720062.630     -435437.513       -2352.945           0.121  
> 2016 10 20 00 03 30.1688020  0  1                     
G06  20720129.134     -435672.465       -2344.414           0.126  
> 2016 10 20 00 03 30.2688020  0  1                     
G06  20720169.279     -435907.401       -2345.657           0.125  
> 2016 10 20 00 03 30.3688020  0  1                     
G06  20720242.993     -436142.360       -2339.584           0.124  
> 2016 10 20 00 03 30.4688020  0  1                     
G06  20720347.114     -436377.380       -2348.125           0.122  
> 2016 10 20 00 03 30.5688020  0  1                     
G06  20720421.612     -436612.465       -2341.963           0.122  
> 2016 10 20 00 03 30.6688020  0  1                     
G06  20720476.804     -436847.569       -2347.476           0.125  
> 2016 10 20 00 03 30.7688020  0  1                     
G06  20720531.562     -437082.549       -2340.555           0.118  
> 2016 10 20 00 03 30.8688020  0  1                     
G06  20720569.471     -437317.656       -2351.838           0.120  
> 2016 10 20 00 03 30.9688020  0  1                     
G06  20720604.663     -437552.688       -2356.117           0.125  
> 2016 10 20 00 03 31.0688020  0  1                     
G06  20720611.164     -437787.726       -2361.596           0.121  
> 2016 10 20 00 03 31.1688020  0  1                     
G06  20720684.500     -438022.693       -2346.194           0.125  
> 2016 10 20 00 03 31.2688020  0  1                     
G06  20720792.750     -438257.771       -2339.262           0.121  
> 2016 10 20 00 03 31.3688020  0  1                     
G06  20720863.037     -438492.811       -2335.511           0.117  
> 2016 10 20 00 03 31.4688020  0  1                     
G06  20720916.261     -438727.839       -2332.786           0.121  
> 2016 10 20 00 03 31.5688020  0  1                     
G06  20720941.718     -438962.967       -2347.777           0.120  
> 2016 10 20 00 03 31.6688020  0  1                     
G06  20721029.903     -439197.986       -2348.805           0.125  
> 2016 10 20 00 03 31.7688020  0  1                     
G06  20721099.729     -439433.091       -2349.490           0.118  
> 2016 10 20 00 03 31.8688020  0  1                     
G06  20721148.349     -439668.280       -2357.133           0.122  
> 2016 10 20 00 03 31.9688020  0  1                     
G06  20721212.993     -439903.320       -2338.267           0.125  
> 2016 10 20 00 03 32.0688020  0  1                     
G06  20721281.977     -440138.494       -2324.510           0.112  
> 2016 10 20 00 03 32.1688020  0  1                     
G06  20721319.774     -440373.511       -2350.855           0.113  
> 2016 10 20 00 03 32.2688020  0  1                     
G06  20721394.931     -440608.432       -2346.282           0.122  
> 2016 10 20 00 03 32.3688020  0  1                     
G06  20721447.695     -440843.592       -2348.931           0.119  
> 2016 10 20 00 03 32.4688020  0  1                     
G06  20721493.804     -441078.611       -2354.362           0.123  
> 2016 10 20 00 03 32.5688020  0  1                     
G06  20721510.302     -441313.676       -2354.378           0.123  
> 2016 10 20 00 03 32.6688020  0  1                     
G06  20721567.508     -441548.682       -2348.938           0.124  
> 2016 10 20 00 03 32.7688020  0  1                     
G06  20721640.701     -441783.744       -2356.262           0.127  
> 2016 10 20 00 03 32.8688020  0  1                     
G06  20721734.230     -442018.752       -2345.161           0.124  
> 2016 10 20 00 03 32.9688020  0  1                     
G06  20721806.164     -442253.869       -2347.177           0.128  
> 2016 10 20 00 03 33.0688020  0  1                     
G06  20721881.776     -442489.054       -2344.803           0.125  
> 2016 10 20 00 03 33.1688020  0  1                     
G06  20721915.137     -442724.091       -2337.276           0.118  
> 2016 10 20 00 03 33.2688020  0  1                     
G06  20721972.766     -442958.451       -2354.060           0.079  
> 2016 10 20 00 03 33.3688020  0  1                     
G06  20722072.212     -443192.287       -2342.672           0.062  
> 2016 10 20 00 03 33.4688020  0  1                     
G06  20722111.074     -443424.824       -2301.127           0.049  
> 2016 10 20 00 03 33.5688020  0  1                     
G06  20722198.460     -443654.725       -2281.911           0.089  
> 2016 10 20 00 03 33.6688020  0  1                     
G06  20722330.111     -443884.925       -2292.437           0.081  
> 2016 10 20 00 03 33.7688020  0  1                     
G06  20722371.204     -444115.681       -2314.735           0.082  
> 2016 10 20 00 03 33.8688020  0  1                     
G06  20722387.850     -444345.774       -2307.636           0.101  
> 2016 10 20 00 03 33.9688020  0  1                     
G06  20722457.094     -444576.725       -2304.657           0.086  
> 2016 10 20 00 03 34.0688020  0  1                     
G06  20722476.403     -444807.923       -2331.775           0.045  
> 2016 10 20 00 03 34.1688020  0  1                     
G06  20722541.539     -445040.382       -2337.188           0.069  
> 2016 10 20 00 03 34.2688020  0  1                     
G06  20722590.440     -445272.363       -2331.323           0.057  
> 2016 10 20 00 03 34.3688020  0  1                     
G06  20722647.735     -445505.100       -2319.086           0.050  
> 2016 10 20 00 03 34.4688020  0  1                     
G06  20722726.523     -445737.968       -2329.944           0.041  
> 2016 10 20 00 03 34.5688020  0  1                     
G06  20722775.799     -445969.997       -2310.167           0.068  
> 2016 10 20 00 03 34.6688020  0  1                     
G06  20722848.278     -446202.622       -2317.560           0.083  
> 2016 10 20 00 03 34.7688020  0  1                     
G06  20722869.435     -446434.802       -2319.533           0.069  
> 2016 10 20 00 03 34.8688020  0  1                     
G06  20722881.435     -446665.016       -2299.679           0.080  
> 2016 10 20 00 03 34.9688020  0  1                     
G06  20722912.961     -446895.677       -2318.872           0.077  
> 2016 10 20 00 03 35.0688020  0  1                     
G06  20722961.787     -447125.559       -2315.457           0.041  
> 2016 10 20 00 03 35.1688020  0  1                     
G06  20723021.381     -447356.337       -2280.223           0.065  
> 2016 10 20 00 03 35.2688020  0  1                     
G06  20723142.276     -447586.673       -2308.422           0.080  
> 2016 10 20 00 03 35.3688020  0  1                     
G06  20723231.223     -447816.729       -2301.566           0.077  
> 2016 10 20 00 03 35.4688020  0  1                     
G06  20723308.408     -448046.785       -2292.759           0.094  
> 2016 10 20 00 03 35.5688020  0  1                     
G06  20723357.977     -448279.288       -2339.342           0.052  
> 2016 10 20 00 03 35.6688020  0  1                     
G06  20723471.983     -448512.301       -2337.084           0.067  
> 2016 10 20 00 03 35.7688020  0  1                     
G06  20723541.128     -448745.655       -2294.430           0.046  
> 2016 10 20 00 03 35.8688020  0  1                     
G06  20723597.436     -448976.372       -2314.051           0.062  
> 2016 10 20 00 03 35.9688020  0  1                     
G06  20723621.194     -449209.290       -2344.586           0.072  
> 2016 10 20 00 03 36.0688020  0  1                     
G06  20723669.964     -449441.899       -2330.278           0.087  
> 2016 10 20 00 03 36.1688020  0  1                     
G06  20723734.550     -449674.710       -2297.816           0.065  
> 2016 10 20 00 03 36.2688020  0  1                     
G06  20723780.155     -449906.812       -2300.861           0.063  
> 2016 10 20 00 03 36.3688020  0  1                     
G06  20723775.889     -450137.143       -2289.485           0.086  
> 2016 10 20 00 03 36.4688020  0  1                     
G06  20723780.239     -450367.442       -2321.197           0.083  
> 2016 10 20 00 03 36.5688020  0  1                     
G06  20723771.256     -450600.462       -2315.835           0.040  
> 2016 10 20 00 03 36.6688020  0  1                     
G06  20723751.576     -450833.361       -2327.836           0.070  
> 2016 10 20 00 03 36.7688020  0  1                     
G06  20723740.208     -451069.276       -2389.062           0.057  
> 2016 10 20 00 03 36.8688020  0  1                     
G06  20723672.597     -451305.087       -2353.072           0.060  
> 2016 10 20 00 03 36.9688020  0  1                     
G06  20723586.977     -451539.952       -2351.080           0.047  
> 2016 10 20 00 03 37.0688020  0  1                     
G06  20723596.622     -451773.986       -2354.466           0.091  
> 2016 10 20 00 03 37.1688020  0  1                     
G06  20723628.390     -452007.266       -2329.569           0.107  
> 2016 10 20 00 03 37.2688020  0  1                     
G06  20723686.385     -452236.558       -2276.855           0.118  
> 2016 10 20 00 03 37.3688020  0  1                     
G06  20723762.231     -452464.344       -2255.636           0.112  
> 2016 10 20 00 03 37.4688020  0  1                     
G06  20723838.839     -452690.583       -2259.271           0.149  
> 2016 10 20 00 03 37.5688020  0  1                     
G06  20723932.230     -452916.906       -2243.245           0.131  
> 2016 10 20 00 03 37.6688020  0  1                     
G06  20723986.863     -453143.164       -2257.137           0.134  
> 2016 10 20 00 03 37.7688020  0  1                     
G06  20724050.457     -453368.569       -2225.914           0.137  
> 2016 10 20 00 03 37.8688020  0  1                     
G06  20724052.546     -453594.749       -2270.003           0.144  
> 2016 10 20 00 03 37.9688020  0  1                     
G06  20724130.675     -453823.341       -2287.875           0.134  
> 2016 10 20 00 03 38.0688020  0  1                     
G06  20724198.974     -454049.378       -2261.113           0.139  
> 2016 10 20 00 03 38.1688020  0  1                     
G06  20724242.902     -454275.929       -2264.146           0.152  
> 2016 10 20 00 03 38.2688020  0  1                     
G06  20724340.801     -454502.163       -2264.750           0.152  
> 2016 10 20 00 03 38.3688020  0  1                     
G06  20724392.375     -454728.495       -2248.261           0.136  
> 2016 10 20 00 03 38.4688020  0  1                     
G06  20724461.103     -454954.853       -2264.161           0.143  
> 2016 10 20 00 03 38.5688020  0  1                     
G06  20724485.692     -455181.232       -2267.449           0.152  
> 2016 10 20 00 03 38.6688020  0  1                     
G06  20724517.605     -455407.751       -2259.544           0.135  
> 2016 10 20 00 03 38.7688020  0  1                     
G06  20724574.649     -455634.556       -2277.854           0.126  
> 2016 10 20 00 03 38.8688020  0  1                     
G06  20724662.713     -455861.140       -2273.190           0.149  
> 2016 10 20 00 03 38.9688020  0  1                     
G06  20724719.752     -456087.713       -2270.473           0.142  
> 2016 10 20 00 03 39.0688020  0  1                     
G06  20724788.226     -456314.618       -2273.922           0.149  
> 2016 10 20 00 03 39.1688020  0  1                     
G06  20724821.464     -456542.032       -2292.697           0.132  
> 2016 10 20 00 03 39.2688020  0  1                     
G06  20724925.505     -456771.427       -2279.212           0.121  
> 2016 10 20 00 03 39.3688020  0  1                     
G06  20724969.647     -457000.797       -2300.075           0.116  
> 2016 10 20 00 03 39.4688020  0  1                     
G06  20725013.685     -457232.697       -2310.274           0.124  
> 2016 10 20 00 03 39.5688020  0  1                     
G06  20725069.132     -457463.165       -2330.773           0.124  
> 2016 10 20 00 03 39.6688020  0  1                     
G06  20725113.230     -457692.326       -2278.519           0.129  
> 2016 10 20 00 03 39.7688020  0  1                     
G06  20725200.028     -457921.486       -2313.801           0.114  
> 2016 10 20 00 03 39.8688020  0  1                     
G06  20725251.363     -458150.453       -2310.730           0.130  
> 2016 10 20 00 03 39.9688020  0  1                     
G06  20725305.213     -458376.910       -2272.444           0.143  
> 2016 10 20 00 03 40.0688020  0  1                     
G06  20725372.427     -458603.572       -2263.530           0.147  
> 2016 10 20 00 03 40.1688020  0  1                     
G06  20725409.237     -458830.247       -2272.474           0.144  
> 2016 10 20 00 03 40.2688020  0  1                     
G06  20725482.607     -459056.742       -2262.881           0.151  
> 2016 10 20 00 03 40.3688020  0  1                     
G06  20725513.099     -459283.412       -2266.968           0.151  
> 2016 10 20 00 03 40.4688020  0  1                     
G06  20725541.428     -459509.991       -2262.126           0.133  
> 2016 10 20 00 03 40.5688020  0  1                     
G06  20725626.860     -459736.683       -2254.995           0.141  
> 2016 10 20 00 03 40.6688020  0  1                     
G06  20725696.529     -459963.252       -2262.047           0.152  
> 2016 10 20 00 03 40.7688020  0  1                     
G06  20725766.302     -460189.763       -2269.174           0.130  
> 2016 10 20 00 03 40.8688020  0  1                     
G06  20725816.425     -460416.277       -2259.812           0.138  
> 2016 10 20 00 03 40.9688020  0  1                     
G06  20725890.093     -460642.907       -2268.530           0.144  
> 2016 10 20 00 03 41.0688020  0  1                     
G06  20725963.990     -460869.621       -2260.896           0.149  
> 2016 10 20 00 03 41.1688020  0  1                     
G06  20725979.272     -461096.474       -2254.155           0.129  
> 2016 10 20 00 03 41.2688020  0  1                     
G06  20726038.875     -461323.116       -2263.719           0.147  
> 2016 10 20 00 03 41.3688020  0  1                     
G06  20726094.971     -461549.751       -2265.743           0.150  
> 2016 10 20 00 03 41.4688020  0  1                     
G06  20726160.825     -461776.191       -2270.251           0.142  
> 2016 10 20 00 03 41.5688020  0  1                     
G06  20726235.077     -462002.833       -2272.980           0.149  
> 2016 10 20 00 03 41.6688020  0  1                     
G06  20726253.766     -462229.366       -2259.682           0.143  
> 2016 10 20 00 03 41.7688020  0  1                     
G06  20726320.279     -462455.824       -2273.608           0.143  
> 2016 10 20 00 03 41.8688020  0  1                     
G06  20726397.248     -462682.309       -2263.321           0.147  
> 2016 10 20 00 03 41.9688020  0  1                     
G06  20726472.556     -462908.918       -2261.711           0.143  
> 2016 10 20 00 03 42.0688020  0  1                     
G06  20726522.128     -463135.425       -2257.747           0.150  
> 2016 10 20 00 03 42.1688020  0  1                     
G06  20726545.182     -463361.997       -2263.011           0.144  
> 2016 10 20 00 03 42.2688020  0  1                     
G06  20726588.841     -463588.645       -2270.444           0.130  
> 2016 10 20 00 03 42.3688020  0  1                     
G06  20726693.400     -463815.221       -2272.467           0.146  
> 2016 10 20 00 03 42.4688020  0  1                     
G06  20726718.448     -464041.719       -2259.998           0.154  
> 2016 10 20 00 03 42.5688020  0  1                     
G06  20726796.000     -464268.222       -2267.191           0.157  
> 2016 10 20 00 03 42.6688020  0  1                     
G06  20726864.747     -464494.557       -2253.313           0.145  
> 2016 10 20 00 03 42.7688020  0  1                     
G06  20726929.299     -464720.262       -2265.150           0.134  
> 2016 10 20 00 03 42.8688020  0  1                     
G06  20726979.350     -464946.831       -2258.680           0.143  
> 2016 10 20 00 03 42.9688020  0  1                     
G06  20727005.947     -465173.263       -2265.106           0.146  
> 2016 10 20 00 03 43.0688020  0  1                     
G06  20727058.034     -465399.767       -2266.100           0.150  
> 2016 10 20 00 03 43.1688020  0  1                     
G06  20727132.852     -465626.293       -2265.808           0.156  
> 2016 10 20 00 03 43.2688020  0  1                     
G06  20727200.558     -465852.939       -2268.149           0.150  
> 2016 10 20 00 03 43.3688020  0  1                     
G06  20727268.794     -466079.179       -2262.694           0.141  
> 2016 10 20 00 03 43.4688020  0  1                     
G06  20727309.478     -466305.793       -2266.388           0.149  
> 2016 10 20 00 03 43.5688020  0  1                     
G06  20727382.973     -466532.285       -2265.463           0.145  
> 2016 10 20 00 03 43.6688020  0  1                     
G06  20727446.060     -466758.945       -2278.867           0.145  
> 2016 10 20 00 03 43.7688020  0  1                     
G06  20727494.416     -466985.344       -2266.997           0.154  
> 2016 10 20 00 03 43.8688020  0  1                     
G06  20727556.027     -467211.850       -2268.819           0.144  
> 2016 10 20 00 03 43.9688020  0  1                     
G06  20727566.777     -467438.449       -2271.127           0.154  
> 2016 10 20 00 03 44.0688020  0  1                     
G06  20727650.715     -467664.877       -2267.023           0.154  
> 2016 10 20 00 03 44.1688020  0  1                     
G06  20727716.456     -467891.269       -2260.227           0.151  
> 2016 10 20 00 03 44.2688020  0  1                     
G06  20727750.814     -468117.745       -2269.631           0.153  
> 2016 10 20 00 03 44.3688020  0  1                     
G06  20727836.477     -468344.151       -2263.742           0.149  
> 2016 10 20 00 03 44.4688020  0  1                     
G06  20727895.780     -468570.622       -2258.822           0.138  
> 2016 10 20 00 03 44.5688020  0  1                     
G06  20727956.077     -468797.162       -2260.858           0.149  
> 2016 10 20 00 03 44.6688020  0  1                     
G06  20728007.582     -469023.581       -2259.611           0.151  
> 2016 10 20 00 03 44.7688020  0  1                     
G06  20728020.489     -469248.559       -2243.882           0.130  
> 2016 10 20 00 03 44.8688020  0  1                     
G06  20728096.578     -469472.417       -2258.904           0.117  
> 2016 10 20 00 03 44.9688020  0  1                     
G06  20728176.039     -469696.403       -2240.410           0.136  
> 2016 10 20 00 03 45.0688020  0  1                     
G06  20728235.023     -469920.397       -2253.821           0.130  
> 2016 10 20 00 03 45.1688020  0  1                     
G06  20728300.273     -470144.219       -2247.012           0.129  
> 2016 10 20 00 03 45.2688020  0  1                     
G06  20728341.360     -470368.155       -2247.510           0.133  
> 2016 10 20 00 03 45.3688020  0  1                     
G06  20728436.563     -470592.297       -2213.973           0.125  
> 2016 10 20 00 03 45.4688020  0  1                     
G06  20728478.268     -470817.805       -2262.522           0.132  
> 2016 10 20 00 03 45.5688020  0  1                     
G06  20728518.131     -471044.462       -2271.445           0.136  
> 2016 10 20 00 03 45.6688020  0  1                     
G06  20728567.449     -471270.969       -2269.232           0.148  
> 2016 10 20 00 03 45.7688020  0  1                     
G06  20728638.146     -471497.375       -2265.491           0.155  
> 2016 10 20 00 03 45.8688020  0  1                     
G06  20728700.227     -471723.755       -2241.575           0.143  
> 2016 10 20 00 03 45.9688020  0  1                     
G06  20728767.731     -471950.334       -2268.616           0.146  
> 2016 10 20 00 03 46.0688020  0  1                     
G06  20728823.019     -472176.739       -2263.146           0.145  
> 2016 10 20 00 03 46.1688020  0  1                     
G06  20728888.029     -472403.119       -2270.320           0.144  
> 2016 10 20 00 03 46.2688020  0  1                     
G06  20728945.810     -472629.846       -2273.282           0.130  
> 2016 10 20 00 03 46.3688020  0  1                     
G06  20728965.134     -472856.115       -2261.681           0.143  
> 2016 10 20 00 03 46.4688020  0  1                     
G06  20729024.106     -473082.453       -2269.521           0.139  
> 2016 10 20 00 03 46.5688020  0  1                     
G06  20729062.839     -473308.993       -2261.816           0.150  
> 2016 10 20 00 03 46.6688020  0  1                     
G06  20729146.481     -473535.271       -2254.166           0.148  
> 2016 10 20 00 03 46.7688020  0  1                     
G06  20729224.445     -473761.818       -2263.277           0.145  
> 2016 10 20 00 03 46.8688020  0  1                     
G06  20729280.359     -473988.325       -2271.136           0.149  
> 2016 10 20 00 03 46.9688020  0  1                     
G06  20729340.112     -474214.688       -2266.519           0.149  
> 2016 10 20 00 03 47.0688020  0  1                     
G06  20729399.114     -474441.007       -2270.029           0.145  
> 2016 10 20 00 03 47.1688020  0  1                     
G06  20729473.815     -474667.349       -2260.578           0.149  
> 2016 10 20 00 03 47.2688020  0  1                     
G06  20729480.144     -474893.922       -2281.935           0.114  
> 2016 10 20 00 03 47.3688020  0  1                     
G06  20729417.991     -475120.396       -2296.345           0.090  
> 2016 10 20 00 03 47.4688020  0  1                     
G06  20729379.506     -475346.962       -2283.663           0.090  
> 2016 10 20 00 03 47.5688020  0  1                     
G06  20729402.929     -475572.918       -2286.354           0.130  
> 2016 10 20 00 03 47.6688020  0  1                     
G06  20729456.971     -475799.475       -2258.897           0.144  
> 2016 10 20 00 03 47.7688020  0  1                     
G06  20729477.501     -476025.802       -2269.037           0.148  
> 2016 10 20 00 03 47.8688020  0  1                     
G06  20729542.852     -476251.871       -2258.725           0.135  
> 2016 10 20 00 03 47.9688020  0  1                     
G06  20729640.291     -476478.394       -2250.330           0.137  
> 2016 10 20 00 03 48.0688020  0  1                     
G06  20729738.450     -476704.443       -2264.731           0.131  
> 2016 10 20 00 03 48.1688020  0  1                     
G06  20729774.115     -476930.235       -2227.115           0.126  
> 2016 10 20 00 03 48.2688020  0  1                     
G06  20729835.129     -477154.076       -2248.929           0.131  
> 2016 10 20 00 03 48.3688020  0  1                     
G06  20729851.977     -477380.222       -2251.656           0.123  
> 2016 10 20 00 03 48.4688020  0  1                     
G06  20729902.213     -477606.804       -2266.344           0.150  
> 2016 10 20 00 03 48.5688020  0  1                     
G06  20729962.995     -477834.068       -2306.488           0.128  
> 2016 10 20 00 03 48.6688020  0  1                     
G06  20730036.876     -478063.157       -2262.882           0.118  
> 2016 10 20 00 03 48.7688020  0  1                     
G06  20730098.121     -478291.902       -2271.231           0.124  
> 2016 10 20 00 03 48.8688020  0  1                     
G06  20730181.939     -478520.979       -2277.440           0.128  
> 2016 10 20 00 03 48.9688020  0  1                     
G06  20730232.071     -478748.923       -2247.987           0.125  
> 2016 10 20 00 03 49.0688020  0  1                     
G06  20730293.585     -478975.219       -2259.842           0.154  
> 2016 10 20 00 03 49.1688020  0  1                     
G06  20730322.972     -479201.662       -2264.186           0.152  
> 2016 10 20 00 03 49.2688020  0  1                     
G06  20730340.106     -479428.053       -2261.292           0.151  
> 2016 10 20 00 03 49.3688020  0  1                     
G06  20730383.880     -479654.549       -2280.353           0.123  
> 2016 10 20 00 03 49.4688020  0  1                     
G06  20730486.338     -479882.003       -2263.979           0.119  
> 2016 10 20 00 03 49.5688020  0  1                     
G06  20730522.098     -480108.364       -2285.139           0.140  
> 2016 10 20 00 03 49.6688020  0  1                     
G06  20730630.424     -480334.787       -2259.255           0.136  
> 2016 10 20 00 03 49.7688020  0  1                     
G06  20730702.348     -480561.252       -2268.139           0.148  
> 2016 10 20 00 03 49.8688020  0  1                     
G06  20730757.529     -480787.783       -2267.079           0.150  
> 2016 10 20 00 03 49.9688020  0  1                     
G06  20730766.744     -481014.220       -2263.629           0.135  
> 2016 10 20 00 03 50.0688020  0  1                     
G06  20730802.281     -481240.869       -2276.354           0.137  
> 2016 10 20 00 03 50.1688020  0  1                     
G06  20730856.599     -481467.247       -2266.469           0.144  
> 2016 10 20 00 03 50.2688020  0  1                     
G06  20730947.834     -481693.856       -2264.043           0.133  
> 2016 10 20 00 03 50.3688020  0  1                     
G06  20731035.681     -481917.827       -2226.633           0.127  
> 2016 10 20 00 03 50.4688020  0  1                     
G06  20731100.021     -482141.750       -2252.871           0.135  
> 2016 10 20 00 03 50.5688020  0  1                     
G06  20731178.596     -482365.605       -2256.439           0.121  
> 2016 10 20 00 03 50.6688020  0  1                     
G06  20731210.862     -482589.687       -2219.335           0.131  
> 2016 10 20 00 03 50.7688020  0  1                     
G06  20731268.185     -482813.305       -2239.093           0.125  
> 2016 10 20 00 03 50.8688020  0  1                     
G06  20731318.396     -483037.082       -2228.210           0.131  
> 2016 10 20 00 03 50.9688020  0  1                     
G06  20731352.844     -483260.907       -2260.943           0.123  
> 2016 10 20 00 03 51.0688020  0  1                     
G06  20731393.350     -483484.779       -2217.652           0.119  
> 2016 10 20 00 03 51.1688020  0  1                     
G06  20731482.793     -483710.203       -2273.926           0.118  
> 2016 10 20 00 03 51.2688020  0  1                     
G06  20731527.503     -483936.694       -2254.870           0.147  
> 2016 10 20 00 03 51.3688020  0  1                     
G06  20731623.982     -484162.922       -2264.038           0.144  
> 2016 10 20 00 03 51.4688020  0  1                     
G06  20731661.569     -484389.354       -2265.875           0.158  
> 2016 10 20 00 03 51.5688020  0  1                     
G06  20731742.843     -484613.753       -2236.524           0.108  
> 2016 10 20 00 03 51.6688020  0  1                     
G06  20731792.765     -484837.724       -2229.508           0.127  
> 2016 10 20 00 03 51.7688020  0  1                     
G06  20731802.855     -485062.852       -2256.824           0.121  
> 2016 10 20 00 03 51.8688020  0  1                     
G06  20731841.264     -485289.132       -2264.825           0.147  
> 2016 10 20 00 03 51.9688020  0  1                     
G06  20731937.910     -485515.431       -2262.190           0.150  
> 2016 10 20 00 03 52.0688020  0  1                     
G06  20731991.678     -485741.752       -2264.455           0.153  
> 2016 10 20 00 03 52.1688020  0  1                     
G06  20732088.241     -485968.108       -2267.137           0.156  
> 2016 10 20 00 03 52.2688020  0  1                     
G06  20732158.280     -486194.353       -2255.988           0.147  
> 2016 10 20 00 03 52.3688020  0  1                     
G06  20732189.496     -486420.568       -2272.601           0.154  
> 2016 10 20 00 03 52.4688020  0  1                     
G06  20732230.701     -486644.373       -2225.040           0.126  
> 2016 10 20 00 03 52.5688020  0  1                     
G06  20732288.236     -486868.174       -2224.403           0.135  
> 2016 10 20 00 03 52.6688020  0  1                     
G06  20732276.705     -487091.918       -2209.755           0.102  
> 2016 10 20 00 03 52.7688020  0  1                     
G06  20732283.191     -487315.928       -2223.197           0.128  
> 2016 10 20 00 03 52.8688020  0  1                     
G06  20732331.946     -487539.753       -2219.568           0.133  
> 2016 10 20 00 03 52.9688020  0  1                     
G06  20732377.259     -487763.569       -2234.339           0.142  
> 2016 10 20 00 03 53.0688020  0  1                     
G06  20732432.961     -487987.553       -2227.618           0.138  
> 2016 10 20 00 03 53.1688020  0  1                     
G06  20732493.050     -488211.377       -2227.995           0.142  
> 2016 10 20 00 03 53.2688020  0  1                     
G06  20732529.922     -488435.242       -2216.454           0.133  
> 2016 10 20 00 03 53.3688020  0  1                     
G06  20732600.594     -488659.030       -2248.454           0.131  
> 2016 10 20 00 03 53.4688020  0  1                     
G06  20732664.235     -488882.869       -2253.278           0.117  
> 2016 10 20 00 03 53.5688020  0  1                     
G06  20732723.597     -489106.802       -2255.683           0.123  
> 2016 10 20 00 03 53.6688020  0  1                     
G06  20732781.399     -489330.606       -2246.486           0.132  
> 2016 10 20 00 03 53.7688020  0  1                     
G06  20732824.177     -489554.292       -2239.937           0.133  
> 2016 10 20 00 03 53.8688020  0  1                     
G06  20732907.445     -489778.190       -2233.005           0.139  
> 2016 10 20 00 03 53.9688020  0  1                     
G06  20732954.685     -490002.043       -2230.767           0.140  
> 2016 10 20 00 03 54.0688020  0  1                     
G06  20732968.682     -490225.945       -2217.600           0.129  
> 2016 10 20 00 03 54.1688020  0  1                     
G06  20733068.292     -490449.798       -2255.383           0.124  
> 2016 10 20 00 03 54.2688020  0  1                     
G06  20733139.357     -490673.728       -2262.193           0.128  
> 2016 10 20 00 03 54.3688020  0  1                     
G06  20733204.300     -490897.548       -2247.605           0.119  
> 2016 10 20 00 03 54.4688020  0  1                     
G06  20733255.562     -491121.526       -2258.127           0.137  
> 2016 10 20 00 03 54.5688020  0  1                     
G06  20733298.053     -491345.442       -2254.287           0.132  
> 2016 10 20 00 03 54.6688020  0  1                     
G06  20733371.879     -491569.416       -2262.855           0.135  
> 2016 10 20 00 03 54.7688020  0  1                     
G06  20733408.150     -491793.285       -2257.147           0.135  
> 2016 10 20 00 03 54.8688020  0  1                     
G06  20733464.036     -492017.258       -2252.779           0.134  
> 2016 10 20 00 03 54.9688020  0  1                     
G06  20733524.551     -492241.198       -2251.379           0.136  
> 2016 10 20 00 03 55.0688020  0  1                     
G06  20733588.614     -492465.301       -2255.694           0.135  
> 2016 10 20 00 03 55.1688020  0  1                     
G06  20733731.478     -492689.259       -2252.719           0.130  
> 2016 10 20 00 03 55.2688020  0  1                     
G06  20733863.890     -492913.277       -2257.956           0.136  
> 2016 10 20 00 03 55.3688020  0  1                     
G06  20733953.822     -493137.303       -2256.775           0.140  
> 2016 10 20 00 03 55.4688020  0  1                     
G06  20733989.337     -493361.352       -2255.329           0.131  
> 2016 10 20 00 03 55.5688020  0  1                     
G06  20733995.828     -493585.368       -2250.041           0.127  
> 2016 10 20 00 03 55.6688020  0  1                     
G06  20734031.925     -493809.449       -2253.255           0.137  
> 2016 10 20 00 03 55.7688020  0  1                     
G06  20734143.721     -494033.493       -2252.893           0.139  
> 2016 10 20 00 03 55.8688020  0  1                     
G06  20734188.403     -494257.513       -2254.169           0.133  
> 2016 10 20 00 03 55.9688020  0  1                     
G06  20734274.250     -494481.540       -2259.615           0.141  
> 2016 10 20 00 03 56.0688020  0  1                     
G06  20734300.276     -494705.540       -2255.378           0.137  
> 2016 10 20 00 03 56.1688020  0  1                     
G06  20734390.023     -494929.616       -2257.231           0.145  
> 2016 10 20 00 03 56.2688020  0  1                     
G06  20734432.068     -495153.715       -2261.910           0.134  
> 2016 10 20 00 03 56.3688020  0  1                     
G06  20734438.565     -495377.650       -2254.211           0.135  
> 2016 10 20 00 03 56.4688020  0  1                     
G06  20734522.296     -495601.626       -2253.878           0.137  
> 2016 10 20 00 03 56.5688020  0  1                     
G06  20734588.469     -495825.727       -2253.708           0.135  
> 2016 10 20 00 03 56.6688020  0  1                     
G06  20734653.988     -496049.724       -2257.573           0.135  
> 2016 10 20 00 03 56.7688020  0  1                     
G06  20734728.166     -496273.759       -2261.365           0.139  
> 2016 10 20 00 03 56.8688020  0  1                     
G06  20734767.391     -496497.760       -2260.616           0.140  
> 2016 10 20 00 03 56.9688020  0  1                     
G06  20734843.746     -496721.746       -2257.811           0.142  
> 2016 10 20 00 03 57.0688020  0  1                     
G06  20734875.396     -496945.843       -2257.260           0.139  
> 2016 10 20 00 03 57.1688020  0  1                     
G06  20734931.537     -497169.954       -2254.203           0.139  
> 2016 10 20 00 03 57.2688020  0  1                     
G06  20734993.421     -497393.975       -2251.176           0.134  
> 2016 10 20 00 03 57.3688020  0  1                     
G06  20735024.382     -497618.025       -2251.699           0.131  
> 2016 10 20 00 03 57.4688020  0  1                     
G06  20735097.261     -497842.138       -2256.857           0.137  
> 2016 10 20 00 03 57.5688020  0  1                     
G06  20735169.555     -498066.278       -2256.195           0.137  
> 2016 10 20 00 03 57.6688020  0  1                     
G06  20735240.162     -498290.327       -2254.796           0.140  
> 2016 10 20 00 03 57.7688020  0  1                     
G06  20735306.146     -498514.389       -2253.957           0.137  
> 2016 10 20 00 03 57.8688020  0  1                     
G06  20735330.861     -498738.463       -2256.142           0.139  
> 2016 10 20 00 03 57.9688020  0  1                     
G06  20735426.953     -498962.572       -2256.105           0.145  
> 2016 10 20 00 03 58.0688020  0  1                     
G06  20735458.665     -499186.670       -2258.099           0.135  
> 2016 10 20 00 03 58.1688020  0  1                     
G06  20735475.347     -499410.670       -2257.480           0.131  
> 2016 10 20 00 03 58.2688020  0  1                     
G06  20735548.919     -499634.699       -2254.695           0.137  
> 2016 10 20 00 03 58.3688020  0  1                     
G06  20735618.781     -499858.726       -2254.436           0.135  
> 2016 10 20 00 03 58.4688020  0  1                     
G06  20735694.811     -500082.694       -2250.797           0.142  
> 2016 10 20 00 03 58.5688020  0  1                     
G06  20735757.271     -500306.719       -2258.217           0.140  
> 2016 10 20 00 03 58.6688020  0  1                     
G06  20735787.330     -500530.753       -2253.962           0.141  
> 2016 10 20 00 03 58.7688020  0  1                     
G06  20735871.718     -500754.756       -2257.056           0.141  
> 2016 10 20 00 03 58.8688020  0  1                     
G06  20735902.057     -500978.729       -2255.527           0.137  
> 2016 10 20 00 03 58.9688020  0  1                     
G06  20735948.042     -501202.660       -2252.701           0.138  
> 2016 10 20 00 03 59.0688020  0  1                     
G06  20736008.225     -501426.627       -2259.419           0.133  
> 2016 10 20 00 03 59.1688020  0  1                     
G06  20736063.908     -501650.650       -2261.381           0.131  
> 2016 10 20 00 03 59.2688020  0  1                     
G06  20736161.693     -501874.652       -2255.781           0.138  
> 2016 10 20 00 03 59.3688020  0  1                     
G06  20736212.414     -502098.685       -2252.867           0.139  
> 2016 10 20 00 03 59.4688020  0  1                     
G06  20736294.649     -502322.684       -2253.071           0.145  
> 2016 10 20 00 03 59.5688020  0  1                     
G06  20736342.051     -502546.690       -2251.820           0.141  
> 2016 10 20 00 03 59.6688020  0  1                     
G06  20736353.141     -502770.643       -2259.141           0.138  
> 2016 10 20 00 03 59.7688020  0  1                     
G06  20736455.838     -502994.577       -2251.266           0.141  
> 2016 10 20 00 03 59.8688020  0  1                     
G06  20736483.093     -503218.593       -2252.198           0.130  
> 2016 10 20 00 03 59.9688020  0  1                     
G06  20736506.567     -503442.593       -2257.050           0.131  
> 2016 10 20 00 04 00.0688020  0  1                     
G06  20736611.985     -503666.626       -2258.722           0.139  
> 2016 10 20 00 04 00.1688020  0  1                     
G06  20736648.959     -503890.620       -2258.615           0.135  
> 2016 10 20 00 04 00.2688020  0  1                     
G06  20736744.362     -504114.644       -2255.213           0.148  
> 2016 10 20 00 04 00.3688020  0  1                     
G06  20736786.245     -504338.704       -2253.247           0.141  
> 2016 10 20 00 04 00.4688020  0  1                     
G06  20736853.834     -504562.825       -2249.092           0.142  
> 2016 10 20 00 04 00.5688020  0  1                     
G06  20736909.464     -504786.988       -2256.472           0.138  
> 2016 10 20 00 04 00.6688020  0  1                     
G06  20736923.064     -505011.044       -2252.881           0.130  
> 2016 10 20 00 04 00.7688020  0  1                     
G06  20736969.431     -505235.123       -2254.506           0.135  
> 2016 10 20 00 04 00.8688020  0  1                     
G06  20737076.441     -505459.199       -2255.634           0.134  
> 2016 10 20 00 04 00.9688020  0  1                     
G06  20737099.806     -505683.254       -2254.495           0.131  
> 2016 10 20 00 04 01.0688020  0  1                     
G06  20737202.204     -505907.429       -2253.744           0.142  
> 2016 10 20 00 04 01.1688020  0  1                     
G06  20737241.748     -506131.451       -2252.878           0.139  
> 2016 10 20 00 04 01.2688020  0  1                     
G06  20737324.759     -506355.566       -2251.623           0.145  
> 2016 10 20 00 04 01.3688020  0  1                     
G06  20737359.134     -506579.704       -2252.481           0.133  
> 2016 10 20 00 04 01.4688020  0  1                     
G06  20737377.882     -506803.861       -2255.203           0.132  
> 2016 10 20 00 04 01.5688020  0  1                     
G06  20737474.922     -507027.914       -2253.345           0.134  
> 2016 10 20 00 04 01.6688020  0  1                     
G06  20737511.492     -507252.004       -2250.698           0.131  
> 2016 10 20 00 04 01.7688020  0  1                     
G06  20737568.802     -507476.091       -2255.860           0.135  
> 2016 10 20 00 04 01.8688020  0  1                     
G06  20737655.252     -507700.108       -2262.692           0.134  
> 2016 10 20 00 04 01.9688020  0  1                     
G06  20737712.043     -507924.138       -2257.678           0.141  
> 2016 10 20 00 04 02.0688020  0  1                     
G06  20737777.426     -508148.046       -2254.668           0.140  
> 2016 10 20 00 04 02.1688020  0  1                     
G06  20737809.640     -508372.100       -2253.006           0.138  
> 2016 10 20 00 04 02.2688020  0  1                     
G06  20737859.727     -508596.070       -2253.008           0.139  
> 2016 10 20 00 04 02.3688020  0  1                     
G06  20737929.164     -508820.049       -2255.122           0.136  
> 2016 10 20 00 04 02.4688020  0  1                     
G06  20737950.948     -509044.136       -2253.645           0.132  
> 2016 10 20 00 04 02.5688020  0  1                     
G06  20738006.022     -509268.231       -2256.164           0.138  
> 2016 10 20 00 04 02.6688020  0  1                     
G06  20738096.872     -509492.300       -2254.589           0.137  
> 2016 10 20 00 04 02.7688020  0  1                     
G06  20738146.270     -509716.353       -2255.936           0.139  
> 2016 10 20 00 04 02.8688020  0  1                     
G06  20738237.969     -509940.515       -2259.324           0.145  
> 2016 10 20 00 04 02.9688020  0  1                     
G06  20738267.679     -510164.786       -2263.909           0.138  
> 2016 10 20 00 04 03.0688020  0  1                     
G06  20738357.590     -510388.903       -2258.674           0.138  
> 2016 10 20 00 04 03.1688020  0  1                     
G06  20738390.984     -510613.019       -2254.503           0.135  
> 2016 10 20 00 04 03.2688020  0  1                     
G06  20738409.293     -510837.087       -2250.792           0.135  
> 2016 10 20 00 04 03.3688020  0  1                     
G06  20738499.074     -511061.259       -2254.510           0.139  
> 2016 10 20 00 04 03.4688020  0  1                     
G06  20738548.518     -511285.388       -2255.597           0.130  
> 2016 10 20 00 04 03.5688020  0  1                     
G06  20738629.439     -511509.515       -2255.601           0.138  
> 2016 10 20 00 04 03.6688020  0  1                     
G06  20738689.503     -511733.506       -2254.002           0.141  
> 2016 10 20 00 04 03.7688020  0  1                     
G06  20738738.682     -511957.571       -2253.935           0.143  
> 2016 10 20 00 04 03.8688020  0  1                     
G06  20738818.408     -512181.742       -2257.491           0.141  
> 2016 10 20 00 04 03.9688020  0  1                     
G06  20738832.498     -512405.918       -2255.901           0.141  
> 2016 10 20 00 04 04.0688020  0  1                     
G06  20738892.479     -512630.072       -2256.613           0.137  
> 2016 10 20 00 04 04.1688020  0  1                     
G06  20738952.079     -512854.211       -2255.530           0.133  
> 2016 10 20 00 04 04.2688020  0  1                     
G06  20738985.414     -513078.285       -2254.125           0.132  
> 2016 10 20 00 04 04.3688020  0  1                     
G06  20739089.460     -513302.431       -2255.185           0.138  
> 2016 10 20 00 04 04.4688020  0  1                     
G06  20739143.205     -513526.579       -2255.604           0.136  
> 2016 10 20 00 04 04.5688020  0  1                     
G06  20739231.129     -513750.647       -2258.058           0.144  
> 2016 10 20 00 04 04.6688020  0  1                     
G06  20739270.504     -513974.730       -2255.658           0.142  
> 2016 10 20 00 04 04.7688020  0  1                     
G06  20739299.263     -514198.791       -2250.622           0.142  
> 2016 10 20 00 04 04.8688020  0  1                     
G06  20739387.812     -514422.850       -2252.130           0.140  
> 2016 10 20 00 04 04.9688020  0  1                     
G06  20739412.553     -514647.053       -2262.105           0.130  
> 2016 10 20 00 04 05.0688020  0  1                     
G06  20739430.879     -514871.165       -2255.968           0.134  
> 2016 10 20 00 04 05.1688020  0  1                     
G06  20739532.662     -515095.258       -2254.367           0.141  
> 2016 10 20 00 04 05.2688020  0  1                     
G06  20739578.182     -515319.451       -2254.108           0.134  
> 2016 10 20 00 04 05.3688020  0  1                     
G06  20739681.300     -515543.509       -2253.563           0.143  
> 2016 10 20 00 04 05.4688020  0  1                     
G06  20739712.001     -515767.611       -2253.285           0.139  
> 2016 10 20 00 04 05.5688020  0  1                     
G06  20739784.114     -515991.810       -2255.881           0.144  
> 2016 10 20 00 04 05.6688020  0  1                     
G06  20739830.366     -516215.889       -2256.787           0.134  
> 2016 10 20 00 04 05.7688020  0  1                     
G06  20739851.935     -516440.025       -2258.483           0.136  
> 2016 10 20 00 04 05.8688020  0  1                     
G06  20739918.951     -516664.196       -2257.003           0.138  
> 2016 10 20 00 04 05.9688020  0  1                     
G06  20739990.946     -516888.453       -2267.094           0.134  
> 2016 10 20 00 04 06.0688020  0  1                     
G06  20740001.514     -517112.552       -2254.634           0.137  
> 2016 10 20 00 04 06.1688020  0  1                     
G06  20739988.662     -517334.351       -2197.798           0.065  
> 2016 10 20 00 04 06.2688020  0  1                     
G06  20739952.737     -517556.504       -2189.384           0.079  
> 2016 10 20 00 04 06.3688020  0  1                     
G06  20739951.968     -517778.347       -2224.302           0.128  
> 2016 10 20 00 04 06.4688020  0  1                     
G06  20739960.967     -517999.918       -2221.618           0.134  
> 2016 10 20 00 04 06.5688020  0  1                     
G06  20740043.573     -518221.946       -2237.734           0.117  
> 2016 10 20 00 04 06.6688020  0  1                     
G06  20740138.667     -518441.160       -2202.770           0.095  
> 2016 10 20 00 04 06.7688020  0  1                     
G06  20740166.086     -518660.097       -2175.627           0.114  
> 2016 10 20 00 04 06.8688020  0  1                     
G06  20740221.928     -518877.278       -2195.069           0.093  
> 2016 10 20 00 04 06.9688020  0  1                     
G06  20740276.133     -519096.097       -2209.454           0.105  
> 2016 10 20 00 04 07.0688020  0  1                     
G06  20740376.338     -519316.646       -2188.596           0.104  
> 2016 10 20 00 04 07.1688020  0  1                     
G06  20740424.885     -519538.382       -2209.842           0.124  
> 2016 10 20 00 04 07.2688020  0  1                     
G06  20740433.541     -519760.267       -2214.356           0.134  
> 2016 10 20 00 04 07.3688020  0  1                     
G06  20740490.322     -519981.845       -2211.632           0.138  
> 2016 10 20 00 04 07.4688020  0  1                     
G06  20740578.468     -520200.945       -2205.733           0.093  
> 2016 10 20 00 04 07.5688020  0  1                     
G06  20740654.840     -520421.806       -2182.888           0.100  
> 2016 10 20 00 04 07.6688020  0  1                     
G06  20740690.785     -520642.946       -2223.268           0.120  
> 2016 10 20 00 04 07.7688020  0  1                     
G06  20740720.291     -520864.133       -2232.626           0.130  
> 2016 10 20 00 04 07.8688020  0  1                     
G06  20740817.740     -521085.542       -2215.777           0.140  
> 2016 10 20 00 04 07.9688020  0  1                     
G06  20740877.842     -521309.241       -2216.428           0.119  
> 2016 10 20 00 04 08.0688020  0  1                     
G06  20740951.253     -521533.569       -2231.807           0.129  
> 2016 10 20 00 04 08.1688020  0  1                     
G06  20741004.736     -521758.339       -2271.728           0.137  
> 2016 10 20 00 04 08.2688020  0  1                     
G06  20741062.527     -521981.676       -2211.752           0.118  
> 2016 10 20 00 04 08.3688020  0  1                     
G06  20741148.805     -522203.190       -2216.937           0.135  
> 2016 10 20 00 04 08.4688020  0  1                     
G06  20741151.763     -522426.320       -2227.248           0.120  
> 2016 10 20 00 04 08.5688020  0  1                     
G06  20741184.941     -522651.805       -2273.326           0.116  
> 2016 10 20 00 04 08.6688020  0  1                     
G06  20741269.669     -522878.367       -2252.102           0.146  
> 2016 10 20 00 04 08.7688020  0  1                     
G06  20741337.608     -523105.162       -2255.092           0.144  
> 2016 10 20 00 04 08.8688020  0  1                     
G06  20741426.362     -523332.081       -2296.619           0.133  
> 2016 10 20 00 04 08.9688020  0  1                     
G06  20741436.969     -523556.622       -2239.266           0.128  
> 2016 10 20 00 04 09.0688020  0  1                     
G06  20741510.741     -523780.566       -2237.021           0.121  
> 2016 10 20 00 04 09.1688020  0  1                     
G06  20741610.037     -524006.485       -2276.185           0.129  
> 2016 10 20 00 04 09.2688020  0  1                     
G06  20741669.291     -524233.311       -2296.159           0.135  
> 2016 10 20 00 04 09.3688020  0  1                     
G06  20741695.468     -524458.785       -2268.166           0.133  
> 2016 10 20 00 04 09.4688020  0  1                     
G06  20741732.336     -524685.354       -2257.341           0.144  
> 2016 10 20 00 04 09.5688020  0  1                     
G06  20741801.627     -524912.306       -2286.386           0.142  
> 2016 10 20 00 04 09.6688020  0  1                     
G06  20741873.975     -525138.786       -2257.364           0.133  
> 2016 10 20 00 04 09.7688020  0  1                     
G06  20741887.572     -525364.451       -2276.078           0.120  
> 2016 10 20 00 04 09.8688020  0  1                     
G06  20741919.283     -525591.199       -2260.749           0.147  
> 2016 10 20 00 04 09.9688020  0  1                     
G06  20742045.980     -525817.850       -2262.334           0.154  
> 2016 10 20 00 04 10.0688020  0  1                     
G06  20742133.956     -526044.610       -2271.008           0.149  
> 2016 10 20 00 04 10.1688020  0  1                     
G06  20742160.442     -526271.135       -2272.732           0.150  
> 2016 10 20 00 04 10.2688020  0  1                     
G06  20742172.693     -526496.385       -2245.196           0.135  
> 2016 10 20 00 04 10.3688020  0  1                     
G06  20742234.855     -526720.125       -2227.193           0.132  
> 2016 10 20 00 04 10.4688020  0  1                     
G06  20742330.495     -526944.458       -2240.758           0.125  
> 2016 10 20 00 04 10.5688020  0  1                     
G06  20742391.238     -527168.765       -2247.879           0.124  
> 2016 10 20 00 04 10.6688020  0  1                     
G06  20742443.971     -527394.559       -2262.355           0.142  
> 2016 10 20 00 04 10.7688020  0  1                     
G06  20742481.549     -527621.280       -2254.436           0.135  
> 2016 10 20 00 04 10.8688020  0  1                     
G06  20742587.179     -527848.052       -2266.562           0.133  
> 2016 10 20 00 04 10.9688020  0  1                     
G06  20742632.932     -528075.037       -2291.792           0.144  
> 2016 10 20 00 04 11.0688020  0  1                     
G06  20742624.905     -528302.043       -2299.813           0.128  
> 2016 10 20 00 04 11.1688020  0  1                     
G06  20742695.980     -528531.198       -2273.892           0.133  
> 2016 10 20 00 04 11.2688020  0  1                     
G06  20742777.207     -528760.684       -2303.754           0.132  
> 2016 10 20 00 04 11.3688020  0  1                     
G06  20742858.806     -528989.006       -2292.467           0.125  
> 2016 10 20 00 04 11.4688020  0  1                     
G06  20742907.261     -529215.416       -2271.259           0.134  
> 2016 10 20 00 04 11.5688020  0  1                     
G06  20742912.718     -529442.290       -2281.619           0.146  
> 2016 10 20 00 04 11.6688020  0  1                     
G06  20743022.438     -529668.717       -2235.085           0.138  
> 2016 10 20 00 04 11.7688020  0  1                     
G06  20743099.026     -529895.277       -2269.368           0.129  
> 2016 10 20 00 04 11.8688020  0  1                     
G06  20743153.796     -530122.438       -2295.064           0.147  
> 2016 10 20 00 04 11.9688020  0  1                     
G06  20743177.892     -530349.024       -2260.295           0.146  
> 2016 10 20 00 04 12.0688020  0  1                     
G06  20743210.505     -530575.770       -2275.329           0.144  
> 2016 10 20 00 04 12.1688020  0  1                     
G06  20743307.396     -530802.625       -2274.396           0.148  
> 2016 10 20 00 04 12.2688020  0  1                     
G06  20743359.710     -531029.394       -2252.025           0.145  
> 2016 10 20 00 04 12.3688020  0  1                     
G06  20743380.493     -531256.127       -2267.799           0.139  
> 2016 10 20 00 04 12.4688020  0  1                     
G06  20743486.739     -531483.078       -2262.014           0.134  
> 2016 10 20 00 04 12.5688020  0  1                     
G06  20743547.577     -531709.869       -2272.384           0.149  
> 2016 10 20 00 04 12.6688020  0  1                     
G06  20743622.344     -531936.624       -2268.010           0.161  
> 2016 10 20 00 04 12.7688020  0  1                     
G06  20743635.109     -532163.287       -2267.540           0.156  
> 2016 10 20 00 04 12.8688020  0  1                     
G06  20743661.695     -532389.874       -2270.714           0.138  
> 2016 10 20 00 04 12.9688020  0  1                     
G06  20743759.077     -532616.481       -2255.047           0.146  
> 2016 10 20 00 04 13.0688020  0  1                     
G06  20743809.075     -532844.140       -2256.111           0.126  
> 2016 10 20 00 04 13.1688020  0  1                     
G06  20743889.905     -533072.769       -2306.751           0.125  
> 2016 10 20 00 04 13.2688020  0  1                     
G06  20743926.516     -533302.066       -2305.325           0.134  
> 2016 10 20 00 04 13.3688020  0  1                     
G06  20744014.408     -533531.409       -2304.625           0.129  
> 2016 10 20 00 04 13.4688020  0  1                     
G06  20744088.198     -533759.359       -2260.657           0.121  
> 2016 10 20 00 04 13.5688020  0  1                     
G06  20744082.393     -533985.989       -2254.978           0.147  
> 2016 10 20 00 04 13.6688020  0  1                     
G06  20744114.046     -534212.764       -2278.893           0.151  
> 2016 10 20 00 04 13.7688020  0  1                     
G06  20744205.739     -534439.533       -2259.274           0.140  
> 2016 10 20 00 04 13.8688020  0  1                     
G06  20744277.585     -534664.367       -2240.128           0.122  
> 2016 10 20 00 04 13.9688020  0  1                     
G06  20744362.792     -534888.267       -2226.410           0.133  
> 2016 10 20 00 04 14.0688020  0  1                     
G06  20744375.621     -535112.871       -2239.101           0.133  
> 2016 10 20 00 04 14.1688020  0  1                     
G06  20744441.609     -535337.098       -2253.080           0.128  
> 2016 10 20 00 04 14.2688020  0  1                     
G06  20744534.830     -535561.284       -2256.822           0.134  
> 2016 10 20 00 04 14.3688020  0  1                     
G06  20744592.404     -535785.138       -2233.791           0.137  
> 2016 10 20 00 04 14.4688020  0  1                     
G06  20744628.725     -536011.241       -2286.745           0.132  
> 2016 10 20 00 04 14.5688020  0  1                     
G06  20744654.153     -536237.753       -2269.984           0.135  
