     3.03           OBSERVATION DATA    M: Mixed            RINEX VERSION / TYPE
GNSS-SDRLIB v1.1                        20230627 092825 UTC PGM / RUN BY / DATE 
                                                            MARKER NAME         
                                                            MARKER NUMBER       
                                                            MARKER TYPE         
                                                            OBSERVER / AGENCY   
GNSS-SDRLIB         GNSS-SDRLIB         1.1                 REC # / TYPE / VERS 
                                                            ANT # / TYPE        
        0.0000        0.0000        0.0000                  APPROX POSITION XYZ 
        0.0000        0.0000        0.0000                  ANTENNA: DELTA H/E/N
G    4 C5A L5A D5A S5A                                      SYS / # / OBS TYPES 
R    4 C5A L5A D5A S5A                                      SYS / # / OBS TYPES 
E    4 C5A L5A D5A S5A                                      SYS / # / OBS TYPES 
J    4 C5A L5A D5A S5A                                      SYS / # / OBS TYPES 
S    4 C5A L5A D5A S5A                                      SYS / # / OBS TYPES 
C    4 C5A L5A D5A S5A                                      SYS / # / OBS TYPES 
I    4 C5A L5A D5A S5A                                      SYS / # / OBS TYPES 
  1970    01    01    00    00   00.0000000     GPS         TIME OF FIRST OBS   
  1970    01    01    00    00   00.0000000     GPS         TIME OF LAST OBS    
G L5A  0.00000                                              SYS / PHASE SHIFT   
R L5A  0.00000                                              SYS / PHASE SHIFT   
E L5A  0.00000                                              SYS / PHASE SHIFT   
J L5A  0.00000                                              SYS / PHASE SHIFT   
S L5A  0.00000                                              SYS / PHASE SHIFT   
C L5A  0.00000                                              SYS / PHASE SHIFT   
I L5A                                                       SYS / PHASE SHIFT   
  0                                                         GLONASS SLOT / FRQ #
 C1C    0.000 C1P    0.000 C2C    0.000 C2P    0.000        GLONASS COD/PHS/BIS 
                                                            END OF HEADER       
> 2019 05 08 04 25 48.0688020  0  1                     
I03  20626540.770        -795.590         -20.607           0.255  
> 2019 05 08 04 25 48.0688020  0  2                     
I03  20626540.770        -795.590         -20.607           0.255  
I06  22337076.013        1461.881          36.793           0.255  
> 2019 05 08 04 25 48.0688020  0  4                     
I02  20905947.919         224.055           4.125           0.255  
I03  20626540.770        -795.590         -20.607           0.255  
I04  21950118.836        -355.902         -12.160           0.255  
I06  22337076.013        1461.881          36.793           0.255  
> 2019 05 08 04 25 48.0688020  0  6                     
I02  20905947.919         224.055           4.125           0.255  
I03  20626540.770        -795.590         -20.607           0.255  
I04  21950118.836        -355.902         -12.160           0.255  
I05  23740849.065        8964.097         216.992           0.255  
I06  22337076.013        1461.881          36.793           0.255  
I07  23673411.202        -925.507         -18.944           0.255  
> 2019 05 08 04 25 48.1688020  0  6                     
I02  20905948.580         224.643           6.460           0.255  
I03  20626544.332        -797.503         -17.391           0.255  
I04  21950129.071        -356.714         -12.525           0.255  
I05  23740843.083        8986.091         221.342           0.255  
I06  22337082.837        1465.625          37.410           0.255  
I07  23673407.063        -927.186         -13.888           0.255  
> 2019 05 08 04 25 48.2688020  0  6                     
I02  20905949.885         225.184           5.135           0.255  
I03  20626536.594        -799.513         -22.819           0.255  
I04  21950120.432        -357.589         -10.506           0.255  
I05  23740836.534        9008.008         218.284           0.255  
I06  22337084.886        1469.331          37.806           0.255  
I07  23673412.440        -929.021         -20.490           0.255  
> 2019 05 08 04 25 48.3688020  0  6                     
I02  20905950.796         225.731           8.908           0.255  
I03  20626538.791        -801.477         -14.393           0.255  
I04  21950128.038        -358.532          -8.848           0.255  
I05  23740833.864        9029.920         223.455           0.255  
I06  22337082.441        1473.021          40.546           0.255  
I07  23673406.374        -930.746          -4.800           0.255  
> 2019 05 08 04 25 48.4688020  0  6                     
I02  20905950.278         226.187           3.950           0.255  
I03  20626545.155        -803.543         -25.225           0.255  
I04  21950120.688        -359.447          -6.332           0.255  
I05  23740826.497        9051.775         215.452           0.255  
I06  22337080.200        1476.629          32.064           0.255  
I07  23673410.840        -932.654         -18.212           0.255  
> 2019 05 08 04 25 48.5688020  0  6                     
I02  20905944.537         226.715           6.512           0.255  
I03  20626538.213        -805.493         -17.268           0.255  
I04  21950127.914        -360.311          -6.727           0.255  
I05  23740817.436        9073.727         220.846           0.255  
I06  22337079.954        1480.409          38.338           0.255  
I07  23673407.168        -934.428         -19.756           0.255  
> 2019 05 08 04 25 48.6688020  0  6                     
I02  20905948.550         227.286           8.950           0.255  
I03  20626544.095        -807.466         -18.911           0.255  
I04  21950122.845        -361.221          -5.612           0.255  
I05  23740815.457        9095.671         219.845           0.255  
I06  22337076.320        1484.097          33.587           0.255  
I07  23673411.518        -936.103         -18.202           0.255  
> 2019 05 08 04 25 48.7688020  0  6                     
I02  20905945.146         227.777           0.577           0.255  
I03  20626536.375        -809.430         -17.176           0.255  
I04  21950133.106        -362.061          -9.203           0.255  
I05  23740808.322        9117.589         218.295           0.255  
I06  22337073.868        1487.823          40.059           0.255  
I07  23673407.482        -937.950         -20.097           0.255  
> 2019 05 08 04 25 48.8688020  0  6                     
I02  20905949.672         228.431          11.600           0.255  
I03  20626543.066        -811.399         -16.088           0.255  
I04  21950128.802        -362.948          -7.831           0.255  
I05  23740805.478        9139.542         222.039           0.255  
I06  22337072.965        1491.542          38.273           0.255  
I07  23673408.415        -939.693         -14.569           0.255  
> 2019 05 08 04 25 48.9688020  0  6                     
I02  20905948.584         228.955           3.533           0.255  
I03  20626536.622        -813.375         -18.358           0.255  
I04  21950122.381        -363.828          -9.519           0.255  
I05  23740797.178        9161.480         217.927           0.255  
I06  22337073.261        1495.264          36.496           0.255  
I07  23673403.936        -941.525         -30.652           0.255  
> 2019 05 08 04 25 49.0688020  0  6                     
I02  20905946.488         229.504           5.597           0.255  
I03  20626544.330        -815.315         -14.468           0.255  
I04  21950119.230        -364.706         -11.995           0.255  
I05  23740792.613        9183.428         220.590           0.255  
I06  22337077.037        1498.966          38.240           0.255  
I07  23673411.947        -943.224         -20.422           0.255  
> 2019 05 08 04 25 49.1688020  0  6                     
I02  20905946.217         230.048           5.096           0.255  
I03  20626541.079        -817.298         -18.408           0.255  
I04  21950118.563        -365.562          -7.154           0.255  
I05  23740786.430        9205.317         217.823           0.255  
I06  22337074.226        1502.687          35.030           0.255  
I07  23673411.473        -945.002         -10.341           0.255  
> 2019 05 08 04 25 49.2688020  0  6                     
I02  20905947.976         230.620           8.222           0.255  
I03  20626537.878        -819.273         -16.402           0.255  
I04  21950127.825        -366.418          -4.176           0.255  
I05  23740782.424        9227.299         223.127           0.255  
I06  22337073.737        1506.395          34.169           0.255  
I07  23673410.337        -946.731         -15.095           0.255  
> 2019 05 08 04 25 49.3688020  0  6                     
I02  20905946.284         230.383         -55.104           0.255  
I03  20626547.796        -821.272         -21.654           0.255  
I04  21950122.752        -368.131        -215.805           0.255  
I05  23740776.662        9249.216         220.030           0.255  
I06  22337071.313        1510.099          38.158           0.255  
I07  23673413.053        -948.507          -9.693           0.255  
> 2019 05 08 04 25 49.4688020  0  6                     
I02  20905948.906         231.625           9.757           0.255  
I03  20626535.741        -823.315         -22.435           0.255  
I04  21950131.210        -368.237          -8.599           0.255  
I05  23740769.416        9271.091         218.988           0.255  
I06  22337066.109        1513.747          36.828           0.255  
I07  23673411.435        -950.365         -16.250           0.255  
> 2019 05 08 04 25 49.5688020  0  6                     
I02  20905949.122         232.187           8.881           0.255  
I03  20626545.452        -825.271         -18.555           0.255  
I04  21950128.142        -369.123         -12.804           0.255  
I05  23740763.622        9293.043         218.758           0.255  
I06  22337067.615        1517.495          34.080           0.255  
I07  23673408.636        -952.147         -20.279           0.255  
> 2019 05 08 04 25 49.6688020  0  6                     
I02  20905947.726         232.713           9.526           0.255  
I03  20626541.981        -827.237         -19.456           0.255  
I04  21950128.054        -370.031          -8.907           0.255  
I05  23740757.023        9314.978         221.553           0.255  
I06  22337072.333        1521.199          36.040           0.255  
I07  23673406.764        -953.897         -22.608           0.255  
> 2019 05 08 04 25 49.7688020  0  6                     
I02  20905947.919         233.320          11.659           0.255  
I03  20626537.565        -829.176         -22.603           0.255  
I04  21950123.581        -370.780          -1.984           0.255  
I05  23740754.077        9336.980         222.247           0.255  
I06  22337066.624        1524.985          39.368           0.255  
I07  23673406.471        -955.630         -15.123           0.255  
> 2019 05 08 04 25 49.8688020  0  6                     
I02  20905948.686         233.867           8.940           0.255  
I03  20626536.586        -831.126         -19.268           0.255  
I04  21950124.364        -371.665          -3.088           0.255  
I05  23740744.071        9358.919         221.859           0.255  
I06  22337064.188        1528.715          40.190           0.255  
I07  23673406.168        -957.463         -20.371           0.255  
> 2019 05 08 04 25 49.9688020  0  6                     
I02  20905947.602         234.488          11.122           0.255  
I03  20626537.121        -833.051         -17.575           0.255  
I04  21950119.026        -372.471          -6.239           0.255  
I05  23740742.829        9380.888         221.767           0.255  
I06  22337061.943        1532.455          38.297           0.255  
I07  23673406.359        -959.101         -14.047           0.255  
> 2019 05 08 04 25 50.0688020  0  6                     
I02  20905947.186         235.039           1.151           0.255  
I03  20626536.201        -835.003         -19.456           0.255  
I04  21950130.918        -373.421         -13.097           0.255  
I05  23740734.139        9402.849         219.625           0.255  
I06  22337063.207        1536.191          36.603           0.255  
I07  23673407.748        -960.826         -20.225           0.255  
> 2019 05 08 04 25 50.1688020  0  6                     
I02  20905947.286         235.657          10.244           0.255  
I03  20626536.894        -836.948         -19.693           0.255  
I04  21950122.817        -374.167          -6.734           0.255  
I05  23740726.888        9424.867         224.063           0.255  
I06  22337062.192        1539.960          37.541           0.255  
I07  23673409.281        -962.564         -12.790           0.255  
> 2019 05 08 04 25 50.2688020  0  6                     
I02  20905947.185         236.238           3.218           0.255  
I03  20626538.510        -838.876         -18.388           0.255  
I04  21950119.169        -375.013          -8.481           0.255  
I05  23740724.839        9446.817         219.715           0.255  
I06  22337065.066        1543.700          36.508           0.255  
I07  23673408.213        -964.281         -14.145           0.255  
> 2019 05 08 04 25 50.3688020  0  6                     
I02  20905947.998         236.688           5.810           0.255  
I03  20626538.865        -840.853         -16.367           0.255  
I04  21950130.068        -375.896          -1.941           0.255  
I05  23740717.548        9468.744         221.790           0.255  
I06  22337061.792        1547.415          40.628           0.255  
I07  23673408.829        -966.171         -19.208           0.255  
> 2019 05 08 04 25 50.4688020  0  6                     
I02  20905948.623         237.284           1.563           0.255  
I03  20626537.594        -842.856         -21.296           0.255  
I04  21950127.992        -376.806          -7.215           0.255  
I05  23740712.031        9490.671         216.669           0.255  
I06  22337057.662        1551.074          36.200           0.255  
I07  23673408.679        -967.892         -15.976           0.255  
> 2019 05 08 04 25 50.5688020  0  6                     
I02  20905947.241         237.889           7.282           0.255  
I03  20626539.481        -844.794         -20.980           0.255  
I04  21950121.106        -377.667          -8.251           0.255  
I05  23740711.151        9512.631         218.727           0.255  
I06  22337059.166        1554.870          40.323           0.255  
I07  23673403.596        -969.592         -15.771           0.255  
> 2019 05 08 04 25 50.6688020  0  6                     
I02  20905946.388         238.473           2.520           0.255  
I03  20626539.160        -846.654         -15.535           0.255  
I04  21950122.766        -378.413          -0.697           0.255  
I05  23740705.931        9534.651         222.732           0.255  
I06  22337059.580        1558.607          38.444           0.255  
I07  23673401.617        -971.345         -11.714           0.255  
> 2019 05 08 04 25 50.7688020  0  6                     
I02  20905944.270         239.089           7.055           0.255  
I03  20626542.873        -848.658         -20.161           0.255  
I04  21950124.723        -379.351         -14.496           0.255  
I05  23740697.612        9556.619         220.358           0.255  
I06  22337060.003        1562.383          39.004           0.255  
I07  23673403.777        -973.043         -15.782           0.255  
> 2019 05 08 04 25 50.8688020  0  6                     
I02  20905946.258         239.685          11.979           0.255  
I03  20626545.540        -850.577         -15.337           0.255  
I04  21950120.420        -380.127          -3.353           0.255  
I05  23740693.024        9578.609         227.731           0.255  
I06  22337054.056        1566.116          42.888           0.255  
I07  23673404.419        -974.786          -8.996           0.255  
> 2019 05 08 04 25 50.9688020  0  6                     
I02  20905949.942         240.266           3.393           0.255  
I03  20626546.923        -852.530         -18.795           0.255  
I04  21950130.430        -381.014         -13.219           0.255  
I05  23740689.400        9600.585         220.072           0.255  
I06  22337054.262        1569.855          38.580           0.255  
I07  23673404.460        -976.535         -15.609           0.255  
> 2019 05 08 04 25 51.0688020  0  6                     
I02  20905945.264         241.825          66.610           0.255  
I03  20626537.985        -854.437         -16.485           0.255  
I04  21950128.824        -382.132        -240.495           0.255  
I05  23740681.810        9622.583         223.316           0.255  
I06  22337056.806        1573.614          35.157           0.255  
I07  23673404.519        -978.243         -11.659           0.255  
> 2019 05 08 04 25 51.1688020  0  6                     
I02  20905945.058         241.481           1.046           0.255  
I03  20626539.043        -856.368         -17.636           0.255  
I04  21950127.163        -382.648         -10.183           0.255  
I05  23740676.118        9644.546         215.382           0.255  
I06  22337056.689        1577.383          36.274           0.255  
I07  23673402.830        -980.036         -24.622           0.255  
> 2019 05 08 04 25 51.2688020  0  6                     
I02  20905944.906         242.092           8.037           0.255  
I03  20626542.183        -858.301         -17.346           0.255  
I04  21950127.430        -383.454          -3.726           0.255  
I05  23740670.942        9666.568         224.801           0.255  
I06  22337054.562        1581.115          35.994           0.255  
I07  23673405.297        -981.739         -17.990           0.255  
> 2019 05 08 04 25 51.3688020  0  6                     
I02  20905944.765         242.677          14.082           0.255  
I03  20626537.916        -860.239         -13.309           0.255  
I04  21950125.785        -384.238           1.053           0.255  
I05  23740667.436        9688.548         225.543           0.255  
I06  22337054.777        1584.909          40.751           0.255  
I07  23673407.617        -983.471         -15.013           0.255  
> 2019 05 08 04 25 51.4688020  0  6                     
I02  20905944.352         243.229           5.085           0.255  
I03  20626542.068        -862.188         -19.242           0.255  
I04  21950124.212        -385.207         -10.322           0.255  
I05  23740661.132        9710.514         219.868           0.255  
I06  22337054.953        1588.610          36.134           0.255  
I07  23673410.174        -985.215         -15.321           0.255  
> 2019 05 08 04 25 51.5688020  0  6                     
I02  20905945.927         243.845           2.530           0.255  
I03  20626548.268        -864.111         -19.141           0.255  
I04  21950120.469        -385.938          -9.964           0.255  
I05  23740655.299        9732.527         217.618           0.255  
I06  22337049.528        1592.401          34.609           0.255  
I07  23673414.530        -986.955         -26.828           0.255  
> 2019 05 08 04 25 51.6688020  0  6                     
I02  20905946.429         244.410           1.362           0.255  
I03  20626541.488        -866.108         -16.268           0.255  
I04  21950121.370        -386.835          -9.966           0.255  
I05  23740648.161        9754.436         217.860           0.255  
I06  22337047.947        1596.085          39.149           0.255  
I07  23673403.978        -988.678         -23.605           0.255  
> 2019 05 08 04 25 51.7688020  0  6                     
I02  20905945.571         245.000           6.529           0.255  
I03  20626536.394        -868.078         -17.342           0.255  
I04  21950119.500        -387.702         -12.064           0.255  
I05  23740645.770        9776.416         219.425           0.255  
I06  22337047.443        1599.835          38.930           0.255  
I07  23673410.876        -990.424         -15.906           0.255  
> 2019 05 08 04 25 51.8688020  0  6                     
I02  20905944.304         245.496           6.320           0.255  
I03  20626540.987        -870.090         -21.464           0.255  
I04  21950133.660        -388.670         -10.008           0.255  
I05  23740636.696        9798.277         217.868           0.255  
I06  22337049.726        1603.506          40.549           0.255  
I07  23673406.581        -992.277          -9.133           0.255  
> 2019 05 08 04 25 51.9688020  0  6                     
I02  20905944.944         246.072           5.692           0.255  
I03  20626548.127        -872.041         -17.162           0.255  
I04  21950130.429        -389.539          -7.854           0.255  
I05  23740633.459        9820.272         219.393           0.255  
I06  22337047.976        1607.231          40.343           0.255  
I07  23673403.179        -994.046         -14.297           0.255  
> 2019 05 08 04 25 52.0688020  0  6                     
I02  20905944.290         246.645           7.593           0.255  
I03  20626543.877        -874.008         -18.478           0.255  
I04  21950128.141        -390.378         -13.227           0.255  
I05  23740628.863        9842.246         218.297           0.255  
I06  22337046.153        1610.946          36.475           0.255  
I07  23673402.917        -995.856         -25.559           0.255  
> 2019 05 08 04 25 52.1688020  0  6                     
I02  20905943.595         247.182           6.938           0.255  
I03  20626539.407        -875.973         -17.450           0.255  
I04  21950132.435        -391.189          -3.625           0.255  
I05  23740622.668        9864.205         222.298           0.255  
I06  22337043.905        1614.667          39.793           0.255  
I07  23673403.443        -997.591         -20.348           0.255  
> 2019 05 08 04 25 52.2688020  0  6                     
I02  20905946.967         247.726           0.522           0.255  
I03  20626547.411        -877.952         -18.632           0.255  
I04  21950132.732        -392.024          -2.392           0.255  
I05  23740616.683        9886.132         217.553           0.255  
I06  22337041.852        1618.400          -8.120           0.255  
I07  23673406.507        -999.336         -22.724           0.255  
> 2019 05 08 04 25 52.3688020  0  6                     
I02  20905943.819         248.296           9.859           0.255  
I03  20626542.709        -879.963         -19.243           0.255  
I04  21950119.234        -393.032         106.262           0.255  
I05  23740608.895        9908.045         223.829           0.255  
I06  22337043.278        1622.044          39.824           0.255  
I07  23673415.176       -1001.228         -11.447           0.255  
> 2019 05 08 04 25 52.4688020  0  6                     
I02  20905945.823         248.822           5.410           0.255  
I03  20626538.567        -881.999         -21.946           0.255  
I04  21950131.693        -393.901          -6.638           0.255  
I05  23740602.231        9929.991         222.650           0.255  
I06  22337043.094        1625.700          36.127           0.255  
I07  23673408.615       -1002.958         -18.375           0.255  
> 2019 05 08 04 25 52.5688020  0  6                     
I02  20905945.147         249.365           5.886           0.255  
I03  20626547.763        -883.976         -20.916           0.255  
I04  21950129.223        -394.785         -14.396           0.255  
I05  23740595.406        9951.890         219.374           0.255  
I06  22337040.693        1629.393          34.753           0.255  
I07  23673407.124       -1004.775         -22.613           0.255  
> 2019 05 08 04 25 52.6688020  0  6                     
I02  20905946.511         249.918           8.016           0.255  
I03  20626544.286        -885.955         -17.678           0.255  
I04  21950123.636        -395.607          -8.757           0.255  
I05  23740590.388        9973.849         223.427           0.255  
I06  22337039.512        1633.110          38.611           0.255  
I07  23673408.646       -1006.525         -19.559           0.255  
> 2019 05 08 04 25 52.7688020  0  6                     
I02  20905947.478         250.453           7.762           0.255  
I03  20626540.860        -887.962         -22.055           0.255  
I04  21950120.038        -396.522         -11.533           0.255  
I05  23740586.977        9995.766         218.610           0.255  
I06  22337039.141        1636.806          36.383           0.255  
I07  23673403.896       -1008.305         -15.151           0.255  
> 2019 05 08 04 25 52.8688020  0  6                     
I02  20905944.388         250.998           9.283           0.255  
I03  20626539.154        -889.939         -13.966           0.255  
I04  21950121.650        -397.444          -8.102           0.255  
I05  23740582.254       10017.701         223.677           0.255  
I06  22337035.594        1640.500          39.818           0.255  
I07  23673402.154       -1010.014          -4.441           0.255  
> 2019 05 08 04 25 52.9688020  0  6                     
I02  20905943.063         251.532           6.435           0.255  
I03  20626547.167        -891.880         -20.485           0.255  
I04  21950121.052        -400.068        -202.255           0.255  
I05  23740574.865       10039.694         220.947           0.255  
I06  22337037.513        1644.781         110.422           0.255  
I07  23673411.067       -1011.822         -13.178           0.255  
> 2019 05 08 04 25 53.0688020  0  6                     
I02  20905943.161         252.124           7.719           0.255  
I03  20626546.338        -893.838         -19.994           0.255  
I04  21950119.259        -399.155          -2.424           0.255  
I05  23740572.248       10061.635         221.331           0.255  
I06  22337034.717        1647.962          37.875           0.255  
I07  23673408.464       -1013.610         -15.260           0.255  
> 2019 05 08 04 25 53.1688020  0  6                     
I02  20905945.189         252.723           5.091           0.255  
I03  20626545.431        -895.782         -17.786           0.255  
I04  21950120.601        -399.967          -9.607           0.255  
I05  23740565.761       10083.625         222.109           0.255  
I06  22337034.506        1651.700          34.345           0.255  
I07  23673404.820       -1015.294         -16.577           0.255  
> 2019 05 08 04 25 53.2688020  0  6                     
I02  20905945.684         253.239           1.540           0.255  
I03  20626544.397        -897.798         -20.702           0.255  
I04  21950119.737        -400.800          -8.815           0.255  
I05  23740557.543       10105.567         218.654           0.255  
I06  22337034.828        1655.419          40.222           0.255  
I07  23673405.685       -1017.091         -12.155           0.255  
> 2019 05 08 04 25 53.3688020  0  6                     
I02  20905942.333         253.818           8.787           0.255  
I03  20626544.277        -899.747         -14.281           0.255  
I04  21950125.609        -401.722          -5.861           0.255  
I05  23740549.216       10127.519         222.492           0.255  
I06  22337035.163        1659.140          40.173           0.255  
I07  23673402.603       -1018.889         -21.151           0.255  
> 2019 05 08 04 25 53.4688020  0  6                     
I02  20905941.621         254.343           4.086           0.255  
I03  20626542.804        -901.779         -22.585           0.255  
I04  21950124.815        -402.606         -11.680           0.255  
I05  23740546.443       10149.427         213.621           0.255  
I06  22337031.096        1662.834          37.259           0.255  
I07  23673411.634       -1020.689         -18.119           0.255  
> 2019 05 08 04 25 53.5688020  0  6                     
I02  20905943.336         254.993           8.619           0.255  
I03  20626541.330        -903.690         -21.217           0.255  
I04  21950125.035        -403.434          -8.751           0.255  
I05  23740539.797       10171.466         220.135           0.255  
I06  22337029.810        1666.582          35.646           0.255  
I07  23673403.808       -1022.407         -19.710           0.255  
> 2019 05 08 04 25 53.6688020  0  6                     
I02  20905941.887         255.518           5.627           0.255  
I03  20626543.168        -905.696         -19.932           0.255  
I04  21950123.691        -404.350          -9.486           0.255  
I05  23740536.975       10193.391         216.379           0.255  
I06  22337032.795        1670.275          35.926           0.255  
I07  23673406.571       -1024.190         -24.763           0.255  
> 2019 05 08 04 25 53.7688020  0  6                     
I02  20905944.592         256.060           8.821           0.255  
I03  20626541.467        -907.628         -16.315           0.255  
I04  21950121.452        -405.180          -2.860           0.255  
I05  23740529.718       10215.388         222.530           0.255  
I06  22337028.172        1674.019          40.336           0.255  
I07  23673404.914       -1025.987         -23.494           0.255  
> 2019 05 08 04 25 53.8688020  0  6                     
I02  20905941.985         256.618           7.700           0.255  
I03  20626541.679        -909.606         -18.515           0.255  
I04  21950125.651        -406.057          -4.813           0.255  
I05  23740523.529       10237.348         222.851           0.255  
I06  22337031.708        1677.715          38.647           0.255  
I07  23673404.893       -1027.733         -18.367           0.255  
> 2019 05 08 04 25 53.9688020  0  6                     
I02  20905942.016         257.142           4.909           0.255  
I03  20626544.676        -911.538         -15.632           0.255  
I04  21950122.845        -406.901          -7.930           0.255  
I05  23740518.750       10259.329         223.253           0.255  
I06  22337027.527        1681.437          37.649           0.255  
I07  23673402.976       -1029.486         -17.677           0.255  
> 2019 05 08 04 25 54.0688020  0  6                     
I02  20905941.078         257.768           8.222           0.255  
I03  20626545.795        -913.516         -20.784           0.255  
I04  21950124.145        -407.775         -12.395           0.255  
I05  23740511.046       10281.257         217.802           0.255  
I06  22337029.182        1685.174          34.143           0.255  
I07  23673405.165       -1031.140         -10.860           0.255  
> 2019 05 08 04 25 54.1688020  0  6                     
I02  20905939.350         258.364          11.440           0.255  
I03  20626536.608        -915.479         -18.697           0.255  
I04  21950121.583        -408.584          -9.211           0.255  
I05  23740506.652       10303.268         221.180           0.255  
I06  22337026.689        1688.915          38.728           0.255  
I07  23673405.909       -1032.976         -13.785           0.255  
> 2019 05 08 04 25 54.2688020  0  6                     
I02  20905938.720         258.979          11.912           0.255  
I03  20626539.694        -917.417         -21.503           0.255  
I04  21950123.602        -409.436         -12.797           0.255  
I05  23740500.266       10325.291         221.806           0.255  
I06  22337025.692        1692.687          38.846           0.255  
I07  23673406.626       -1034.606          -8.371           0.255  
> 2019 05 08 04 25 54.3688020  0  6                     
I02  20905940.958         259.495           5.726           0.255  
I03  20626543.051        -919.417         -21.971           0.255  
I04  21950121.323        -410.259          -3.656           0.255  
I05  23740497.076       10347.199         220.477           0.255  
I06  22337025.659        1696.385          39.192           0.255  
I07  23673410.034       -1036.449          -8.474           0.255  
> 2019 05 08 04 25 54.4688020  0  6                     
I02  20905938.772         260.051           4.603           0.255  
I03  20626548.012        -921.365         -18.998           0.255  
I04  21950132.047        -411.232         -12.317           0.255  
I05  23740491.166       10369.138         215.779           0.255  
I06  22337030.225        1700.075          35.557           0.255  
I07  23673414.138       -1038.204         -10.778           0.255  
> 2019 05 08 04 25 54.5688020  0  6                     
I02  20905939.575         260.615           5.928           0.255  
I03  20626541.363        -923.310         -18.416           0.255  
I04  21950119.025        -412.060         -13.555           0.255  
I05  23740485.994       10391.145         217.889           0.255  
I06  22337026.342        1703.804          35.032           0.255  
I07  23673403.789       -1040.055         -23.481           0.255  
> 2019 05 08 04 25 54.6688020  0  6                     
I02  20905939.503         261.189          10.605           0.255  
I03  20626544.259        -925.243         -15.635           0.255  
I04  21950123.374        -412.844          -8.516           0.255  
I05  23740481.560       10413.126         220.787           0.255  
I06  22337022.530        1707.570          40.788           0.255  
I07  23673403.140       -1041.770         -14.676           0.255  
> 2019 05 08 04 25 54.7688020  0  6                     
I02  20905940.740         261.819           4.564           0.255  
I03  20626549.797        -927.216         -21.269           0.255  
I04  21950122.709        -413.684          -6.648           0.255  
I05  23740476.269       10435.129         217.564           0.255  
I06  22337020.296        1711.289          34.486           0.255  
I07  23673403.984       -1043.528         -18.377           0.255  
> 2019 05 08 04 25 54.8688020  0  6                     
I02  20905940.421         262.388           6.654           0.255  
I03  20626539.821        -929.169         -14.306           0.255  
I04  21950130.668        -414.533          -4.056           0.255  
I05  23740467.484       10457.122         226.181           0.255  
I06  22337018.747        1715.013          41.192           0.255  
I07  23673408.377       -1045.265         -10.540           0.255  
> 2019 05 08 04 25 54.9688020  0  6                     
I02  20905943.753         262.991           4.552           0.255  
I03  20626543.129        -931.093         -18.868           0.255  
I04  21950129.553        -415.329          -1.770           0.255  
I05  23740461.549       10479.098         218.763           0.255  
I06  22337015.297        1718.754          35.972           0.255  
I07  23673414.891       -1046.976         -13.055           0.255  
> 2019 05 08 04 25 55.0688020  0  6                     
I02  20905941.274         263.553           2.540           0.255  
I03  20626548.366        -933.054         -20.210           0.255  
I04  21950122.641        -416.197          -3.225           0.255  
I05  23740458.943       10501.105         221.242           0.255  
I06  22337016.673        1722.492          36.222           0.255  
I07  23673401.995       -1048.749         -24.328           0.255  
> 2019 05 08 04 25 55.1688020  0  6                     
I02  20905942.784         264.187           5.136           0.255  
I03  20626539.412        -934.940         -16.387           0.255  
I04  21950124.583        -417.043          -6.742           0.255  
I05  23740451.031       10523.130         220.824           0.255  
I06  22337016.609        1726.283          37.630           0.255  
I07  23673408.105       -1050.428         -16.012           0.255  
> 2019 05 08 04 25 55.2688020  0  6                     
I02  20905941.613         264.773           3.018           0.255  
I03  20626547.833        -936.942         -22.186           0.255  
I04  21950125.980        -417.885          -6.241           0.255  
I05  23740444.671       10545.077         217.992           0.255  
I06  22337015.802        1729.997          33.636           0.255  
I07  23673414.678       -1052.186         -12.394           0.255  
> 2019 05 08 04 25 55.3688020  0  6                     
I02  20905939.120         265.317           7.971           0.255  
I03  20626540.721        -938.928         -18.831           0.255  
I04  21950132.979        -418.748          -3.520           0.255  
I05  23740437.185       10567.023         222.432           0.255  
I06  22337013.240        1733.697          42.320           0.255  
I07  23673406.176       -1053.990          -6.856           0.255  
> 2019 05 08 04 25 55.4688020  0  6                     
I02  20905943.497         265.803           3.983           0.255  
I03  20626547.394        -940.975         -23.742           0.255  
I04  21950119.239        -419.721         -12.908           0.255  
I05  23740434.761       10588.933         219.192           0.255  
I06  22337001.213        1737.312          31.395           0.255  
I07  23673408.187       -1055.910         -20.266           0.255  
> 2019 05 08 04 25 55.5688020  0  6                     
I02  20905942.269         266.330           6.072           0.255  
I03  20626541.918        -942.978         -18.528           0.255  
I04  21950132.455        -420.575          -8.331           0.255  
I05  23740430.403       10610.852         221.694           0.255  
I06  22337009.072        1741.016          36.092           0.255  
I07  23673413.820       -1057.649         -20.251           0.255  
> 2019 05 08 04 25 55.6688020  0  6                     
I02  20905938.064         266.822           2.642           0.255  
I03  20626550.240        -944.951         -19.342           0.255  
I04  21950122.091        -421.532         -13.659           0.255  
I05  23740423.397       10632.809         220.463           0.255  
I06  22337002.364        1744.733          38.263           0.255  
I07  23673407.813       -1059.424         -11.183           0.255  
> 2019 05 08 04 25 55.7688020  0  6                     
I02  20905939.477         267.442           2.745           0.255  
I03  20626543.573        -946.848         -15.913           0.255  
I04  21950125.863        -422.258          -5.916           0.255  
I05  23740417.872       10654.838         222.870           0.255  
I06  22337008.272        1748.478          38.262           0.255  
I07  23673403.996       -1061.183         -17.188           0.255  
> 2019 05 08 04 25 55.8688020  0  6                     
I02  20905941.017         268.097          10.182           0.255  
I03  20626537.862        -948.802         -15.997           0.255  
I04  21950129.759        -423.142          -8.668           0.255  
I05  23740413.592       10676.869         226.329           0.255  
I06  22337000.155        1751.285         -46.253           0.255  
I07  23673405.507       -1062.931         -15.007           0.255  
> 2019 05 08 04 25 55.9688020  0  6                     
I02  20905939.201         268.721           7.102           0.255  
I03  20626548.009        -950.711         -18.453           0.255  
I04  21950120.097        -423.906          -4.055           0.255  
I05  23740408.300       10698.907         227.052           0.255  
I06  22337007.110        1756.015          40.447           0.255  
I07  23673412.580       -1064.602         -22.179           0.255  
> 2019 05 08 04 25 56.0688020  0  6                     
I02  20905937.848         269.323           3.756           0.255  
I03  20626542.922        -952.596         -18.565           0.255  
I04  21950121.635        -424.718         -10.025           0.255  
I05  23740402.543       10720.932         222.020           0.255  
I06  22337002.206        1759.818          40.951           0.255  
I07  23673405.897       -1066.294         -21.284           0.255  
> 2019 05 08 04 25 56.1688020  0  6                     
I02  20905939.646         269.996           6.820           0.255  
I03  20626538.159        -954.489         -20.071           0.255  
I04  21950126.222        -425.454          -1.706           0.255  
I05  23740396.390       10742.985         221.179           0.255  
I06  22337004.423        1763.582          35.590           0.255  
I07  23673407.861       -1067.955         -15.197           0.255  
> 2019 05 08 04 25 56.2688020  0  6                     
I02  20905940.011         270.677          13.633           0.255  
I03  20626546.927        -956.367         -18.821           0.255  
I04  21950130.156        -426.308          -9.509           0.255  
I05  23740390.871       10765.045         221.958           0.255  
I06  22337004.587        1767.406          39.610           0.255  
I07  23673411.656       -1069.630          -9.324           0.255  
> 2019 05 08 04 25 56.3688020  0  6                     
I02  20905940.721         271.198          14.320           0.255  
I03  20626543.866        -958.359         -20.825           0.255  
I04  21950119.649        -427.168         -12.061           0.255  
I05  23740384.437       10787.009         224.068           0.255  
I06  22337003.383        1771.121          39.848           0.255  
I07  23673404.482       -1071.464          -9.743           0.255  
> 2019 05 08 04 25 56.4688020  0  6                     
I02  20905938.961         271.670           6.012           0.255  
I03  20626540.889        -960.358         -20.064           0.255  
I04  21950127.914        -428.036         -13.777           0.255  
I05  23740378.904       10808.943         220.064           0.255  
I06  22337000.365        1774.805          38.667           0.255  
I07  23673407.952       -1073.199         -18.032           0.255  
> 2019 05 08 04 25 56.5688020  0  6                     
I02  20905936.922         272.299           7.201           0.255  
I03  20626549.253        -962.308         -21.331           0.255  
I04  21950118.939        -428.848         -13.187           0.255  
I05  23740374.122       10830.996         222.045           0.255  
I06  22337001.333        1778.553          37.679           0.255  
I07  23673402.304       -1074.851          -6.410           0.255  
> 2019 05 08 04 25 56.6688020  0  6                     
I02  20905938.272         272.819           8.278           0.255  
I03  20626545.402        -964.296         -20.209           0.255  
I04  21950121.344        -429.700          -6.089           0.255  
I05  23740368.855       10852.913         219.185           0.255  
I06  22337005.951        1782.243          37.925           0.255  
I07  23673408.659       -1076.724         -14.422           0.255  
> 2019 05 08 04 25 56.7688020  0  6                     
I02  20905940.791         273.425           5.739           0.255  
I03  20626542.938        -966.208         -19.692           0.255  
I04  21950124.642        -430.479          -2.808           0.255  
I05  23740360.798       10874.935         220.056           0.255  
I06  22337001.817        1785.993          37.327           0.255  
I07  23673415.759       -1078.431          -4.576           0.255  
> 2019 05 08 04 25 56.8688020  0  6                     
I02  20905940.135         273.946           3.147           0.255  
I03  20626541.376        -968.230         -20.313           0.255  
I04  21950135.439        -431.455          -4.276           0.255  
I05  23740356.059       10896.858         218.835           0.255  
I06  22337000.815        1789.684          39.242           0.255  
I07  23673409.170       -1080.253         -16.346           0.255  
> 2019 05 08 04 25 56.9688020  0  6                     
I02  20906013.561         274.542           5.101           0.255  
I03  20626625.870        -970.150         -15.640           0.255  
I04  21950196.993        -432.247          -0.611           0.255  
I05  23740427.922       10918.865         221.949           0.255  
I06  22337072.671        1793.410          37.315           0.255  
I07  23673478.746       -1082.031         -19.354           0.255  
> 2019 05 08 04 25 57.0688020  0  6                     
I02  20906014.297         275.122           1.120           0.255  
I03  20626621.983        -972.117         -19.973           0.255  
I04  21950202.071        -433.097          -6.240           0.255  
I05  23740418.893       10940.854         218.765           0.255  
I06  22337070.110        1797.150          35.721           0.255  
I07  23673490.050       -1083.810         -15.553           0.255  
> 2019 05 08 04 25 57.1688020  0  6                     
I02  20906012.145         275.766           6.497           0.255  
I03  20626620.973        -974.038         -16.298           0.255  
I04  21950193.111        -433.907          -5.445           0.255  
I05  23740413.953       10962.888         221.406           0.255  
I06  22337068.415        1800.908          38.007           0.255  
I07  23673483.441       -1085.484         -16.350           0.255  
> 2019 05 08 04 25 57.2688020  0  6                     
I02  20906012.893         276.387           8.936           0.255  
I03  20626619.956        -975.907         -14.549           0.255  
I04  21950197.362        -434.616          -5.120           0.255  
I05  23740410.739       10984.984         226.031           0.255  
I06  22337070.957        1804.726          41.771           0.255  
I07  23673479.438       -1087.182         -15.464           0.255  
> 2019 05 08 04 25 57.3688020  0  6                     
I02  20906010.470         277.042           8.421           0.255  
I03  20626616.828        -977.873         -15.972           0.255  
I04  21950205.787        -435.491           3.509           0.255  
I05  23740408.064       11006.973         225.516           0.255  
I06  22337070.554        1808.480          40.961           0.255  
I07  23673483.340       -1088.939         -18.682           0.255  
> 2019 05 08 04 25 57.4688020  0  6                     
I02  20906009.137         277.610           5.816           0.255  
I03  20626616.692        -979.837         -19.465           0.255  
I04  21950199.919        -436.367          -5.352           0.255  
I05  23740398.147       11028.958         221.606           0.255  
I06  22337071.740        1812.214          37.201           0.255  
I07  23673479.849       -1090.671         -11.163           0.255  
> 2019 05 08 04 25 57.5688020  0  6                     
I02  20906009.046         278.244           5.665           0.255  
I03  20626615.574        -981.728         -22.086           0.255  
I04  21950197.447        -437.216         -10.642           0.255  
I05  23740392.378       11051.024         223.361           0.255  
I06  22337072.758        1815.992          40.972           0.255  
I07  23673488.916       -1092.350          -5.783           0.255  
> 2019 05 08 04 25 57.6688020  0  6                     
I02  20906012.194         278.917          10.758           0.255  
I03  20626614.461        -983.631         -16.887           0.255  
I04  21950198.310        -437.993          -7.448           0.255  
I05  23740385.278       11073.081         224.835           0.255  
I06  22337072.231        1819.774          40.306           0.255  
I07  23673483.653       -1094.093         -12.045           0.255  
> 2019 05 08 04 25 57.7688020  0  6                     
I02  20905936.227         279.558           3.864           0.255  
I03  20626540.332        -985.511         -14.419           0.255  
I04  21950132.439        -438.773          -8.999           0.255  
I05  23740303.895       11095.144         226.927           0.255  
I06  22336993.419        1823.580          40.921           0.255  
I07  23673405.846       -1095.778         -22.309           0.255  
> 2019 05 08 04 25 57.8688020  0  6                     
I02  20905938.608         281.735         137.009           0.255  
I03  20626540.469        -987.466         -13.968           0.255  
I04  21950120.102        -439.809          85.877           0.255  
I05  23740300.059       11117.114         225.614           0.255  
I06  22336988.374        1827.288          40.241           0.255  
I07  23673404.280       -1097.507         -11.835           0.255  
> 2019 05 08 04 25 57.9688020  0  6                     
I02  20905937.278         280.697           4.221           0.255  
I03  20626539.062        -989.470         -21.115           0.255  
I04  21950124.932        -440.441          -8.750           0.255  
I05  23740294.018       11139.063         221.072           0.255  
I06  22336991.858        1830.998          36.767           0.255  
I07  23673403.295       -1099.315         -16.629           0.255  
> 2019 05 08 04 25 58.0688020  0  6                     
I02  20905936.221         281.303           5.528           0.255  
I03  20626540.394        -991.383         -17.175           0.255  
I04  21950133.120        -441.265          -9.521           0.255  
I05  23740290.282       11161.101         224.112           0.255  
I06  22336991.662        1834.733          39.650           0.255  
I07  23673403.326       -1101.052         -20.475           0.255  
> 2019 05 08 04 25 58.1688020  0  6                     
I02  20905936.523         281.859           2.109           0.255  
I03  20626542.877        -993.361         -17.655           0.255  
I04  21950124.936        -442.183          -8.015           0.255  
I05  23740285.048       11183.060         219.766           0.255  
I06  22336989.819        1838.439          35.677           0.255  
I07  23673416.449       -1102.804         -18.560           0.255  
> 2019 05 08 04 25 58.2688020  0  6                     
I02  20905936.408         282.466           4.275           0.255  
I03  20626542.074        -995.366         -18.385           0.255  
I04  21950118.929        -443.023          -4.258           0.255  
I05  23740277.926       11205.075         223.522           0.255  
I06  22336987.829        1842.203          39.944           0.255  
I07  23673411.994       -1104.502         -20.066           0.255  
> 2019 05 08 04 25 58.3688020  0  6                     
I02  20905934.985         282.950           3.459           0.255  
I03  20626547.127        -997.387         -21.702           0.255  
I04  21950125.242        -443.948          -8.172           0.255  
I05  23740273.602       11226.978         220.518           0.255  
I06  22336981.546        1845.808          36.705           0.255  
I07  23673410.165       -1106.397          -9.964           0.255  
> 2019 05 08 04 25 58.4688020  0  6                     
I02  20905940.813         283.426           3.384           0.255  
I03  20626551.765        -999.460         -19.014           0.255  
I04  21950127.575        -444.845          -3.551           0.255  
I05  23740269.626       11248.835         219.563           0.255  
I06  22336981.056        1849.450          37.329           0.255  
I07  23673406.740       -1108.248          -9.816           0.255  
> 2019 05 08 04 25 58.5688020  0  6                     
I02  20905939.192         283.906           0.177           0.255  
I03  20626543.545       -1001.468         -21.825           0.255  
I04  21950132.406        -445.822         -10.520           0.255  
I05  23740260.186       11270.764         217.319           0.255  
I06  22336981.541        1853.100          35.721           0.255  
I07  23673408.597       -1110.094         -16.772           0.255  
> 2019 05 08 04 25 58.6688020  0  6                     
I02  20905937.533         284.400           5.265           0.255  
I03  20626547.055       -1003.495         -17.032           0.255  
I04  21950124.317        -446.738          -3.781           0.255  
I05  23740253.685       11292.699         220.047           0.255  
I06  22336979.187        1856.746          39.089           0.255  
I07  23673408.032       -1111.940         -16.894           0.255  
> 2019 05 08 04 25 58.7688020  0  6                     
I02  20905937.266         285.011          12.242           0.255  
I03  20626537.122       -1005.437         -13.409           0.255  
I04  21950133.193        -447.581          -1.681           0.255  
I05  23740248.875       11314.709         225.200           0.255  
I06  22336982.376        1860.499          42.127           0.255  
I07  23673406.817       -1113.698          -9.462           0.255  
> 2019 05 08 04 25 58.8688020  0  6                     
I02  20905936.270         285.568          14.019           0.255  
I03  20626541.067       -1007.427         -17.221           0.255  
I04  21950121.795        -448.472          -3.576           0.255  
I05  23740240.784       11336.694         224.501           0.255  
I06  22336985.278        1864.430         109.513           0.255  
I07  23673407.522       -1115.392         -12.545           0.255  
> 2019 05 08 04 25 58.9688020  0  6                     
I02  20905935.158         286.164           7.790           0.255  
I03  20626544.397       -1009.382         -20.252           0.255  
I04  21950128.766        -449.257          -2.614           0.255  
I05  23740236.016       11358.688         219.161           0.255  
I06  22336984.428        1867.958          38.808           0.255  
I07  23673406.108       -1117.224         -20.065           0.255  
> 2019 05 08 04 25 59.0688020  0  6                     
I02  20905934.921         286.737           2.249           0.255  
I03  20626545.104       -1011.262         -15.569           0.255  
I04  21950122.435        -450.010          -3.094           0.255  
I05  23740229.876       11380.766         221.495           0.255  
I06  22336983.147        1871.739          38.541           0.255  
I07  23673404.964       -1119.005         -27.007           0.255  
> 2019 05 08 04 25 59.1688020  0  6                     
I02  20905935.910         287.364           4.377           0.255  
I03  20626551.943       -1013.187         -16.790           0.255  
I04  21950134.192        -450.863         -10.233           0.255  
I05  23740225.549       11402.785         221.279           0.255  
I06  22336979.897        1875.507          39.676           0.255  
I07  23673417.983       -1120.624         -19.487           0.255  
> 2019 05 08 04 25 59.2688020  0  6                     
I02  20905934.155         287.959           3.301           0.255  
I03  20626542.709       -1015.107         -17.552           0.255  
I04  21950124.059        -451.695         -10.245           0.255  
I05  23740220.481       11424.811         221.825           0.255  
I06  22336978.753        1879.253          38.770           0.255  
I07  23673404.641       -1122.397         -19.268           0.255  
> 2019 05 08 04 25 59.3688020  0  6                     
I02  20905934.203         288.480           8.757           0.255  
I03  20626546.551       -1017.100         -15.697           0.255  
I04  21950133.896        -452.542          -4.405           0.255  
I05  23740213.995       11446.768         223.347           0.255  
I06  22336977.831        1882.944          40.509           0.255  
I07  23673416.881       -1124.154         -21.448           0.255  
> 2019 05 08 04 25 59.4688020  0  6                     
I02  20905933.475         289.013           8.035           0.255  
I03  20626538.123       -1019.137         -21.262           0.255  
I04  21950128.343        -453.475         -10.505           0.255  
I05  23740207.530       11468.696         219.956           0.255  
I06  22336979.401        1886.601          35.416           0.255  
I07  23673404.766       -1125.989         -20.309           0.255  
> 2019 05 08 04 25 59.5688020  0  6                     
I02  20905934.275         289.496           1.620           0.255  
I03  20626541.922       -1021.181         -20.993           0.255  
I04  21950123.518        -454.337          -7.675           0.255  
I05  23740203.244       11490.619         215.442           0.255  
I06  22336978.936        1890.236          32.418           0.255  
I07  23673407.248       -1127.917         -27.397           0.255  
> 2019 05 08 04 25 59.6688020  0  6                     
I02  20905933.084         290.055          12.770           0.255  
I03  20626548.819       -1023.205         -18.368           0.255  
I04  21950119.852        -455.292         -11.847           0.255  
I05  23740196.287       11512.587         224.197           0.255  
I06  22336974.838        1893.951          39.656           0.255  
I07  23673412.289       -1129.655         -20.406           0.255  
> 2019 05 08 04 25 59.7688020  0  6                     
I02  20905934.003         290.564           9.108           0.255  
I03  20626539.994       -1025.251         -22.695           0.255  
I04  21950127.154        -456.220         -12.354           0.255  
I05  23740194.414       11534.495         216.238           0.255  
I06  22336978.085        1897.600          36.237           0.255  
I07  23673414.675       -1131.359         -19.075           0.255  
> 2019 05 08 04 25 59.8688020  0  6                     
I02  20905935.321         290.867          87.600           0.255  
I03  20626544.623       -1027.239         -13.826           0.255  
I04  21950134.687        -457.616        -211.120           0.255  
I05  23740187.207       11556.442         221.456           0.255  
I06  22336973.923        1901.965         203.753           0.255  
I07  23673417.089       -1133.190         -12.027           0.255  
> 2019 05 08 04 25 59.9688020  0  6                     
I02  20905933.900         291.586           7.279           0.255  
I03  20626538.972       -1029.237         -18.919           0.255  
I04  21950127.099        -458.013          -8.141           0.255  
I05  23740186.274       11578.400         217.960           0.255  
I06  22336975.698        1904.918          36.659           0.255  
I07  23673408.400       -1135.067         -23.579           0.255  
> 2019 05 08 04 26 00.0688020  0  6                     
I02  20905932.310         292.087           6.587           0.255  
I03  20626546.502       -1031.275         -16.859           0.255  
I04  21950125.844        -458.896          -3.537           0.255  
I05  23740179.535       11600.376         221.858           0.255  
I06  22336974.277        1908.582          35.291           0.255  
I07  23673406.143       -1136.884         -17.367           0.255  
> 2019 05 08 04 26 00.1688020  0  6                     
I02  20905931.968         292.594           5.438           0.255  
I03  20626537.493       -1033.253         -18.786           0.255  
I04  21950136.360        -459.751         -13.668           0.255  
I05  23740175.717       11622.332         216.628           0.255  
I06  22336976.649        1912.314          36.706           0.255  
I07  23673404.302       -1138.703         -20.029           0.255  
> 2019 05 08 04 26 00.2688020  0  6                     
I02  20905932.832         293.084           0.504           0.255  
I03  20626546.531       -1035.248         -21.374           0.255  
I04  21950128.774        -460.606          -6.506           0.255  
I05  23740167.342       11644.303         217.545           0.255  
I06  22336970.193        1915.983          35.554           0.255  
I07  23673404.644       -1140.435         -14.309           0.255  
> 2019 05 08 04 26 00.3688020  0  6                     
I02  20905934.325         293.681           7.066           0.255  
I03  20626599.401       -1037.285         -19.044           0.255  
I04  21950118.918        -461.561          -8.400           0.255  
I05  23740160.676       11666.218         219.908           0.255  
I06  22336968.517        1919.641          37.613           0.255  
I07  23673403.754       -1142.214          -8.689           0.255  
> 2019 05 08 04 26 00.4688020  0  6                     
I02  20905932.698         294.028          -3.549           0.255  
I03  20626620.625       -1039.345         -22.344           0.255  
I04  21950130.359        -462.533          -7.708           0.255  
I05  23740155.990       11688.084         213.460           0.255  
I06  22336969.629        1923.246          35.980           0.255  
I07  23673405.155       -1144.216         -27.292           0.255  
> 2019 05 08 04 26 00.5688020  0  6                     
I02  20905932.639         294.678           7.790           0.255  
I03  20626611.131       -1041.338         -16.008           0.255  
I04  21950123.990        -463.352          -4.714           0.255  
I05  23740152.122       11710.095         220.984           0.255  
I06  22336964.997        1926.948          38.629           0.255  
I07  23673405.343       -1146.012         -26.532           0.255  
> 2019 05 08 04 26 00.6688020  0  6                     
I02  20905931.521         295.174           2.086           0.255  
I03  20626619.915       -1043.335         -22.553           0.255  
I04  21950119.402        -464.276          -4.919           0.255  
I05  23740144.015       11732.064         223.212           0.255  
I06  22336961.918        1930.631          37.112           0.255  
I07  23673412.571       -1147.778         -22.351           0.255  
> 2019 05 08 04 26 00.7688020  0  6                     
I02  20905935.754         295.750           7.660           0.255  
I03  20626617.945       -1045.323         -17.820           0.255  
I04  21950127.863        -465.168          -6.813           0.255  
I05  23740136.967       11754.041         222.383           0.255  
I06  22336960.858        1934.342          40.032           0.255  
I07  23673417.291       -1149.537         -21.137           0.255  
> 2019 05 08 04 26 00.8688020  0  6                     
I02  20905933.210         296.269           4.468           0.255  
I03  20626614.031       -1047.313         -17.316           0.255  
I04  21950134.575        -466.001          -4.817           0.255  
I05  23740133.081       11776.006         221.193           0.255  
I06  22336963.747        1937.999          38.729           0.255  
I07  23673407.278       -1151.352         -12.816           0.255  
> 2019 05 08 04 26 00.9688020  0  6                     
I02  20905931.629         296.853           5.866           0.255  
I03  20626611.852       -1049.315         -18.620           0.255  
I04  21950125.874        -466.874          -5.244           0.255  
I05  23740128.446       11797.975         220.332           0.255  
I06  22336965.088        1941.698          39.313           0.255  
I07  23673416.464       -1153.077         -20.148           0.255  
> 2019 05 08 04 26 01.0688020  0  6                     
I02  20905932.591         297.446           3.150           0.255  
I03  20626617.317       -1051.265         -18.158           0.255  
I04  21950124.201        -467.746          -6.752           0.255  
I05  23740121.497       11819.975         221.001           0.255  
I06  22336964.978        1945.433          36.489           0.255  
I07  23673408.506       -1154.980         -26.566           0.255  
> 2019 05 08 04 26 01.1688020  0  6                     
I02  20905932.043         297.990           5.437           0.255  
I03  20626619.318       -1053.297         -20.208           0.255  
I04  21950123.019        -468.672         -12.096           0.255  
I05  23740116.180       11841.950         219.855           0.255  
I06  22336959.796        1949.110          37.591           0.255  
I07  23673417.399       -1156.730         -23.322           0.255  
> 2019 05 08 04 26 01.2688020  0  6                     
I02  20905931.751         298.591          11.511           0.255  
I03  20626614.638       -1055.236         -17.749           0.255  
I04  21950118.680        -469.504         -10.004           0.255  
I05  23740109.538       11863.963         220.684           0.255  
I06  22336959.210        1952.835          37.725           0.255  
I07  23673408.608       -1158.332         -11.441           0.255  
> 2019 05 08 04 26 01.3688020  0  6                     
I02  20905931.151         299.062           6.834           0.255  
I03  20626618.815       -1057.298         -20.991           0.255  
I04  21950124.365        -470.474         -14.600           0.255  
I05  23740106.835       11885.859         220.203           0.255  
I06  22336962.078        1956.473          38.196           0.255  
I07  23673410.409       -1160.286         -15.893           0.255  
> 2019 05 08 04 26 01.4688020  0  6                     
I02  20905932.583         299.593          11.000           0.255  
I03  20626613.215       -1059.353         -18.233           0.255  
I04  21950132.396        -471.348         -10.172           0.255  
I05  23740099.842       11907.805         224.158           0.255  
I06  22336959.552        1960.103          37.305           0.255  
I07  23673404.734       -1162.044         -14.496           0.255  
> 2019 05 08 04 26 01.5688020  0  6                     
I02  20905931.289         300.094           6.985           0.255  
I03  20626619.107       -1061.368         -22.894           0.255  
I04  21950126.550        -472.278         -15.321           0.255  
I05  23740096.771       11929.747         220.280           0.255  
I06  22336959.822        1963.765          34.257           0.255  
I07  23673407.983       -1163.942         -12.281           0.255  
> 2019 05 08 04 26 01.6688020  0  6                     
I02  20905930.580         300.596          11.582           0.255  
I03  20626614.177       -1063.362         -16.747           0.255  
I04  21950121.538        -473.143          -4.293           0.255  
I05  23740087.517       11951.712         222.282           0.255  
I06  22336956.214        1967.433          38.020           0.255  
I07  23673413.895       -1165.699         -10.898           0.255  
> 2019 05 08 04 26 01.7688020  0  6                     
I02  20905929.611         301.180           8.623           0.255  
I03  20626611.895       -1065.368         -23.633           0.255  
I04  21950134.799        -474.032         -13.177           0.255  
I05  23740082.631       11973.694         219.527           0.255  
I06  22336958.463        1971.140          35.760           0.255  
I07  23673406.592       -1167.479          -8.505           0.255  
> 2019 05 08 04 26 01.8688020  0  6                     
I02  20905933.106         300.764         -70.305           0.255  
I03  20626619.686       -1067.363         -15.686           0.255  
I04  21950128.096        -474.831          95.168           0.255  
I05  23740076.161       11995.640         221.903           0.255  
I06  22336951.797        1974.844          40.577           0.255  
I07  23673413.174       -1169.365         -20.114           0.255  
> 2019 05 08 04 26 01.9688020  0  6                     
I02  20905933.432         302.313          11.221           0.255  
I03  20626616.568       -1069.305         -19.730           0.255  
I04  21950120.536        -475.678          -7.234           0.255  
I05  23740072.424       12017.666         221.081           0.255  
I06  22336953.603        1978.588          38.228           0.255  
I07  23673408.173       -1171.101         -21.092           0.255  
> 2019 05 08 04 26 02.0688020  0  6                     
I02  20905930.497         302.885           1.171           0.255  
I03  20626612.104       -1071.272         -19.378           0.255  
I04  21950120.903        -476.595          -9.486           0.255  
I05  23740066.668       12039.650         217.130           0.255  
I06  22336953.367        1982.308          38.920           0.255  
I07  23673415.071       -1172.820         -15.183           0.255  
> 2019 05 08 04 26 02.1688020  0  6                     
I02  20905930.704         303.514           9.589           0.255  
I03  20626609.900       -1073.217         -20.452           0.255  
I04  21950135.682        -477.411          -5.944           0.255  
I05  23740060.033       12061.709         220.127           0.255  
I06  22336951.709        1986.043          37.187           0.255  
I07  23673410.009       -1174.615         -18.337           0.255  
> 2019 05 08 04 26 02.2688020  0  6                     
I02  20905931.971         304.081           8.888           0.255  
I03  20626620.213       -1075.197         -21.226           0.255  
I04  21950128.622        -478.266         -15.927           0.255  
I05  23740053.208       12083.701         218.932           0.255  
I06  22336948.507        1989.733          34.320           0.255  
I07  23673416.120       -1176.331         -22.173           0.255  
> 2019 05 08 04 26 02.3688020  0  6                     
I02  20905929.536         304.709           8.735           0.255  
I03  20626617.150       -1077.138         -17.476           0.255  
I04  21950128.875        -479.082         -11.867           0.255  
I05  23740048.214       12105.734         222.546           0.255  
I06  22336951.773        1993.481          38.337           0.255  
I07  23673410.383       -1178.034          -8.852           0.255  
> 2019 05 08 04 26 02.4688020  0  6                     
I02  20905928.736         305.139           0.372           0.255  
I03  20626615.042       -1079.225         -23.521           0.255  
I04  21950127.710        -480.042         -12.421           0.255  
I05  23740042.568       12127.615         216.356           0.255  
I06  22336952.375        1997.077          30.018           0.255  
I07  23673415.276       -1180.006         -27.677           0.255  
> 2019 05 08 04 26 02.5688020  0  6                     
I02  20905929.762         305.661           5.876           0.255  
I03  20626614.990       -1081.193         -17.815           0.255  
I04  21950132.610        -480.906         -13.619           0.255  
I05  23740038.618       12149.611         219.235           0.255  
I06  22336950.683        2000.798          38.081           0.255  
I07  23673407.988       -1181.821         -22.860           0.255  
> 2019 05 08 04 26 02.6688020  0  6                     
I02  20905931.305         306.207           1.985           0.255  
I03  20626616.160       -1083.207         -18.990           0.255  
I04  21950122.048        -481.749         -10.940           0.255  
I05  23740033.286       12171.600         219.048           0.255  
I06  22336948.432        2004.463          35.301           0.255  
I07  23673417.576       -1183.607         -19.684           0.255  
> 2019 05 08 04 26 02.7688020  0  6                     
I02  20905929.076         306.774           7.001           0.255  
I03  20626615.987       -1085.230         -20.060           0.255  
I04  21950123.509        -482.644          -6.207           0.255  
I05  23740028.416       12193.563         221.466           0.255  
I06  22336943.604        2008.153          37.906           0.255  
I07  23673412.021       -1185.341         -17.573           0.255  
> 2019 05 08 04 26 02.8688020  0  6                     
I02  20905930.433         307.321           7.095           0.255  
I03  20626616.860       -1087.189         -16.096           0.255  
I04  21950121.992        -483.483          -1.689           0.255  
I05  23740018.674       12215.522         220.683           0.255  
I06  22336943.740        2012.114          32.300           0.255  
I07  23673402.517       -1187.149         -10.839           0.255  
> 2019 05 08 04 26 02.9688020  0  6                     
I02  20905928.829         307.824           4.460           0.255  
I03  20626619.463       -1089.198         -21.815           0.255  
I04  21950121.660        -484.411         -10.300           0.255  
I05  23740012.386       12237.526         218.859           0.255  
I06  22336940.420        2016.076         153.871           0.255  
I07  23673410.746       -1188.946         -19.350           0.255  
> 2019 05 08 04 26 03.0688020  0  6                     
I02  20905932.841         308.496          12.219           0.255  
I03  20626612.290       -1091.152         -19.965           0.255  
I04  21950120.030        -485.238          -5.239           0.255  
I05  23740008.259       12259.569         223.119           0.255  
I06  22336943.390        2019.263          35.075           0.255  
I07  23673401.365       -1190.704         -16.445           0.255  
> 2019 05 08 04 26 03.1688020  0  6                     
I02  20905931.819         308.984           5.839           0.255  
I03  20626615.192       -1093.126         -20.625           0.255  
I04  21950124.371        -486.130         -15.830           0.255  
I05  23740001.187       12281.526         218.253           0.255  
I06  22336940.139        2022.985          36.024           0.255  
I07  23673412.247       -1192.433         -11.169           0.255  
> 2019 05 08 04 26 03.2688020  0  6                     
I02  20905929.873         309.528           1.990           0.255  
I03  20626620.741       -1095.055         -18.209           0.255  
I04  21950122.779        -486.905          -4.909           0.255  
I05  23739996.949       12303.558         220.279           0.255  
I06  22336940.000        2026.699          36.715           0.255  
I07  23673424.184       -1194.291         -15.596           0.255  
> 2019 05 08 04 26 03.3688020  0  6                     
I02  20905929.517         310.083           1.034           0.255  
I03  20626611.111       -1097.077         -17.050           0.255  
I04  21950120.204        -487.811          -2.657           0.255  
I05  23739991.148       12325.530         220.744           0.255  
I06  22336940.741        2030.369          36.724           0.255  
I07  23673481.931       -1196.075         -20.251           0.255  
> 2019 05 08 04 26 03.4688020  0  6                     
I02  20905927.772         310.636           7.010           0.255  
I03  20626614.858       -1099.141         -21.435           0.255  
I04  21950138.373        -488.774          -8.492           0.255  
I05  23739986.984       12347.481         222.581           0.255  
I06  22336939.655        2034.028          37.893           0.255  
I07  23673477.372       -1197.859         -21.450           0.255  
> 2019 05 08 04 26 03.5688020  0  6                     
I02  20905929.735         311.263           7.831           0.255  
I03  20626617.921       -1100.973         -15.872           0.255  
I04  21950136.618        -489.486         -12.114           0.255  
I05  23739980.968       12369.583         221.632           0.255  
I06  22336938.061        2037.854          38.410           0.255  
I07  23673476.638       -1199.632         -22.255           0.255  
> 2019 05 08 04 26 03.6688020  0  6                     
I02  20905927.713         311.904           9.992           0.255  
I03  20626613.126       -1102.905         -17.218           0.255  
I04  21950135.999        -490.280          -3.014           0.255  
I05  23739973.994       12391.649         224.039           0.255  
I06  22336935.929        2041.625          37.760           0.255  
I07  23673482.355       -1201.261         -13.984           0.255  
> 2019 05 08 04 26 03.7688020  0  6                     
I02  20905929.401         312.496           7.964           0.255  
I03  20626616.611       -1104.811         -17.018           0.255  
I04  21950130.720        -491.106          -8.878           0.255  
I05  23739970.341       12413.704         221.435           0.255  
I06  22336934.652        2045.401          37.968           0.255  
I07  23673479.023       -1202.977         -17.162           0.255  
> 2019 05 08 04 26 03.8688020  0  6                     
I02  20905928.187         312.628          -7.746           0.255  
I03  20626620.941       -1106.711         -15.974           0.255  
I04  21950123.809        -491.866          -4.455           0.255  
I05  23739966.112       12435.795         224.880           0.255  
I06  22336935.118        2049.165          40.258           0.255  
I07  23673483.863       -1204.722         -18.749           0.255  
> 2019 05 08 04 26 03.9688020  0  6                     
I02  20905928.482         313.749           9.684           0.255  
I03  20626616.157       -1108.603         -17.797           0.255  
I04  21950122.531        -492.193        -143.928           0.255  
I05  23739962.133       12457.873         224.203           0.255  
I06  22336925.308        2054.052         157.760           0.255  
I07  23673482.877       -1206.405         -24.103           0.255  
> 2019 05 08 04 26 04.0688020  0  6                     
I02  20905926.993         314.407           8.028           0.255  
I03  20626611.726       -1110.546         -20.084           0.255  
I04  21950118.868        -493.504         -16.715           0.255  
I05  23739953.584       12479.925         219.664           0.255  
I06  22336930.359        2056.720          34.183           0.255  
I07  23673482.703       -1208.123         -21.207           0.255  
> 2019 05 08 04 26 04.1688020  0  6                     
I02  20905927.664         314.928           3.752           0.255  
I03  20626618.274       -1112.462         -20.143           0.255  
I04  21950123.783        -494.228           0.201           0.255  
I05  23739948.343       12501.990         223.660           0.255  
I06  22336928.845        2060.457          37.166           0.255  
I07  23673484.781       -1209.873         -21.979           0.255  
> 2019 05 08 04 26 04.2688020  0  6                     
I02  20905929.707         315.580           8.444           0.255  
I03  20626613.469       -1114.376         -20.244           0.255  
I04  21950132.404        -495.007          -8.646           0.255  
I05  23739941.888       12524.049         224.023           0.255  
I06  22336932.763        2064.237          36.869           0.255  
I07  23673476.349       -1211.465          -6.442           0.255  
> 2019 05 08 04 26 04.3688020  0  6                     
I02  20905928.015         316.166           4.227           0.255  
I03  20626622.654       -1116.385         -17.233           0.255  
I04  21950128.576        -495.840          -1.354           0.255  
I05  23739938.445       12546.061         222.225           0.255  
I06  22336932.979        2067.940          37.797           0.255  
I07  23673481.004       -1213.331         -20.859           0.255  
> 2019 05 08 04 26 04.4688020  0  6                     
I02  20905926.606         316.682           2.239           0.255  
I03  20626618.157       -1118.372         -19.326           0.255  
I04  21950119.885        -496.812          -8.710           0.255  
I05  23739931.222       12568.044         224.139           0.255  
I06  22336930.417        2071.633          36.943           0.255  
I07  23673481.424       -1215.108         -15.671           0.255  
> 2019 05 08 04 26 04.5688020  0  6                     
I02  20905930.183         317.246           6.434           0.255  
I03  20626614.146       -1120.398         -24.243           0.255  
I04  21950125.003        -497.678          -9.261           0.255  
I05  23739927.614       12590.022         221.033           0.255  
I06  22336929.352        2075.322          34.609           0.255  
I07  23673484.187       -1216.941         -13.400           0.255  
> 2019 05 08 04 26 04.6688020  0  6                     
I02  20905928.365         317.787           9.306           0.255  
I03  20626612.909       -1122.317         -14.793           0.255  
I04  21950125.736        -498.094         -42.162           0.255  
I05  23739921.287       12612.038         221.770           0.255  
I06  22336927.507        2079.059          40.967           0.255  
I07  23673477.267       -1218.723         -13.054           0.255  
> 2019 05 08 04 26 04.7688020  0  6                     
I02  20905927.961         318.331           7.304           0.255  
I03  20626621.623       -1124.316         -18.564           0.255  
I04  21950123.337        -499.383         -11.632           0.255  
I05  23739914.133       12634.032         220.488           0.255  
I06  22336925.225        2082.727          37.375           0.255  
I07  23673487.807       -1220.515         -17.149           0.255  
> 2019 05 08 04 26 04.8688020  0  6                     
I02  20905929.690         318.832           4.390           0.255  
I03  20626621.256       -1126.319         -13.705           0.255  
I04  21950123.631        -500.265          -6.761           0.255  
I05  23739907.560       12656.010         225.235           0.255  
I06  22336924.093        2087.010         157.276           0.255  
I07  23673481.159       -1222.296         -12.159           0.255  
> 2019 05 08 04 26 04.9688020  0  6                     
I02  20905929.208         319.474           6.001           0.255  
I03  20626622.162       -1128.293         -19.073           0.255  
I04  21950123.220        -501.110          -4.987           0.255  
I05  23739905.545       12678.040         221.737           0.255  
I06  22336921.305        2090.141          36.452           0.255  
I07  23673477.178       -1224.060         -20.062           0.255  
> 2019 05 08 04 26 05.0688020  0  6                     
I02  20905930.779         320.034           4.379           0.255  
I03  20626621.416       -1130.229         -18.329           0.255  
I04  21950120.716        -501.989         -10.929           0.255  
I05  23739898.847       12700.067         222.118           0.255  
I06  22336917.155        2093.863          38.488           0.255  
I07  23673479.398       -1225.811         -22.312           0.255  
> 2019 05 08 04 26 05.1688020  0  6                     
I02  20905925.608         320.651           6.743           0.255  
I03  20626618.964       -1132.159         -16.697           0.255  
I04  21950136.549        -502.804         -11.474           0.255  
I05  23739892.473       12722.131         223.004           0.255  
I06  22336921.424        2097.613          37.367           0.255  
I07  23673479.481       -1227.550         -18.743           0.255  
> 2019 05 08 04 26 05.2688020  0  6                     
I02  20905926.717         321.270           9.169           0.255  
I03  20626619.250       -1134.091         -20.616           0.255  
I04  21950133.648        -503.543          -5.685           0.255  
I05  23739885.470       12744.189         222.569           0.255  
I06  22336917.796        2101.395          37.686           0.255  
I07  23673486.762       -1229.324         -16.669           0.255  
> 2019 05 08 04 26 05.3688020  0  6                     
I02  20905927.222         321.867          10.953           0.255  
I03  20626620.530       -1136.053         -18.357           0.255  
I04  21950132.137        -504.393          -1.386           0.255  
I05  23739880.231       12766.208         222.768           0.255  
I06  22336919.657        2105.115          37.759           0.255  
I07  23673478.073       -1231.000         -14.431           0.255  
> 2019 05 08 04 26 05.4688020  0  6                     
I02  20905924.489         322.323           4.725           0.255  
I03  20626611.822       -1138.070         -22.301           0.255  
I04  21950133.048        -505.311          -5.477           0.255  
I05  23739874.571       12788.164         219.699           0.255  
I06  22336918.846        2108.744          34.003           0.255  
I07  23673484.633       -1232.902         -20.419           0.255  
> 2019 05 08 04 26 05.5688020  0  6                     
I02  20905925.997         322.956          10.122           0.255  
I03  20626614.291       -1140.065         -18.068           0.255  
I04  21950133.598        -506.164          -7.381           0.255  
I05  23739868.638       12810.182         223.763           0.255  
I06  22336915.989        2112.468          37.331           0.255  
I07  23673484.298       -1234.566         -15.111           0.255  
> 2019 05 08 04 26 05.6688020  0  6                     
I02  20905925.309         323.501           7.208           0.255  
I03  20626616.353       -1142.049         -19.542           0.255  
I04  21950130.104        -507.031         -12.028           0.255  
I05  23739863.490       12832.193         219.706           0.255  
I06  22336915.128        2116.176          37.672           0.255  
I07  23673478.486       -1236.400         -20.748           0.255  
> 2019 05 08 04 26 05.7688020  0  6                     
I02  20905929.208         324.071           7.477           0.255  
I03  20626619.728       -1143.983         -14.710           0.255  
I04  21950124.960        -507.851          -3.490           0.255  
I05  23739860.146       12854.208         223.357           0.255  
I06  22336913.823        2119.913          38.860           0.255  
I07  23673485.455       -1238.100          -3.536           0.255  
> 2019 05 08 04 26 05.8688020  0  6                     
I02  20905926.243         324.669          10.957           0.255  
I03  20626612.197       -1145.990         -20.492           0.255  
I04  21950124.367        -508.712          -8.158           0.255  
I05  23739854.588       12876.228         226.185           0.255  
I06  22336915.027        2123.620          39.095           0.255  
I07  23673481.202       -1239.916         -16.407           0.255  
> 2019 05 08 04 26 05.9688020  0  6                     
I02  20905926.868         325.216           8.325           0.255  
I03  20626616.346       -1147.931         -17.145           0.255  
I04  21950126.066        -509.490          -9.363           0.255  
I05  23739848.606       12898.264         221.577           0.255  
I06  22336912.874        2127.327          38.123           0.255  
I07  23673483.879       -1241.633          -9.340           0.255  
> 2019 05 08 04 26 06.0688020  0  6                     
I02  20905927.838         325.833           5.665           0.255  
I03  20626620.237       -1149.879         -19.993           0.255  
I04  21950120.939        -510.321          -8.925           0.255  
I05  23739841.287       12920.333         221.350           0.255  
I06  22336912.596        2131.085          38.199           0.255  
I07  23673477.327       -1243.382         -14.581           0.255  
> 2019 05 08 04 26 06.1688020  0  6                     
I02  20905924.561         326.429           4.565           0.255  
I03  20626611.383       -1151.847         -19.705           0.255  
I04  21950126.526        -511.165          -8.954           0.255  
I05  23739837.327       12942.320         221.180           0.255  
I06  22336910.728        2134.799          34.993           0.255  
I07  23673484.581       -1245.177         -23.004           0.255  
> 2019 05 08 04 26 06.2688020  0  6                     
I02  20905926.624         327.036           9.559           0.255  
I03  20626615.532       -1153.783         -18.407           0.255  
I04  21950124.214        -511.968          -6.358           0.255  
I05  23739830.723       12964.369         222.236           0.255  
I06  22336907.639        2138.547          36.427           0.255  
I07  23673488.498       -1246.946         -16.748           0.255  
> 2019 05 08 04 26 06.3688020  0  6                     
I02  20905925.384         327.487           2.193           0.255  
I03  20626620.807       -1155.774         -16.435           0.255  
I04  21950124.259        -512.938         -13.118           0.255  
I05  23739826.334       12986.338         219.567           0.255  
I06  22336910.542        2142.229          37.356           0.255  
I07  23673484.259       -1248.723         -19.463           0.255  
> 2019 05 08 04 26 06.4688020  0  6                     
I02  20905925.902         328.064           5.889           0.255  
I03  20626613.374       -1157.820         -18.565           0.255  
I04  21950121.496        -513.763          -7.080           0.255  
I05  23739820.053       13008.331         219.789           0.255  
I06  22336910.853        2145.896          36.680           0.255  
I07  23673479.366       -1250.572         -19.029           0.255  
> 2019 05 08 04 26 06.5688020  0  6                     
I02  20905922.987         328.598           4.396           0.255  
I03  20626622.319       -1159.753         -18.414           0.255  
I04  21950126.424        -514.604         -10.066           0.255  
I05  23739815.884       13030.376         221.058           0.255  
I06  22336907.378        2149.601          36.510           0.255  
I07  23673476.716       -1252.388         -16.237           0.255  
> 2019 05 08 04 26 06.6688020  0  6                     
I02  20905924.098         329.166           6.142           0.255  
I03  20626616.051       -1161.740         -15.421           0.255  
I04  21950122.188        -515.490          -2.650           0.255  
I05  23739812.201       13052.380         221.539           0.255  
I06  22336908.499        2153.326          40.832           0.255  
I07  23673489.855       -1254.110         -11.926           0.255  
> 2019 05 08 04 26 06.7688020  0  6                     
I02  20905924.430         329.765           5.768           0.255  
I03  20626622.838       -1163.690         -21.610           0.255  
I04  21950121.339        -516.288          -5.333           0.255  
I05  23739805.990       13074.443         220.716           0.255  
I06  22336908.704        2157.051          37.214           0.255  
I07  23673478.681       -1255.841         -12.087           0.255  
> 2019 05 08 04 26 06.8688020  0  6                     
I02  20905924.967         330.315           8.298           0.255  
I03  20626615.696       -1165.706         -19.139           0.255  
I04  21950133.839        -517.145          -7.796           0.255  
I05  23739799.812       13096.415         220.751           0.255  
I06  22336906.538        2160.510          98.700           0.255  
I07  23673478.539       -1257.598          -9.980           0.255  
> 2019 05 08 04 26 06.9688020  0  6                     
I02  20905921.757         330.941           6.759           0.255  
I03  20626613.365       -1167.634         -17.787           0.255  
I04  21950122.241        -517.984          -6.382           0.255  
I05  23739795.503       13118.485         221.512           0.255  
I06  22336903.948        2164.477          37.525           0.255  
I07  23673478.050       -1259.314          -4.422           0.255  
> 2019 05 08 04 26 07.0688020  0  6                     
I02  20905923.205         331.546           5.689           0.255  
I03  20626620.454       -1169.626         -22.102           0.255  
I04  21950123.182        -518.842          -8.189           0.255  
I05  23739789.659       13140.517         220.197           0.255  
I06  22336902.715        2168.195          35.893           0.255  
I07  23673485.704       -1261.168         -20.594           0.255  
> 2019 05 08 04 26 07.1688020  0  6                     
I02  20905923.770         332.140           7.392           0.255  
I03  20626615.778       -1171.540         -17.868           0.255  
I04  21950123.531        -519.673          -8.126           0.255  
I05  23739781.917       13162.574         221.478           0.255  
I06  22336901.704        2171.982          39.584           0.255  
I07  23673487.832       -1262.853          -9.564           0.255  
> 2019 05 08 04 26 07.2688020  0  6                     
I02  20905925.585         332.706           6.379           0.255  
I03  20626614.336       -1173.489         -20.465           0.255  
I04  21950120.531        -520.487         -11.863           0.255  
I05  23739778.423       13184.604         217.696           0.255  
I06  22336900.496        2175.673          34.488           0.255  
I07  23673486.995       -1264.667         -11.735           0.255  
> 2019 05 08 04 26 07.3688020  0  6                     
I02  20905924.054         333.219           7.441           0.255  
I03  20626619.970       -1175.477         -14.648           0.255  
I04  21950122.305        -521.355          -0.680           0.255  
I05  23739769.684       13206.592         223.769           0.255  
I06  22336899.855        2179.371          39.839           0.255  
I07  23673487.746       -1266.441          -8.523           0.255  
> 2019 05 08 04 26 07.4688020  0  6                     
I02  20905922.586         333.769           2.775           0.255  
I03  20626616.585       -1177.524         -21.720           0.255  
I04  21950125.239        -522.288         -15.602           0.255  
I05  23739763.939       13228.567         216.297           0.255  
I06  22336900.497        2183.020          34.602           0.255  
I07  23673486.493       -1268.218         -13.124           0.255  
> 2019 05 08 04 26 07.5688020  0  6                     
I02  20905925.007         334.343          10.926           0.255  
I03  20626614.601       -1179.510         -19.178           0.255  
I04  21950127.556        -523.140         -10.747           0.255  
I05  23739758.386       13250.609         221.617           0.255  
I06  22336897.975        2186.727          38.340           0.255  
I07  23673477.937       -1270.017         -20.824           0.255  
> 2019 05 08 04 26 07.6688020  0  6                     
I02  20905925.403         334.905           7.386           0.255  
I03  20626611.247       -1181.450         -18.533           0.255  
I04  21950119.847        -523.894          -8.349           0.255  
I05  23739751.762       13272.638         221.653           0.255  
I06  22336895.611        2190.471           8.101           0.255  
I07  23673476.745       -1271.753         -15.719           0.255  
> 2019 05 08 04 26 07.7688020  0  6                     
I02  20905924.444         335.488           3.699           0.255  
I03  20626624.809       -1183.451         -18.128           0.255  
I04  21950137.579        -524.799          -9.877           0.255  
I05  23739750.755       13294.642         219.925           0.255  
I06  22336897.718        2193.717          59.496           0.255  
I07  23673483.223       -1273.648         -31.397           0.255  
> 2019 05 08 04 26 07.8688020  0  6                     
I02  20905924.894         336.053          11.922           0.255  
I03  20626624.636       -1185.385         -14.459           0.255  
I04  21950137.788        -525.604          -0.615           0.255  
I05  23739744.915       13316.675         224.027           0.255  
I06  22336896.444        2197.875          40.699           0.255  
I07  23673485.440       -1275.334         -15.727           0.255  
> 2019 05 08 04 26 07.9688020  0  6                     
I02  20905919.876         336.646           5.528           0.255  
I03  20626624.219       -1187.420         -20.083           0.255  
I04  21950122.104        -526.538         -11.721           0.255  
I05  23739741.761       13338.666         218.129           0.255  
I06  22336897.559        2201.572          35.674           0.255  
I07  23673480.025       -1277.133         -17.818           0.255  
> 2019 05 08 04 26 08.0688020  0  6                     
I02  20905920.805         337.198           5.584           0.255  
I03  20626623.298       -1189.344         -18.430           0.255  
I04  21950128.203        -527.296          -4.479           0.255  
I05  23739732.660       13360.745         220.986           0.255  
I06  22336896.363        2205.299          38.712           0.255  
I07  23673485.726       -1278.917         -15.076           0.255  
> 2019 05 08 04 26 08.1688020  0  6                     
I02  20905922.294         337.793           9.989           0.255  
I03  20626622.514       -1191.331         -23.219           0.255  
I04  21950127.865        -528.129          -9.362           0.255  
I05  23739728.032       13382.768         218.084           0.255  
I06  22336892.038        2209.014          35.544           0.255  
I07  23673483.308       -1280.658         -13.791           0.255  
> 2019 05 08 04 26 08.2688020  0  6                     
I02  20905922.103         338.474           5.741           0.255  
I03  20626622.247       -1193.177         -21.015           0.255  
I04  21950128.890        -528.912         -13.512           0.255  
I05  23739720.397       13404.935         221.930           0.255  
I06  22336891.680        2212.840          35.968           0.255  
I07  23673477.329       -1282.292         -15.269           0.255  
> 2019 05 08 04 26 08.3688020  0  6                     
I02  20905921.651         339.030           7.340           0.255  
I03  20626621.341       -1195.155         -17.967           0.255  
I04  21950129.219        -529.697          -2.261           0.255  
I05  23739713.315       13426.933         221.415           0.255  
I06  22336893.087        2216.554          37.703           0.255  
I07  23673481.220       -1284.120         -15.071           0.255  
> 2019 05 08 04 26 08.4688020  0  6                     
I02  20905921.922         339.563           1.630           0.255  
I03  20626622.536       -1197.139         -16.254           0.255  
I04  21950129.376        -530.583          -0.696           0.255  
I05  23739703.636       13448.962         219.343           0.255  
I06  22336891.982        2220.218          33.476           0.255  
I07  23673489.591       -1285.834         -16.445           0.255  
> 2019 05 08 04 26 08.5688020  0  6                     
I02  20905924.316         340.131           2.299           0.255  
I03  20626623.206       -1199.096         -18.395           0.255  
I04  21950124.442        -531.427         -13.868           0.255  
I05  23739700.457       13470.999         220.762           0.255  
I06  22336891.555        2223.942          35.873           0.255  
I07  23673480.871       -1287.624         -10.799           0.255  
> 2019 05 08 04 26 08.6688020  0  6                     
I02  20905920.122         340.687           3.292           0.255  
I03  20626624.019       -1201.038         -15.637           0.255  
I04  21950134.103        -532.246          -4.615           0.255  
I05  23739696.866       13493.038         221.858           0.255  
I06  22336889.231        2227.683          38.482           0.255  
I07  23673485.684       -1289.357          -5.196           0.255  
> 2019 05 08 04 26 08.7688020  0  6                     
I02  20905919.809         341.292           8.325           0.255  
I03  20626613.108       -1202.993         -17.927           0.255  
I04  21950139.183        -533.078          -6.262           0.255  
I05  23739691.134       13515.112         226.773           0.255  
I06  22336889.653        2231.428          39.726           0.255  
I07  23673481.140       -1291.138          -2.831           0.255  
> 2019 05 08 04 26 08.8688020  0  6                     
I02  20905920.238         341.863           7.471           0.255  
I03  20626615.036       -1205.052         -20.262           0.255  
I04  21950147.001        -533.905          -7.505           0.255  
I05  23739686.403       13537.080         224.460           0.255  
I06  22336887.902        2235.083          38.694           0.255  
I07  23673488.474       -1293.008         -16.651           0.255  
> 2019 05 08 04 26 08.9688020  0  6                     
I02  20905920.294         342.401           6.916           0.255  
I03  20626619.109       -1207.035         -16.923           0.255  
I04  21950205.362        -534.823          -4.395           0.255  
I05  23739681.153       13559.091         224.253           0.255  
I06  22336887.366        2238.766          37.228           0.255  
I07  23673481.686       -1294.737         -18.785           0.255  
> 2019 05 08 04 26 09.0688020  0  6                     
I02  20905919.516         342.984           1.292           0.255  
I03  20626622.270       -1208.984         -16.088           0.255  
I04  21950207.294        -535.628          -3.292           0.255  
I05  23739675.180       13581.150         222.253           0.255  
I06  22336884.037        2242.489          36.723           0.255  
I07  23673484.882       -1296.571         -25.931           0.255  
> 2019 05 08 04 26 09.1688020  0  6                     
I02  20905922.026         343.570           7.686           0.255  
I03  20626612.378       -1211.001         -24.044           0.255  
I04  21950202.184        -536.503          -3.762           0.255  
I05  23739667.440       13603.129         218.516           0.255  
I06  22336881.798        2246.173          36.606           0.255  
I07  23673480.899       -1298.273         -11.647           0.255  
> 2019 05 08 04 26 09.2688020  0  6                     
I02  20905919.444         344.165           4.689           0.255  
I03  20626617.035       -1212.924         -16.747           0.255  
I04  21950196.694        -537.366          -6.484           0.255  
I05  23739662.347       13625.214         220.731           0.255  
I06  22336882.419        2249.919          37.416           0.255  
I07  23673488.800       -1300.108         -15.924           0.255  
> 2019 05 08 04 26 09.3688020  0  6                     
I02  20905918.999         344.665           7.638           0.255  
I03  20626623.727       -1215.015         -23.423           0.255  
I04  21950204.357        -538.280          -9.314           0.255  
I05  23739660.068       13647.140         220.324           0.255  
I06  22336881.721        2253.548          36.586           0.255  
I07  23673480.345       -1301.958         -19.793           0.255  
> 2019 05 08 04 26 09.4688020  0  6                     
I02  20905921.687         345.184           6.119           0.255  
I03  20626613.063       -1217.052         -19.744           0.255  
I04  21950194.059        -539.193          -9.025           0.255  
I05  23739654.879       13669.115         221.700           0.255  
I06  22336881.719        2257.194          37.690           0.255  
I07  23673488.064       -1303.826         -22.712           0.255  
> 2019 05 08 04 26 09.5688020  0  6                     
I02  20905920.237         345.721           6.609           0.255  
I03  20626615.777       -1219.049         -19.069           0.255  
I04  21950200.636        -540.092         -11.034           0.255  
I05  23739648.537       13691.081         217.577           0.255  
I06  22336881.406        2260.846          33.765           0.255  
I07  23673484.100       -1305.625         -21.660           0.255  
> 2019 05 08 04 26 09.6688020  0  6                     
I02  20905919.910         346.233           9.801           0.255  
I03  20626623.615       -1221.052         -16.527           0.255  
I04  21950194.704        -540.971          -6.514           0.255  
I05  23739642.694       13713.123         226.409           0.255  
I06  22336879.011        2264.533          39.007           0.255  
I07  23673478.895       -1307.437         -21.697           0.255  
> 2019 05 08 04 26 09.7688020  0  6                     
I02  20905920.338         346.826           5.782           0.255  
I03  20626614.865       -1223.031         -15.105           0.255  
I04  21950200.788        -541.786          -1.718           0.255  
I05  23739636.285       13735.137         225.472           0.255  
I06  22336879.507        2268.253          40.384           0.255  
I07  23673488.602       -1309.199         -22.410           0.255  
> 2019 05 08 04 26 09.8688020  0  6                     
I02  20905918.829         347.450          11.667           0.255  
I03  20626619.088       -1224.974         -17.310           0.255  
I04  21950195.595        -542.586          -1.423           0.255  
I05  23739630.068       13757.210         223.877           0.255  
I06  22336876.462        2271.976          37.790           0.255  
I07  23673489.117       -1310.920         -13.467           0.255  
> 2019 05 08 04 26 09.9688020  0  6                     
I02  20905920.305         348.123          14.190           0.255  
I03  20626624.609       -1226.911         -18.518           0.255  
I04  21950196.973        -543.398          -5.599           0.255  
I05  23739623.567       13779.306         224.243           0.255  
I06  22336876.095        2275.755          39.443           0.255  
I07  23673487.084       -1312.640         -15.052           0.255  
> 2019 05 08 04 26 10.0688020  0  6                     
I02  20905919.454         348.642           4.675           0.255  
I03  20626616.036       -1228.860         -18.273           0.255  
I04  21950194.785        -544.283          -9.054           0.255  
I05  23739618.403       13801.331         220.669           0.255  
I06  22336875.074        2279.458          36.841           0.255  
I07  23673481.312       -1314.436         -23.669           0.255  
> 2019 05 08 04 26 10.1688020  0  6                     
I02  20905918.422         349.225           5.109           0.255  
I03  20626623.329       -1230.869         -19.428           0.255  
I04  21950194.961        -545.131          -9.859           0.255  
I05  23739613.396       13823.344         220.953           0.255  
I06  22336878.305        2283.172          39.465           0.255  
I07  23673483.419       -1316.206         -16.522           0.255  
> 2019 05 08 04 26 10.2688020  0  6                     
I02  20905920.252         349.801           2.726           0.255  
I03  20626615.897       -1232.787         -16.231           0.255  
I04  21950196.173        -545.921          -6.503           0.255  
I05  23739606.407       13845.403         219.186           0.255  
I06  22336876.093        2286.877          37.341           0.255  
I07  23673480.179       -1317.997         -13.116           0.255  
> 2019 05 08 04 26 10.3688020  0  6                     
I02  20905921.841         350.330           5.372           0.255  
I03  20626612.617       -1234.861         -20.526           0.255  
I04  21950200.139        -546.835         -10.565           0.255  
I05  23739603.022       13867.347         218.676           0.255  
I06  22336874.725        2290.517          35.899           0.255  
I07  23673477.414       -1319.801         -21.393           0.255  
> 2019 05 08 04 26 10.4688020  0  6                     
I02  20905920.545         350.836           8.110           0.255  
I03  20626619.923       -1236.925         -21.705           0.255  
I04  21950194.027        -547.760         -10.656           0.255  
I05  23739597.215       13889.320         217.449           0.255  
I06  22336873.491        2294.159          36.503           0.255  
I07  23673484.934       -1321.600          -7.945           0.255  
> 2019 05 08 04 26 10.5688020  0  6                     
I02  20905918.933         350.339         -86.632           0.255  
I03  20626616.171       -1238.942         -21.986           0.255  
I04  21950203.876        -548.757         -46.985           0.255  
I05  23739595.214       13911.299         217.251           0.255  
I06  22336872.421        2297.791          33.625           0.255  
I07  23673480.971       -1323.532         -18.876           0.255  
> 2019 05 08 04 26 10.6688020  0  6                     
I02  20905919.506         351.885           8.257           0.255  
I03  20626622.055       -1240.969         -18.764           0.255  
I04  21950203.682        -549.545          -5.829           0.255  
I05  23739588.336       13933.307         222.152           0.255  
I06  22336870.787        2301.489          38.026           0.255  
I07  23673480.570       -1325.347         -10.359           0.255  
> 2019 05 08 04 26 10.7688020  0  6                     
I02  20905918.586         352.415           1.929           0.255  
I03  20626616.090       -1242.921         -18.515           0.255  
I04  21950206.190        -550.395          -8.743           0.255  
I05  23739578.389       13955.317         218.662           0.255  
I06  22336868.227        2305.175          35.049           0.255  
I07  23673478.828       -1327.093         -10.791           0.255  
> 2019 05 08 04 26 10.8688020  0  6                     
I02  20905917.635         352.940          10.439           0.255  
I03  20626624.201       -1244.984         -16.332           0.255  
I04  21950193.528        -551.316          -2.844           0.255  
I05  23739570.165       13977.309         223.012           0.255  
I06  22336868.541        2308.841          41.654           0.255  
I07  23673479.790       -1328.902         -14.202           0.255  
> 2019 05 08 04 26 10.9688020  0  6                     
I02  20905920.435         353.536           8.995           0.255  
I03  20626616.323       -1246.925         -18.293           0.255  
I04  21950193.538        -552.120          -7.758           0.255  
I05  23739567.573       13999.382         222.709           0.255  
I06  22336864.830        2312.563          38.644           0.255  
I07  23673483.009       -1330.566         -17.041           0.255  
> 2019 05 08 04 26 11.0688020  0  6                     
I02  20905917.109         354.200           7.927           0.255  
I03  20626612.420       -1248.773         -18.638           0.255  
I04  21950200.642        -552.847          -2.126           0.255  
I05  23739560.677       14021.529         218.668           0.255  
I06  22336864.953        2316.389          38.601           0.255  
I07  23673483.345       -1332.277         -15.591           0.255  
> 2019 05 08 04 26 11.1688020  0  6                     
I02  20905916.442         354.847           6.309           0.255  
I03  20626621.122       -1250.649         -22.735           0.255  
I04  21950205.406        -553.599          -7.365           0.255  
I05  23739553.654       14043.642         217.102           0.255  
I06  22336863.157        2320.168          33.393           0.255  
I07  23673482.753       -1333.959         -13.629           0.255  
> 2019 05 08 04 26 11.2688020  0  6                     
I02  20905916.440         355.458           7.991           0.255  
I03  20626616.954       -1252.667         -21.802           0.255  
I04  21950199.884        -554.479         -12.795           0.255  
I05  23739552.149       14065.685         218.970           0.255  
I06  22336850.826        2323.886          38.415           0.255  
I07  23673484.975       -1335.871         -28.997           0.255  
> 2019 05 08 04 26 11.3688020  0  6                     
I02  20905918.837         356.012           7.438           0.255  
I03  20626615.390       -1254.679         -16.595           0.255  
I04  21950203.258        -555.303          -5.522           0.255  
I05  23739544.030       14087.705         224.197           0.255  
I06  22336855.761        2327.661          77.976           0.255  
I07  23673483.442       -1337.592         -16.311           0.255  
> 2019 05 08 04 26 11.4688020  0  6                     
I02  20905916.302         356.431          -0.292           0.255  
I03  20626613.218       -1256.710         -19.977           0.255  
I04  21950197.319        -556.039        -157.381           0.255  
I05  23739537.885       14109.630         214.178           0.255  
I06  22336859.422        2331.171         158.337           0.255  
I07  23673484.619       -1339.528         -32.170           0.255  
> 2019 05 08 04 26 11.5688020  0  6                     
I02  20905914.542         356.950           7.355           0.255  
I03  20626625.108       -1258.704         -19.450           0.255  
I04  21950195.834        -557.144          -8.796           0.255  
I05  23739536.343       14131.667         220.755           0.255  
I06  22336849.693        2334.875          38.403           0.255  
I07  23673484.958       -1341.243         -16.673           0.255  
> 2019 05 08 04 26 11.6688020  0  6                     
I02  20905915.502         357.547           5.822           0.255  
I03  20626620.979       -1260.727         -22.403           0.255  
I04  21950194.972        -557.981         -10.087           0.255  
I05  23739526.165       14153.672         216.299           0.255  
I06  22336853.653        2338.545          36.076           0.255  
I07  23673486.526       -1343.100         -21.880           0.255  
> 2019 05 08 04 26 11.7688020  0  6                     
I02  20905917.238         358.112          10.608           0.255  
I03  20626617.088       -1262.704         -17.837           0.255  
I04  21950202.076        -558.853          -7.290           0.255  
I05  23739521.889       14175.727         222.003           0.255  
I06  22336856.810        2342.241          37.728           0.255  
I07  23673479.503       -1344.816         -13.955           0.255  
> 2019 05 08 04 26 11.8688020  0  6                     
I02  20905915.876         358.688          11.175           0.255  
I03  20626614.973       -1264.705         -16.568           0.255  
I04  21950199.050        -559.761         -12.149           0.255  
I05  23739516.788       14197.733         220.448           0.255  
I06  22336856.998        2345.957          40.059           0.255  
I07  23673481.608       -1346.655         -17.119           0.255  
> 2019 05 08 04 26 11.9688020  0  6                     
I02  20905917.817         359.211           5.995           0.255  
I03  20626613.762       -1266.722         -18.435           0.255  
I04  21950203.463        -560.610          -8.848           0.255  
I05  23739513.165       14219.782         223.559           0.255  
I06  22336855.988        2349.612          38.782           0.255  
I07  23673481.256       -1348.436         -19.228           0.255  
> 2019 05 08 04 26 12.0688020  0  6                     
I02  20905918.273         359.780           4.886           0.255  
I03  20626611.944       -1268.681         -21.030           0.255  
I04  21950199.034        -561.432         -12.781           0.255  
I05  23739507.073       14241.828         222.631           0.255  
I06  22336856.297        2353.328          38.177           0.255  
I07  23673483.182       -1350.164         -22.708           0.255  
> 2019 05 08 04 26 12.1688020  0  6                     
I02  20905918.630         360.296           2.014           0.255  
I03  20626623.938       -1270.667         -17.994           0.255  
I04  21950193.487        -562.311          -9.490           0.255  
I05  23739502.888       14263.811         219.348           0.255  
I06  22336856.969        2357.001          37.079           0.255  
I07  23673490.273       -1352.040         -17.871           0.255  
> 2019 05 08 04 26 12.2688020  0  6                     
I02  20905919.124         360.914          11.881           0.255  
I03  20626624.452       -1272.645         -19.983           0.255  
I04  21950199.725        -563.137          -8.248           0.255  
I05  23739495.674       14285.875         222.365           0.255  
I06  22336855.276        2360.737          38.659           0.255  
I07  23673478.029       -1353.777         -12.519           0.255  
> 2019 05 08 04 26 12.3688020  0  6                     
I02  20905915.828         360.422        -233.190           0.255  
I03  20626623.853       -1274.717         -18.052           0.255  
I04  21950195.513        -564.097         -10.323           0.255  
I05  23739491.059       14307.826         221.780           0.255  
I06  22336854.996        2364.693         194.042           0.255  
I07  23673482.902       -1355.637         -12.909           0.255  
> 2019 05 08 04 26 12.4688020  0  6                     
I02  20905916.061         361.877           3.580           0.255  
I03  20626623.547       -1276.785         -21.089           0.255  
I04  21950198.710        -564.980          -8.079           0.255  
I05  23739483.886       14329.795         222.356           0.255  
I06  22336855.283        2367.985          38.472           0.255  
I07  23673488.469       -1357.562         -26.046           0.255  
> 2019 05 08 04 26 12.5688020  0  6                     
I02  20905914.939         362.407          -0.460           0.255  
I03  20626622.273       -1278.773         -17.204           0.255  
I04  21950206.803        -565.924         -14.846           0.255  
I05  23739477.906       14351.778         220.147           0.255  
I06  22336850.971        2371.627          34.715           0.255  
I07  23673480.882       -1359.376         -23.377           0.255  
> 2019 05 08 04 26 12.6688020  0  6                     
I02  20905915.866         362.993          11.824           0.255  
I03  20626622.597       -1280.832         -17.039           0.255  
I04  21950205.609        -566.781          -8.554           0.255  
I05  23739470.289       14373.784         223.234           0.255  
I06  22336848.784        2375.288          38.720           0.255  
I07  23673483.474       -1361.210         -16.241           0.255  
> 2019 05 08 04 26 12.7688020  0  6                     
I02  20905917.144         363.503           2.503           0.255  
I03  20626624.224       -1282.848         -19.123           0.255  
I04  21950197.913        -567.638          -7.342           0.255  
I05  23739464.919       14395.790         219.603           0.255  
I06  22336847.179        2378.983          37.781           0.255  
I07  23673488.080       -1362.950         -15.104           0.255  
> 2019 05 08 04 26 12.8688020  0  6                     
I02  20905916.196         363.977           8.561           0.255  
I03  20626625.007       -1284.888         -19.425           0.255  
I04  21950203.570        -568.491          -1.059           0.255  
I05  23739459.741       14417.763         222.004           0.255  
I06  22336845.032        2382.616          41.436           0.255  
I07  23673479.949       -1364.790         -12.529           0.255  
> 2019 05 08 04 26 12.9688020  0  6                     
I02  20905917.215         364.593           8.223           0.255  
I03  20626612.303       -1286.875         -17.769           0.255  
I04  21950197.799        -569.415          -7.544           0.255  
I05  23739456.621       14439.826         221.642           0.255  
I06  22336846.501        2386.293          36.458           0.255  
I07  23673487.267       -1366.602         -21.409           0.255  
> 2019 05 08 04 26 13.0688020  0  6                     
I02  20905915.634         365.081           0.590           0.255  
I03  20626614.386       -1288.893         -18.579           0.255  
I04  21950204.081        -570.341         -12.308           0.255  
I05  23739451.605       14461.826         222.271           0.255  
I06  22336845.154        2389.934          33.515           0.255  
I07  23673480.735       -1368.432         -18.285           0.255  
> 2019 05 08 04 26 13.1688020  0  6                     
I02  20905917.357         365.648           7.885           0.255  
I03  20626616.746       -1290.927         -21.848           0.255  
I04  21950200.704        -571.192         -10.444           0.255  
I05  23739443.502       14483.835         225.452           0.255  
I06  22336844.294        2393.614          36.395           0.255  
I07  23673483.152       -1370.224         -10.066           0.255  
> 2019 05 08 04 26 13.2688020  0  6                     
I02  20905915.768         366.138           3.798           0.255  
I03  20626617.950       -1292.964         -21.409           0.255  
I04  21950193.830        -572.117         -14.812           0.255  
I05  23739437.083       14505.802         218.860           0.255  
I06  22336845.015        2396.397          -2.900           0.255  
I07  23673481.958       -1372.053         -15.103           0.255  
> 2019 05 08 04 26 13.3688020  0  6                     
I02  20905914.565         366.632           9.717           0.255  
I03  20626623.070       -1295.056         -18.229           0.255  
I04  21950206.240        -573.019          -2.930           0.255  
I05  23739433.813       14527.760         224.092           0.255  
I06  22336846.175        2400.882          41.286           0.255  
I07  23673490.075       -1373.984         -12.390           0.255  
> 2019 05 08 04 26 13.4688020  0  6                     
I02  20905913.802         367.044          -0.057           0.255  
I03  20626612.833       -1297.169         -22.207           0.255  
I04  21950204.866        -574.039         -12.563           0.255  
I05  23739430.986       14549.648         218.385           0.255  
I06  22336844.263        2404.421          34.233           0.255  
I07  23673481.370       -1375.860         -27.314           0.255  
> 2019 05 08 04 26 13.5688020  0  6                     
I02  20905913.511         367.560           7.099           0.255  
I03  20626617.767       -1299.219         -19.795           0.255  
I04  21950196.301        -575.487         145.989           0.255  
I05  23739423.481       14571.574         218.631           0.255  
I06  22336840.355        2408.028          38.472           0.255  
I07  23673486.244       -1377.773         -11.925           0.255  
> 2019 05 08 04 26 13.6688020  0  6                     
I02  20905914.758         368.090           7.591           0.255  
I03  20626619.787       -1301.248         -17.425           0.255  
I04  21950198.075        -575.801          -2.685           0.255  
I05  23739416.611       14593.592         219.412           0.255  
I06  22336841.181        2411.687          35.411           0.255  
I07  23673484.161       -1379.588         -12.412           0.255  
> 2019 05 08 04 26 13.7688020  0  6                     
I02  20905914.992         368.600           4.343           0.255  
I03  20626622.855       -1303.350         -20.450           0.255  
I04  21950197.063        -576.833         -11.909           0.255  
I05  23739411.840       14615.547         217.428           0.255  
I06  22336838.988        2415.300          36.160           0.255  
I07  23673489.831       -1381.394         -11.157           0.255  
> 2019 05 08 04 26 13.8688020  0  6                     
I02  20905914.179         369.112          11.473           0.255  
I03  20626613.633       -1305.368         -15.322           0.255  
I04  21950193.614        -577.706          -8.905           0.255  
I05  23739406.631       14637.546         223.650           0.255  
I06  22336836.305        2418.954          41.258           0.255  
I07  23673485.038       -1383.284         -10.313           0.255  
> 2019 05 08 04 26 13.9688020  0  6                     
I02  20905914.176         369.595           4.208           0.255  
I03  20626618.245       -1307.422         -17.384           0.255  
I04  21950202.487        -578.607         -11.204           0.255  
I05  23739397.409       14659.518         218.901           0.255  
I06  22336838.091        2422.559          34.553           0.255  
I07  23673479.357       -1385.184         -21.696           0.255  
> 2019 05 08 04 26 14.0688020  0  6                     
I02  20905914.054         370.235           9.473           0.255  
I03  20626623.550       -1309.362         -17.963           0.255  
I04  21950197.566        -579.440          -5.958           0.255  
I05  23739393.025       14681.598         223.652           0.255  
I06  22336837.553        2426.299          35.211           0.255  
I07  23673478.471       -1386.934         -19.402           0.255  
> 2019 05 08 04 26 14.1688020  0  6                     
I02  20905914.437         370.767           5.878           0.255  
I03  20626614.279       -1311.397         -25.324           0.255  
I04  21950193.817        -580.345         -11.888           0.255  
I05  23739386.718       14703.600         216.341           0.255  
I06  22336837.919        2429.958          31.366           0.255  
I07  23673489.990       -1388.738         -19.505           0.255  
> 2019 05 08 04 26 14.2688020  0  6                     
I02  20905915.622         371.286          11.856           0.255  
I03  20626619.914       -1313.344         -19.548           0.255  
I04  21950201.951        -581.196          -9.404           0.255  
I05  23739381.951       14725.670         222.501           0.255  
I06  22336836.362        2433.656          33.901           0.255  
I07  23673482.474       -1390.602         -14.537           0.255  
> 2019 05 08 04 26 14.3688020  0  6                     
I02  20905914.665         371.742           6.696           0.255  
I03  20626623.326       -1315.405         -18.115           0.255  
I04  21950192.964        -582.080          -7.589           0.255  
I05  23739373.758       14747.636         223.968           0.255  
I06  22336836.029        2437.281          34.114           0.255  
I07  23673484.607       -1392.392         -21.244           0.255  
> 2019 05 08 04 26 14.4688020  0  6                     
I02  20905914.877         372.172           5.610           0.255  
I03  20626616.157       -1317.498         -20.371           0.255  
I04  21950201.321        -583.053         -11.561           0.255  
I05  23739371.705       14769.567         221.193           0.255  
I06  22336836.661        2440.885          34.750           0.255  
I07  23673478.207       -1394.232          -8.762           0.255  
> 2019 05 08 04 26 14.5688020  0  6                     
I02  20905911.894         372.778           0.422           0.255  
I03  20626622.227       -1319.499         -20.448           0.255  
I04  21950200.425        -585.550        -185.474           0.255  
I05  23739353.303       14791.616         218.078           0.255  
I06  22336831.978        2443.906         -94.593           0.255  
I07  23673484.808       -1396.063         -12.847           0.255  
> 2019 05 08 04 26 14.6688020  0  6                     
I02  20905912.493         373.349           9.657           0.255  
I03  20626614.968       -1321.494         -16.834           0.255  
I04  21950199.852        -584.740          -3.288           0.255  
I05  23739357.609       14813.634         221.807           0.255  
I06  22336832.402        2448.272          40.894           0.255  
I07  23673480.145       -1397.891         -20.868           0.255  
> 2019 05 08 04 26 14.7688020  0  6                     
I02  20905911.405         373.930          11.945           0.255  
I03  20626622.315       -1323.500         -18.234           0.255  
I04  21950195.345        -585.578          -9.142           0.255  
I05  23739353.394       14835.674         219.367           0.255  
I06  22336831.786        2451.960          37.974           0.255  
I07  23673485.483       -1399.621         -14.277           0.255  
> 2019 05 08 04 26 14.8688020  0  6                     
I02  20905912.604         374.446           4.917           0.255  
I03  20626614.592       -1325.508         -17.463           0.255  
I04  21950193.298        -586.494          -9.670           0.255  
I05  23739351.337       14857.691         219.133           0.255  
I06  22336830.277        2455.625          37.399           0.255  
I07  23673477.658       -1401.450         -13.225           0.255  
> 2019 05 08 04 26 14.9688020  0  6                     
I02  20905913.387         375.061          12.930           0.255  
I03  20626624.086       -1327.470         -19.743           0.255  
I04  21950202.508        -587.303         -10.631           0.255  
I05  23739345.007       14879.799         223.494           0.255  
I06  22336827.172        2459.346          39.657           0.255  
I07  23673488.547       -1403.281         -22.798           0.255  
> 2019 05 08 04 26 15.0688020  0  6                     
I02  20905913.519         375.652           8.900           0.255  
I03  20626616.483       -1329.437         -19.245           0.255  
I04  21950196.848        -588.160         -13.407           0.255  
I05  23739335.176       14901.873         222.873           0.255  
I06  22336827.730        2463.051          35.768           0.255  
I07  23673489.674       -1405.079         -35.630           0.255  
> 2019 05 08 04 26 15.1688020  0  6                     
I02  20905913.802         376.199           5.980           0.255  
I03  20626624.033       -1331.386         -15.173           0.255  
I04  21950192.333        -588.946          -6.424           0.255  
I05  23739331.687       14923.919         223.670           0.255  
I06  22336828.632        2466.790          37.665           0.255  
I07  23673484.450       -1406.771         -19.424           0.255  
> 2019 05 08 04 26 15.2688020  0  6                     
I02  20905912.934         376.803           5.488           0.255  
I03  20626620.935       -1333.390         -22.839           0.255  
I04  21950195.305        -589.771          -9.225           0.255  
I05  23739324.458       14946.006         221.052           0.255  
I06  22336827.403        2470.510          35.523           0.255  
I07  23673481.061       -1408.581         -20.394           0.255  
> 2019 05 08 04 26 15.3688020  0  6                     
I02  20905913.622         377.656          22.293           0.255  
I03  20626613.345       -1335.296         -16.373           0.255  
I04  21950193.340        -590.877         -28.533           0.255  
I05  23739317.707       14968.118         222.664           0.255  
I06  22336826.881        2474.267          38.065           0.255  
I07  23673523.337       -1410.295         -17.930           0.255  
> 2019 05 08 04 26 15.4688020  0  6                     
I02  20905913.412         377.960           3.806           0.255  
I03  20626622.229       -1337.263         -15.072           0.255  
I04  21950207.577        -591.461         -11.729           0.255  
I05  23739313.029       14990.132         218.971           0.255  
I06  22336824.363        2477.928          34.734           0.255  
I07  23673543.358       -1412.024         -20.313           0.255  
> 2019 05 08 04 26 15.5688020  0  6                     
I02  20905912.789         378.567           7.644           0.255  
I03  20626618.452       -1339.247         -18.223           0.255  
I04  21950204.460        -592.241          -8.883           0.255  
I05  23739308.776       15012.222         218.233           0.255  
I06  22336825.920        2481.665          35.704           0.255  
I07  23673550.199       -1413.831         -24.050           0.255  
> 2019 05 08 04 26 15.6688020  0  6                     
I02  20905912.455         379.178           5.915           0.255  
I03  20626627.556       -1341.189         -16.941           0.255  
I04  21950204.947        -593.031          -4.219           0.255  
I05  23739302.032       15034.324         221.118           0.255  
I06  22336823.548        2485.406          38.061           0.255  
I07  23673552.288       -1415.519          -9.742           0.255  
> 2019 05 08 04 26 15.7688020  0  6                     
I02  20905913.645         379.805           4.771           0.255  
I03  20626619.543       -1343.137         -19.135           0.255  
I04  21950199.029        -593.856          -6.395           0.255  
I05  23739295.134       15056.432         220.714           0.255  
I06  22336821.862        2489.169          37.906           0.255  
I07  23673556.281       -1417.252          -9.676           0.255  
> 2019 05 08 04 26 15.8688020  0  6                     
I02  20905912.626         380.358           2.881           0.255  
I03  20626615.596       -1345.069         -15.194           0.255  
I04  21950198.994        -594.691          -6.487           0.255  
I05  23739292.631       15078.489         222.162           0.255  
I06  22336821.952        2492.880          40.318           0.255  
I07  23673555.639       -1419.075         -18.243           0.255  
> 2019 05 08 04 26 15.9688020  0  6                     
I02  20905911.133         380.958           7.538           0.255  
I03  20626626.196       -1347.096         -18.362           0.255  
I04  21950205.151        -595.565          -9.313           0.255  
I05  23739287.333       15100.544         223.286           0.255  
I06  22336820.275        2496.544          38.190           0.255  
I07  23673550.503       -1420.892         -25.826           0.255  
> 2019 05 08 04 26 16.0688020  0  6                     
I02  20905913.618         381.529           7.448           0.255  
I03  20626620.955       -1349.055         -18.735           0.255  
I04  21950195.683        -596.341          -7.547           0.255  
I05  23739282.945       15122.613         222.371           0.255  
I06  22336821.286        2500.271          36.921           0.255  
I07  23673553.596       -1422.664         -19.953           0.255  
> 2019 05 08 04 26 16.1688020  0  6                     
I02  20905914.737         382.126           8.328           0.255  
I03  20626618.212       -1351.083         -23.449           0.255  
I04  21950195.072        -597.231         -10.464           0.255  
I05  23739275.817       15144.635         218.983           0.255  
I06  22336818.710        2503.976          36.348           0.255  
I07  23673551.937       -1424.449         -18.294           0.255  
> 2019 05 08 04 26 16.2688020  0  6                     
I02  20905914.813         382.731          13.322           0.255  
I03  20626612.520       -1353.033         -21.873           0.255  
I04  21950195.522        -598.041         -10.668           0.255  
I05  23739272.453       15166.713         221.176           0.255  
I06  22336814.681        2507.679          36.764           0.255  
I07  23673547.399       -1426.172         -18.690           0.255  
> 2019 05 08 04 26 16.3688020  0  6                     
I02  20905910.963         383.146           8.759           0.255  
I03  20626624.348       -1355.081         -22.533           0.255  
I04  21950196.389        -598.970         -12.228           0.255  
I05  23739267.793       15188.720         221.206           0.255  
I06  22336816.632        2511.307          35.418           0.255  
I07  23673550.499       -1428.029         -16.043           0.255  
> 2019 05 08 04 26 16.4688020  0  6                     
I02  20905912.461         383.579           1.559           0.255  
I03  20626620.392       -1357.101         -19.356           0.255  
I04  21950206.585        -599.830          -8.297           0.255  
I05  23739259.219       15210.718         221.628           0.255  
I06  22336815.437        2514.963          37.140           0.255  
I07  23673548.622       -1429.826         -12.646           0.255  
> 2019 05 08 04 26 16.5688020  0  6                     
I02  20905913.385         384.206           1.627           0.255  
I03  20626620.070       -1359.162         -22.369           0.255  
I04  21950197.344        -600.740         -12.274           0.255  
I05  23739254.202       15232.743         219.309           0.255  
I06  22336814.950        2518.614          34.517           0.255  
I07  23673551.634       -1431.675         -24.856           0.255  
> 2019 05 08 04 26 16.6688020  0  6                     
I02  20905912.776         384.769           8.535           0.255  
I03  20626616.133       -1361.154         -16.647           0.255  
I04  21950194.196        -601.627          -9.866           0.255  
I05  23739247.995       15254.778         225.035           0.255  
I06  22336812.563        2522.302          38.942           0.255  
I07  23673551.624       -1433.518         -16.878           0.255  
> 2019 05 08 04 26 16.7688020  0  6                     
I02  20905909.802         385.298           5.728           0.255  
I03  20626614.487       -1363.082         -18.650           0.255  
I04  21950193.063        -602.441         -10.797           0.255  
I05  23739242.499       15276.820         221.712           0.255  
I06  22336813.737        2525.994          36.644           0.255  
I07  23673553.941       -1435.312         -15.476           0.255  
> 2019 05 08 04 26 16.8688020  0  6                     
I02  20905912.419         385.853          10.023           0.255  
I03  20626627.860       -1365.124         -16.375           0.255  
I04  21950193.637        -603.279          -6.288           0.255  
I05  23739231.927       15298.855         224.218           0.255  
I06  22336812.202        2529.672          39.963           0.255  
I07  23673554.118       -1437.107         -13.151           0.255  
> 2019 05 08 04 26 16.9688020  0  6                     
I02  20905912.315         386.484           7.414           0.255  
I03  20626625.178       -1367.041         -19.099           0.255  
I04  21950194.681        -604.097          -8.239           0.255  
I05  23739224.910       15320.961         220.695           0.255  
I06  22336808.114        2533.425          36.212           0.255  
I07  23673549.192       -1438.866         -21.622           0.255  
> 2019 05 08 04 26 17.0688020  0  6                     
I02  20905910.402         387.071           4.823           0.255  
I03  20626623.399       -1368.990         -19.163           0.255  
I04  21950200.745        -604.906          -4.717           0.255  
I05  23739224.838       15343.065         220.982           0.255  
I06  22336808.951        2537.153          38.255           0.255  
I07  23673551.218       -1440.557         -16.832           0.255  
> 2019 05 08 04 26 17.1688020  0  6                     
I02  20905908.411         387.635           4.565           0.255  
I03  20626622.548       -1370.939         -14.711           0.255  
I04  21950204.045        -605.735          -5.493           0.255  
I05  23739220.419       15365.126         220.727           0.255  
I06  22336804.256        2540.871          37.404           0.255  
I07  23673548.432       -1442.358         -19.989           0.255  
> 2019 05 08 04 26 17.2688020  0  6                     
I02  20905909.000         387.104        -238.685           0.255  
I03  20626621.238       -1372.985         -19.852           0.255  
I04  21950205.263        -608.348        -141.798           0.255  
I05  23739203.732       15387.121         217.368           0.255  
I06  22336804.822        2543.512          92.699           0.255  
I07  23673549.835       -1444.236         -24.061           0.255  
> 2019 05 08 04 26 17.3688020  0  6                     
I02  20905909.653         388.617           4.671           0.255  
I03  20626619.959       -1375.059         -15.630           0.255  
I04  21950194.439        -607.543          -4.948           0.255  
I05  23739205.657       15409.145         226.625           0.255  
I06  22336805.970        2548.157          42.753           0.255  
I07  23673552.316       -1446.024         -13.666           0.255  
> 2019 05 08 04 26 17.4688020  0  6                     
I02  20905908.166         389.068          -2.279           0.255  
I03  20626666.641       -1377.198         -25.370           0.255  
I04  21950196.665        -608.522         -11.599           0.255  
I05  23739204.189       15431.037         216.443           0.255  
I06  22336805.856        2551.681          33.508           0.255  
I07  23673552.414       -1447.941         -14.450           0.255  
> 2019 05 08 04 26 17.5688020  0  6                     
I02  20905909.970         389.629           5.185           0.255  
I03  20626691.337       -1379.209         -16.300           0.255  
I04  21950195.031        -609.412          -8.842           0.255  
I05  23739197.267       15453.059         222.800           0.255  
I06  22336804.988        2555.330          38.280           0.255  
I07  23673550.965       -1449.837         -16.177           0.255  
> 2019 05 08 04 26 17.6688020  0  6                     
I02  20905910.914         390.140          10.981           0.255  
I03  20626693.324       -1381.314         -21.500           0.255  
I04  21950199.753        -610.348          -8.637           0.255  
I05  23739190.200       15475.022         221.639           0.255  
I06  22336802.885        2558.948          36.908           0.255  
I07  23673556.052       -1451.741         -18.853           0.255  
> 2019 05 08 04 26 17.7688020  0  6                     
I02  20905911.538         390.623          12.259           0.255  
I03  20626692.515       -1383.369         -19.841           0.255  
I04  21950199.847        -611.291          -9.565           0.255  
I05  23739183.267       15497.014         220.318           0.255  
I06  22336803.235        2562.565          36.463           0.255  
I07  23673560.784       -1453.532         -17.903           0.255  
> 2019 05 08 04 26 17.8688020  0  6                     
I02  20905909.489         391.145           9.404           0.255  
I03  20626690.081       -1385.444         -17.162           0.255  
I04  21950200.161        -612.224          -7.290           0.255  
I05  23739179.688       15519.039         225.921           0.255  
I06  22336803.341        2566.201          39.494           0.255  
I07  23673553.242       -1455.370         -15.059           0.255  
> 2019 05 08 04 26 17.9688020  0  6                     
I02  20905908.743         391.617           8.124           0.255  
I03  20626688.412       -1387.488         -22.999           0.255  
I04  21950205.832        -613.103          -7.824           0.255  
I05  23739173.357       15541.018         220.983           0.255  
I06  22336800.446        2569.838          37.173           0.255  
I07  23673552.365       -1457.266         -24.820           0.255  
> 2019 05 08 04 26 18.0688020  0  6                     
I02  20905910.246         392.214          13.713           0.255  
I03  20626693.362       -1389.447         -19.665           0.255  
I04  21950206.021        -613.916          -8.393           0.255  
I05  23739168.072       15563.089         222.825           0.255  
I06  22336801.997        2573.536          37.574           0.255  
I07  23673553.825       -1458.959         -13.594           0.255  
> 2019 05 08 04 26 18.1688020  0  6                     
I02  20905907.783         392.741           3.106           0.255  
I03  20626691.397       -1391.488         -22.536           0.255  
I04  21950194.258        -614.822         -14.041           0.255  
I05  23739162.657       15585.119         220.425           0.255  
I06  22336802.481        2577.199          34.492           0.255  
I07  23673548.632       -1460.856         -18.365           0.255  
> 2019 05 08 04 26 18.2688020  0  6                     
I02  20905911.795         393.281           7.764           0.255  
I03  20626686.510       -1393.441         -18.477           0.255  
I04  21950205.485        -615.650          -9.247           0.255  
I05  23739158.641       15607.171         221.223           0.255  
I06  22336800.410        2580.895          40.110           0.255  
I07  23673551.966       -1462.696         -15.897           0.255  
> 2019 05 08 04 26 18.3688020  0  6                     
I02  20905909.751         392.735        -182.337           0.255  
I03  20626696.018       -1395.478         -18.292           0.255  
I04  21950195.474        -616.571          -9.238           0.255  
I05  23739153.883       15629.183         221.041           0.255  
I06  22336798.139        2584.284          46.126           0.255  
I07  23673548.065       -1464.528         -15.416           0.255  
> 2019 05 08 04 26 18.4688020  0  6                     
I02  20905909.467         394.237           4.870           0.255  
I03  20626692.713       -1397.585         -22.826           0.255  
I04  21950195.179        -617.482          -7.687           0.255  
I05  23739148.688       15651.194         220.645           0.255  
I06  22336800.488        2588.163          36.552           0.255  
I07  23673556.005       -1466.291         -11.925           0.255  
> 2019 05 08 04 26 18.5688020  0  6                     
I02  20905909.303         394.831           5.614           0.255  
I03  20626686.874       -1399.543         -21.761           0.255  
I04  21950198.720        -618.335         -10.541           0.255  
I05  23739140.669       15673.255         223.372           0.255  
I06  22336796.136        2591.835          36.306           0.255  
I07  23673556.219       -1468.121          -1.842           0.255  
> 2019 05 08 04 26 18.6688020  0  6                     
I02  20905907.472         395.374           6.969           0.255  
I03  20626693.604       -1401.572         -20.746           0.255  
I04  21950201.776        -619.175          -6.633           0.255  
I05  23739135.904       15695.273         220.756           0.255  
I06  22336796.309        2595.510          37.426           0.255  
I07  23673558.547       -1469.963         -17.361           0.255  
> 2019 05 08 04 26 18.7688020  0  6                     
I02  20905908.406         395.942           3.265           0.255  
I03  20626689.548       -1403.543         -17.955           0.255  
I04  21950204.758        -620.021          -7.534           0.255  
I05  23739131.021       15717.363         222.262           0.255  
I06  22336796.115        2599.224          37.455           0.255  
I07  23673559.301       -1471.682         -10.800           0.255  
> 2019 05 08 04 26 18.8688020  0  6                     
I02  20905907.736         396.456           7.547           0.255  
I03  20626687.524       -1405.563         -18.993           0.255  
I04  21950193.364        -620.926          -9.391           0.255  
I05  23739126.184       15739.378         222.620           0.255  
I06  22336796.063        2602.879          37.895           0.255  
I07  23673556.482       -1473.528         -13.021           0.255  
> 2019 05 08 04 26 18.9688020  0  6                     
I02  20905907.008         397.043           6.097           0.255  
I03  20626695.946       -1407.517         -17.846           0.255  
I04  21950198.277        -621.725          -4.602           0.255  
I05  23739119.746       15761.450         221.483           0.255  
I06  22336791.226        2606.603          38.431           0.255  
I07  23673559.668       -1475.292          -4.367           0.255  
> 2019 05 08 04 26 19.0688020  0  6                     
I02  20905906.873         397.603           2.417           0.255  
I03  20626696.667       -1409.518         -18.417           0.255  
I04  21950200.143        -622.599         -12.582           0.255  
I05  23739115.113       15783.489         219.249           0.255  
I06  22336790.240        2610.270          35.883           0.255  
I07  23673559.195       -1477.086         -12.854           0.255  
> 2019 05 08 04 26 19.1688020  0  6                     
I02  20905907.382         398.154           4.496           0.255  
I03  20626695.485       -1411.482         -15.722           0.255  
I04  21950201.245        -623.397          -6.393           0.255  
I05  23739109.238       15805.584         222.767           0.255  
I06  22336789.519        2613.996          38.434           0.255  
I07  23673559.322       -1478.900         -15.394           0.255  
> 2019 05 08 04 26 19.2688020  0  6                     
I02  20905906.385         398.753           5.724           0.255  
I03  20626691.748       -1413.485         -25.177           0.255  
I04  21950198.096        -624.213          -5.410           0.255  
I05  23739102.751       15827.653         219.195           0.255  
I06  22336789.237        2617.692          35.547           0.255  
I07  23673557.491       -1480.731         -15.126           0.255  
> 2019 05 08 04 26 19.3688020  0  6                     
I02  20905910.328         399.275           6.084           0.255  
I03  20626686.548       -1415.476         -16.379           0.255  
I04  21950204.256        -625.080          -3.665           0.255  
I05  23739095.404       15849.705         221.284           0.255  
I06  22336789.342        2621.370          39.102           0.255  
I07  23673550.741       -1482.535         -18.398           0.255  
> 2019 05 08 04 26 19.4688020  0  6                     
I02  20905906.468         399.800           2.291           0.255  
I03  20626697.852       -1417.491         -20.690           0.255  
I04  21950194.960        -625.999          -7.917           0.255  
I05  23739089.563       15871.730         219.124           0.255  
I06  22336786.701        2625.019          36.540           0.255  
I07  23673553.760       -1484.372         -22.993           0.255  
> 2019 05 08 04 26 19.5688020  0  6                     
I02  20905906.574         400.362           6.662           0.255  
I03  20626695.880       -1419.526         -20.120           0.255  
I04  21950196.697        -626.846          -9.434           0.255  
I05  23739081.967       15893.774         219.383           0.255  
I06  22336779.456        2628.691          35.273           0.255  
I07  23673550.265       -1486.089         -20.103           0.255  
> 2019 05 08 04 26 19.6688020  0  6                     
I02  20905904.569         400.986           7.544           0.255  
I03  20626695.777       -1421.435         -15.695           0.255  
I04  21950203.129        -627.652         -10.789           0.255  
I05  23739078.416       15915.922         223.470           0.255  
I06  22336783.969        2632.449          38.501           0.255  
I07  23673552.618       -1487.860         -11.615           0.255  
> 2019 05 08 04 26 19.7688020  0  6                     
I02  20905904.172         401.532           4.566           0.255  
I03  20626695.546       -1423.427         -20.651           0.255  
I04  21950204.568        -628.498         -10.208           0.255  
I05  23739074.990       15937.976         219.292           0.255  
I06  22336784.484        2636.142          36.800           0.255  
I07  23673550.167       -1489.750         -26.382           0.255  
> 2019 05 08 04 26 19.8688020  0  6                     
I02  20905906.590         402.162          12.673           0.255  
I03  20626686.958       -1425.364         -16.671           0.255  
I04  21950195.836        -629.298          -4.368           0.255  
I05  23739068.748       15960.113         229.559           0.255  
I06  22336784.368        2639.878          41.832           0.255  
I07  23673558.030       -1491.408         -13.435           0.255  
> 2019 05 08 04 26 19.9688020  0  6                     
I02  20905905.467         402.788           8.659           0.255  
I03  20626688.740       -1427.332         -22.599           0.255  
I04  21950197.454        -630.078         -11.180           0.255  
I05  23739064.218       15982.220         220.842           0.255  
I06  22336783.690        2643.617          35.460           0.255  
I07  23673556.792       -1493.079         -13.034           0.255  
> 2019 05 08 04 26 20.0688020  0  6                     
I02  20905902.955         403.474           6.512           0.255  
I03  20626693.239       -1429.165         -20.245           0.255  
I04  21950206.517        -630.797         -13.388           0.255  
I05  23739059.172       16004.402         219.463           0.255  
I06  22336782.592        2647.462          37.166           0.255  
I07  23673550.579       -1494.729         -11.713           0.255  
> 2019 05 08 04 26 20.1688020  0  6                     
I02  20905901.393         404.155           7.329           0.255  
I03  20626697.400       -1431.048         -17.572           0.255  
I04  21950195.315        -631.514          -9.124           0.255  
I05  23739054.711       16026.590         220.343           0.255  
I06  22336781.117        2651.242          37.990           0.255  
I07  23673550.785       -1496.490         -16.777           0.255  
> 2019 05 08 04 26 20.2688020  0  6                     
I02  20905904.067         404.834           6.657           0.255  
I03  20626688.092       -1432.940         -19.234           0.255  
I04  21950202.820        -632.333         137.026           0.255  
I05  23739046.031       16048.764         222.953           0.255  
I06  22336781.247        2655.042          38.093           0.255  
I07  23673552.722       -1498.194         -11.253           0.255  
> 2019 05 08 04 26 20.3688020  0  6                     
I02  20905908.925         405.470           7.532           0.255  
I03  20626692.483       -1434.870         -17.309           0.255  
I04  21950198.430        -633.052          -6.084           0.255  
I05  23739038.955       16070.929         225.951           0.255  
I06  22336782.572        2658.800          40.850           0.255  
I07  23673560.258       -1499.917         -11.075           0.255  
> 2019 05 08 04 26 20.4688020  0  6                     
I02  20905908.800         406.045           5.321           0.255  
I03  20626686.209       -1436.830         -19.246           0.255  
I04  21950197.293        -633.890          -7.860           0.255  
I05  23739033.912       16093.010         223.454           0.255  
I06  22336779.412        2662.479          34.586           0.255  
I07  23673559.949       -1501.717         -22.407           0.255  
> 2019 05 08 04 26 20.5688020  0  6                     
I02  20905904.304         406.614           6.021           0.255  
I03  20626690.457       -1438.786         -23.097           0.255  
I04  21950203.771        -634.737         -14.118           0.255  
I05  23739026.321       16115.082         218.446           0.255  
I06  22336779.192        2666.199          33.155           0.255  
I07  23673553.422       -1503.436         -13.511           0.255  
> 2019 05 08 04 26 20.6688020  0  6                     
I02  20905905.141         407.227           8.704           0.255  
I03  20626692.125       -1440.745         -16.764           0.255  
I04  21950193.227        -635.533          -7.450           0.255  
I05  23739019.609       16137.193         225.147           0.255  
I06  22336778.940        2669.950          40.870           0.255  
I07  23673551.014       -1505.186          -9.685           0.255  
> 2019 05 08 04 26 20.7688020  0  6                     
I02  20905906.393         407.857           8.646           0.255  
I03  20626696.835       -1442.739         -18.255           0.255  
I04  21950193.538        -636.347          -9.786           0.255  
I05  23739017.424       16159.273         221.146           0.255  
I06  22336778.785        2673.652          35.010           0.255  
I07  23673560.755       -1506.971         -17.168           0.255  
> 2019 05 08 04 26 20.8688020  0  6                     
I02  20905908.088         408.380           7.496           0.255  
I03  20626687.655       -1444.714         -14.942           0.255  
I04  21950198.934        -637.198          -8.030           0.255  
I05  23739013.098       16181.356         224.727           0.255  
I06  22336774.252        2677.343          40.020           0.255  
I07  23673559.181       -1508.709          -6.403           0.255  
> 2019 05 08 04 26 20.9688020  0  6                     
I02  20905908.892         409.040           6.506           0.255  
I03  20626693.114       -1446.680         -18.464           0.255  
I04  21950205.144        -637.965          -8.444           0.255  
I05  23739007.640       16203.478         223.968           0.255  
I06  22336773.964        2681.096          37.809           0.255  
I07  23673555.703       -1510.445         -13.053           0.255  
> 2019 05 08 04 26 21.0688020  0  6                     
I02  20905901.614         409.632          71.898           0.255  
I03  20626687.892       -1448.642         -20.239           0.255  
I04  21950203.197        -638.794          -7.855           0.255  
I05  23739003.021       16225.569         220.533           0.255  
I06  22336773.323        2684.239          31.105           0.255  
I07  23673551.839       -1512.257         -15.615           0.255  
> 2019 05 08 04 26 21.1688020  0  6                     
I02  20905900.379         410.297           7.016           0.255  
I03  20626693.604       -1450.536         -15.291           0.255  
I04  21950197.707        -639.578          -8.086           0.255  
I05  23738996.634       16247.716         224.855           0.255  
I06  22336772.007        2688.556          37.569           0.255  
I07  23673557.616       -1513.967         -14.320           0.255  
> 2019 05 08 04 26 21.2688020  0  6                     
I02  20905904.612         410.304         -47.176           0.255  
I03  20626688.159       -1452.495         -17.928           0.255  
I04  21950206.977        -640.400         -11.916           0.255  
I05  23738991.614       16269.798         220.337           0.255  
I06  22336769.649        2692.269          35.330           0.255  
I07  23673553.240       -1515.781         -16.766           0.255  
> 2019 05 08 04 26 21.3688020  0  6                     
I02  20905904.142         411.468           6.778           0.255  
I03  20626693.251       -1454.514         -14.341           0.255  
I04  21950199.141        -641.220          -2.131           0.255  
I05  23738983.167       16291.880         227.331           0.255  
I06  22336768.455        2695.991          42.576           0.255  
I07  23673554.495       -1517.587         -15.466           0.255  
> 2019 05 08 04 26 21.4688020  0  6                     
I02  20905907.391         411.975           1.184           0.255  
I03  20626687.614       -1456.580         -21.127           0.255  
I04  21950200.460        -642.159         -10.316           0.255  
I05  23738980.788       16313.866         218.928           0.255  
I06  22336767.376        2699.578          34.706           0.255  
I07  23673551.419       -1519.407         -23.172           0.255  
> 2019 05 08 04 26 21.5688020  0  6                     
I02  20905905.959         412.613           3.874           0.255  
I03  20626691.934       -1458.473         -17.334           0.255  
I04  21950206.351        -642.937          -8.815           0.255  
I05  23738975.283       16336.035         223.917           0.255  
I06  22336767.605        2703.349          38.030           0.255  
I07  23673554.592       -1521.093         -14.839           0.255  
> 2019 05 08 04 26 21.6688020  0  6                     
I02  20905908.254         413.240           8.013           0.255  
I03  20626688.202       -1460.455         -17.549           0.255  
I04  21950195.921        -643.735          -8.744           0.255  
I05  23738968.917       16358.137         224.790           0.255  
I06  22336766.518        2707.088          39.884           0.255  
I07  23673561.060       -1522.886         -17.537           0.255  
> 2019 05 08 04 26 21.7688020  0  6                     
I02  20905904.170         413.834           4.083           0.255  
I03  20626695.140       -1462.415         -19.798           0.255  
I04  21950193.572        -644.522          -7.755           0.255  
I05  23738960.828       16380.235         221.276           0.255  
I06  22336764.544        2710.802          38.245           0.255  
I07  23673551.065       -1524.595         -12.798           0.255  
> 2019 05 08 04 26 21.8688020  0  6                     
I02  20905903.203         414.467           8.212           0.255  
I03  20626690.353       -1464.385         -18.127           0.255  
I04  21950198.814        -645.357          -4.310           0.255  
I05  23738954.413       16402.350         221.645           0.255  
I06  22336764.629        2714.514          39.039           0.255  
I07  23673559.142       -1526.421          -8.952           0.255  
> 2019 05 08 04 26 21.9688020  0  6                     
I02  20905901.590         415.106           7.551           0.255  
I03  20626687.647       -1466.345         -18.111           0.255  
I04  21950193.688        -646.184         -10.416           0.255  
I05  23738946.513       16424.445         218.763           0.255  
I06  22336764.272        2718.238          38.511           0.255  
I07  23673557.804       -1528.131         -17.141           0.255  
> 2019 05 08 04 26 22.0688020  0  6                     
I02  20905903.185         415.726           8.301           0.255  
I03  20626697.388       -1468.303         -23.621           0.255  
I04  21950201.839        -646.999         -12.300           0.255  
I05  23738941.195       16446.511         214.991           0.255  
I06  22336764.571        2721.698         -57.042           0.255  
I07  23673559.336       -1529.924         -22.043           0.255  
> 2019 05 08 04 26 22.1688020  0  6                     
I02  20905905.796         416.279          10.489           0.255  
I03  20626690.126       -1470.299         -18.848           0.255  
I04  21950203.036        -648.270         -29.474           0.255  
I05  23738937.993       16468.595         219.985           0.255  
I06  22336761.745        2725.835          77.053           0.255  
I07  23673558.089       -1531.800         -21.350           0.255  
> 2019 05 08 04 26 22.2688020  0  6                     
I02  20905904.737         416.881           3.640           0.255  
I03  20626686.718       -1472.267         -18.317           0.255  
I04  21950199.852        -648.666          -5.775           0.255  
I05  23738933.902       16490.700         222.342           0.255  
I06  22336759.593        2729.339          36.355           0.255  
I07  23673550.701       -1533.600         -23.001           0.255  
> 2019 05 08 04 26 22.3688020  0  6                     
I02  20905900.665         417.399           7.111           0.255  
I03  20626698.752       -1474.331         -17.294           0.255  
I04  21950194.584        -649.535          -3.636           0.255  
I05  23738928.879       16512.706         222.692           0.255  
I06  22336760.563        2732.956          38.132           0.255  
I07  23673558.254       -1535.411         -22.985           0.255  
> 2019 05 08 04 26 22.4688020  0  6                     
I02  20905902.420         417.939           3.911           0.255  
I03  20626698.309       -1476.360         -19.450           0.255  
I04  21950200.463        -650.460         -10.940           0.255  
I05  23738922.361       16534.776         221.987           0.255  
I06  22336760.216        2736.598          35.132           0.255  
I07  23673555.666       -1537.240         -23.133           0.255  
> 2019 05 08 04 26 22.5688020  0  6                     
I02  20905902.195         418.501           5.991           0.255  
I03  20626696.061       -1478.416         -22.454           0.255  
I04  21950195.669        -651.348         -14.416           0.255  
I05  23738916.807       16556.811         220.951           0.255  
I06  22336759.895        2740.259          34.009           0.255  
I07  23673550.019       -1539.077         -23.517           0.255  
> 2019 05 08 04 26 22.6688020  0  6                     
I02  20905901.891         419.098           7.432           0.255  
I03  20626693.812       -1480.385         -16.489           0.255  
I04  21950201.455        -652.165          -5.854           0.255  
I05  23738901.417       16578.925         226.553           0.255  
I06  22336761.083        2743.971          39.095           0.255  
I07  23673562.841       -1540.798         -12.360           0.255  
> 2019 05 08 04 26 22.7688020  0  6                     
I02  20905899.702         419.679           5.127           0.255  
I03  20626691.631       -1482.370         -19.650           0.255  
I04  21950197.850        -653.011          -6.591           0.255  
I05  23738901.273       16600.970         220.031           0.255  
I06  22336758.793        2747.637          34.973           0.255  
I07  23673557.019       -1542.678         -16.992           0.255  
> 2019 05 08 04 26 22.8688020  0  6                     
I02  20905902.245         420.248          12.988           0.255  
I03  20626689.323       -1484.313         -14.955           0.255  
I04  21950194.700        -653.831          -2.543           0.255  
I05  23738899.993       16623.100         228.755           0.255  
I06  22336757.740        2751.368          40.611           0.255  
I07  23673557.334       -1544.400          -6.240           0.255  
> 2019 05 08 04 26 22.9688020  0  6                     
I02  20905903.055         420.864           8.366           0.255  
I03  20626690.515       -1486.320         -22.424           0.255  
I04  21950203.964        -654.681         -10.481           0.255  
I05  23738895.885       16645.191         220.933           0.255  
I06  22336756.743        2755.090          35.669           0.255  
I07  23673556.653       -1546.144         -14.807           0.255  
> 2019 05 08 04 26 23.0688020  0  6                     
I02  20905901.998         421.537           7.283           0.255  
I03  20626693.615       -1488.211         -17.239           0.255  
I04  21950206.437        -655.377          -6.701           0.255  
I05  23738886.605       16667.373         221.899           0.255  
I06  22336754.445        2758.862          36.877           0.255  
I07  23673556.614       -1547.890         -28.591           0.255  
> 2019 05 08 04 26 23.1688020  0  6                     
I02  20905900.246         422.147           6.824           0.255  
I03  20626696.415       -1490.137         -17.838           0.255  
I04  21950199.907        -655.797          16.633           0.255  
I05  23738881.951       16689.499         221.601           0.255  
I06  22336753.421        2762.615          36.081           0.255  
I07  23673555.807       -1549.654         -23.656           0.255  
> 2019 05 08 04 26 23.2688020  0  6                     
I02  20905901.448         422.787           7.403           0.255  
I03  20626697.751       -1492.048         -18.159           0.255  
I04  21950200.540        -656.953         -11.141           0.255  
I05  23738875.547       16711.645         224.441           0.255  
I06  22336750.814        2766.361          35.871           0.255  
I07  23673552.493       -1551.289          -7.786           0.255  
> 2019 05 08 04 26 23.3688020  0  6                     
I02  20905901.519         423.418          11.238           0.255  
I03  20626686.594       -1494.001         -14.623           0.255  
I04  21950199.208        -657.751          -6.351           0.255  
I05  23738870.182       16733.760         223.650           0.255  
I06  22336751.587        2770.096          37.787           0.255  
I07  23673553.991       -1553.116         -19.945           0.255  
> 2019 05 08 04 26 23.4688020  0  6                     
I02  20905900.100         423.998           8.740           0.255  
I03  20626687.842       -1495.992         -20.995           0.255  
I04  21950195.498        -658.561         -10.636           0.255  
I05  23738863.359       16755.879         224.904           0.255  
I06  22336751.319        2773.818          37.922           0.255  
I07  23673552.269       -1554.860         -19.694           0.255  
> 2019 05 08 04 26 23.5688020  0  6                     
I02  20905900.568         424.630          12.726           0.255  
I03  20626690.122       -1497.911         -16.700           0.255  
I04  21950204.818        -659.343          -4.509           0.255  
I05  23738859.773       16778.027         224.544           0.255  
I06  22336751.874        2777.567          39.290           0.255  
I07  23673557.335       -1556.639         -26.138           0.255  
> 2019 05 08 04 26 23.6688020  0  6                     
I02  20905899.044         425.200           6.068           0.255  
I03  20626693.939       -1499.878         -18.919           0.255  
I04  21950203.914        -660.183          -8.143           0.255  
I05  23738852.430       16800.131         224.773           0.255  
I06  22336747.762        2781.274          38.078           0.255  
I07  23673556.395       -1558.384         -18.646           0.255  
> 2019 05 08 04 26 23.7688020  0  6                     
I02  20905903.934         425.779           7.002           0.255  
I03  20626696.268       -1501.886         -19.018           0.255  
I04  21950205.671        -660.999          -4.544           0.255  
I05  23738845.085       16822.197         222.157           0.255  
I06  22336747.131        2784.963          38.220           0.255  
I07  23673552.894       -1560.235         -29.810           0.255  
> 2019 05 08 04 26 23.8688020  0  6                     
I02  20905901.466         426.377          11.385           0.255  
I03  20626687.933       -1503.847         -15.912           0.255  
I04  21950206.013        -661.840          -6.822           0.255  
I05  23738839.827       16844.304         223.454           0.255  
I06  22336746.122        2788.664          38.900           0.255  
I07  23673554.648       -1561.994         -12.197           0.255  
> 2019 05 08 04 26 23.9688020  0  6                     
I02  20905901.519         426.272         -51.831           0.255  
I03  20626688.546       -1505.871         -23.861           0.255  
I04  21950203.277        -663.235         -74.506           0.255  
I05  23738836.742       16866.345         218.667           0.255  
I06  22336744.978        2792.353          36.079           0.255  
I07  23673561.249       -1563.713         -16.205           0.255  
> 2019 05 08 04 26 24.0688020  0  6                     
I02  20905900.629         427.762         -12.037           0.255  
I03  20626690.797       -1507.806         -18.732           0.255  
I04  21950196.699        -663.503          -8.410           0.255  
I05  23738832.800       16888.484         221.198           0.255  
I06  22336742.009        2796.091          38.143           0.255  
I07  23673556.602       -1565.434         -11.044           0.255  
> 2019 05 08 04 26 24.1688020  0  6                     
I02  20905899.813         428.159           3.694           0.255  
I03  20626692.990       -1509.763         -18.139           0.255  
I04  21950209.548        -664.339         -11.692           0.255  
I05  23738826.353       16910.618         221.450           0.255  
I06  22336741.855        2799.801          35.910           0.255  
I07  23673564.078       -1567.236         -21.258           0.255  
> 2019 05 08 04 26 24.2688020  0  6                     
I02  20905899.519         428.757           9.370           0.255  
I03  20626697.262       -1511.688         -17.542           0.255  
I04  21950200.774        -665.086          -7.396           0.255  
I05  23738820.852       16932.736         222.459           0.255  
I06  22336742.812        2803.536          37.523           0.255  
I07  23673551.958       -1568.977         -13.100           0.255  
> 2019 05 08 04 26 24.3688020  0  6                     
I02  20905899.163         429.359           6.231           0.255  
I03  20626689.468       -1513.695         -18.887           0.255  
I04  21950195.604        -665.962         -11.691           0.255  
I05  23738813.606       16954.829         220.004           0.255  
I06  22336740.618        2807.247          37.202           0.255  
I07  23673554.030       -1570.761          -8.638           0.255  
> 2019 05 08 04 26 24.4688020  0  6                     
I02  20905898.667         429.873           4.720           0.255  
I03  20626693.055       -1515.723         -21.134           0.255  
I04  21950203.115        -666.783          -3.935           0.255  
I05  23738807.252       16976.880         220.050           0.255  
I06  22336742.840        2810.889          36.267           0.255  
I07  23673555.456       -1572.645         -16.524           0.255  
> 2019 05 08 04 26 24.5688020  0  6                     
I02  20905897.664         430.485           2.848           0.255  
I03  20626697.074       -1517.648         -15.674           0.255  
I04  21950198.413        -667.590          -8.671           0.255  
I05  23738800.822       16999.005         219.763           0.255  
I06  22336740.710        2814.613          35.869           0.255  
I07  23673553.223       -1574.448         -29.568           0.255  
> 2019 05 08 04 26 24.6688020  0  6                     
I02  20905900.938         431.081           6.595           0.255  
I03  20626690.778       -1519.660         -19.956           0.255  
I04  21950199.022        -668.447          -5.640           0.255  
I05  23738796.936       17021.111         220.750           0.255  
I06  22336739.722        2818.315          39.896           0.255  
I07  23673558.893       -1576.225         -22.399           0.255  
> 2019 05 08 04 26 24.7688020  0  6                     
I02  20905898.606         431.720           8.341           0.255  
I03  20626693.587       -1521.597         -18.191           0.255  
I04  21950197.155        -669.217          -4.695           0.255  
I05  23738791.646       17043.264         221.746           0.255  
I06  22336738.012        2822.058          38.712           0.255  
I07  23673560.213       -1577.865         -18.955           0.255  
> 2019 05 08 04 26 24.8688020  0  6                     
I02  20905896.728         432.282           9.417           0.255  
I03  20626688.304       -1523.558         -15.668           0.255  
I04  21950198.726        -670.053          -5.596           0.255  
I05  23738784.640       17065.345         221.632           0.255  
I06  22336737.989        2825.747          38.209           0.255  
I07  23673563.468       -1579.764         -24.263           0.255  
> 2019 05 08 04 26 24.9688020  0  6                     
I02  20905899.618         432.912          11.240           0.255  
I03  20626693.721       -1525.481         -16.421           0.255  
I04  21950195.347        -670.842          -6.891           0.255  
I05  23738780.538       17087.496         223.452           0.255  
I06  22336736.399        2829.512          39.439           0.255  
I07  23673553.116       -1581.418         -11.159           0.255  
> 2019 05 08 04 26 25.0688020  0  6                     
I02  20905900.966         433.519           6.040           0.255  
I03  20626699.430       -1527.476         -21.953           0.255  
I04  21950196.881        -671.651          -7.349           0.255  
I05  23738775.257       17109.615         221.900           0.255  
I06  22336733.303        2833.206          34.788           0.255  
I07  23673556.058       -1583.193         -16.402           0.255  
> 2019 05 08 04 26 25.1688020  0  6                     
I02  20905898.299         434.149           9.536           0.255  
I03  20626690.656       -1529.418         -17.754           0.255  
I04  21950198.975        -672.432          -4.947           0.255  
I05  23738767.533       17131.752         223.457           0.255  
I06  22336733.121        2837.350         105.102           0.255  
I07  23673553.349       -1584.970         -19.226           0.255  
> 2019 05 08 04 26 25.2688020  0  6                     
I02  20905896.119         434.742           4.735           0.255  
I03  20626699.511       -1531.359         -20.287           0.255  
I04  21950198.686        -673.207          -8.413           0.255  
I05  23738754.853       17153.892         223.508           0.255  
I06  22336732.922        2840.700          36.267           0.255  
I07  23673556.354       -1586.693         -18.153           0.255  
> 2019 05 08 04 26 25.3688020  0  6                     
I02  20905895.590         435.322           9.525           0.255  
I03  20626691.618       -1533.369         -18.685           0.255  
I04  21950197.257        -674.055          -4.210           0.255  
I05  23738755.681       17175.974         224.217           0.255  
I06  22336732.094        2844.398          41.276           0.255  
I07  23673561.191       -1588.429          -7.874           0.255  
> 2019 05 08 04 26 25.4688020  0  6                     
I02  20905897.391         435.884           7.403           0.255  
I03  20626700.716       -1535.342         -20.259           0.255  
I04  21950206.047        -674.882          -7.193           0.255  
I05  23738753.891       17198.079         222.436           0.255  
I06  22336730.437        2848.066          37.480           0.255  
I07  23673553.488       -1590.280         -13.732           0.255  
> 2019 05 08 04 26 25.5688020  0  6                     
I02  20905897.145         436.458           5.282           0.255  
I03  20626692.881       -1537.299         -19.463           0.255  
I04  21950205.916        -675.722          -9.278           0.255  
I05  23738747.938       17220.181         218.717           0.255  
I06  22336732.573        2851.757          36.465           0.255  
I07  23673561.619       -1592.171         -20.594           0.255  
> 2019 05 08 04 26 25.6688020  0  6                     
I02  20905893.981         437.104           7.598           0.255  
I03  20626691.592       -1539.265         -16.897           0.255  
I04  21950202.666        -676.514          -2.423           0.255  
I05  23738741.739       17242.325         224.321           0.255  
I06  22336730.822        2855.514          38.927           0.255  
I07  23673555.416       -1593.841          -8.954           0.255  
> 2019 05 08 04 26 25.7688020  0  6                     
I02  20905893.437         437.701           7.602           0.255  
I03  20626691.543       -1541.257         -21.155           0.255  
I04  21950203.064        -677.342          -7.885           0.255  
I05  23738733.597       17264.422         219.135           0.255  
I06  22336729.306        2859.237          37.955           0.255  
I07  23673554.129       -1595.617         -24.955           0.255  
> 2019 05 08 04 26 25.8688020  0  6                     
I02  20905896.974         438.377           9.568           0.255  
I03  20626699.816       -1543.125         -12.918           0.255  
I04  21950196.319        -678.023          -1.641           0.255  
I05  23738728.566       17286.616         225.006           0.255  
I06  22336730.807        2863.014          40.769           0.255  
I07  23673563.425       -1597.281         -13.037           0.255  
> 2019 05 08 04 26 25.9688020  0  6                     
I02  20905897.677         438.985           2.818           0.255  
I03  20626696.268       -1545.099         -18.742           0.255  
I04  21950195.030        -678.857          -5.027           0.255  
I05  23738726.123       17308.757         219.978           0.255  
I06  22336726.255        2866.720          36.582           0.255  
I07  23673554.642       -1599.046         -17.393           0.255  
> 2019 05 08 04 26 26.0688020  0  6                     
I02  20905896.625         439.634           9.897           0.255  
I03  20626694.320       -1547.018         -16.860           0.255  
I04  21950204.854        -679.654          -7.022           0.255  
I05  23738716.871       17330.911         225.131           0.255  
I06  22336725.159        2870.489          37.755           0.255  
I07  23673552.788       -1600.817         -24.611           0.255  
> 2019 05 08 04 26 26.1688020  0  6                     
I02  20905898.052         440.244           5.432           0.255  
I03  20626690.444       -1548.993         -19.348           0.255  
I04  21950203.762        -681.335        -139.403           0.255  
I05  23738708.490       17353.038         222.995           0.255  
I06  22336724.474        2873.937          -4.634           0.255  
I07  23673559.577       -1602.505         -14.245           0.255  
> 2019 05 08 04 26 26.2688020  0  6                     
I02  20905896.934         440.833           5.834           0.255  
I03  20626687.352       -1550.931         -16.509           0.255  
I04  21950202.573        -681.262          -4.940           0.255  
I05  23738703.261       17375.164         223.723           0.255  
I06  22336724.865        2877.938          38.803           0.255  
I07  23673557.399       -1604.241         -14.085           0.255  
> 2019 05 08 04 26 26.3688020  0  6                     
I02  20905896.944         441.431           7.754           0.255  
I03  20626697.346       -1552.914         -17.358           0.255  
I04  21950200.635        -682.080          -4.297           0.255  
I05  23738702.819       17397.275         222.624           0.255  
I06  22336722.853        2881.629          37.807           0.255  
I07  23673554.406       -1606.141         -19.292           0.255  
> 2019 05 08 04 26 26.4688020  0  6                     
I02  20905894.604         441.958           2.836           0.255  
I03  20626698.628       -1554.967         -21.676           0.255  
I04  21950200.140        -682.962         -11.031           0.255  
I05  23738695.795       17419.348         221.289           0.255  
I06  22336721.820        2885.286          36.825           0.255  
I07  23673556.420       -1607.898         -20.028           0.255  
> 2019 05 08 04 26 26.5688020  0  6                     
I02  20905895.561         442.588           4.280           0.255  
I03  20626698.643       -1556.884         -17.825           0.255  
I04  21950196.094        -683.778         -10.314           0.255  
I05  23738689.871       17441.489         221.676           0.255  
I06  22336722.196        2889.014          36.493           0.255  
I07  23673556.927       -1609.688         -15.929           0.255  
> 2019 05 08 04 26 26.6688020  0  6                     
I02  20905895.438         443.172           1.549           0.255  
I03  20626696.442       -1558.875         -17.687           0.255  
I04  21950198.469        -684.592          -7.636           0.255  
I05  23738685.322       17463.569         219.615           0.255  
I06  22336719.305        2892.742          38.053           0.255  
I07  23673553.915       -1611.426         -20.040           0.255  
> 2019 05 08 04 26 26.7688020  0  6                     
I02  20905897.051         443.812           3.365           0.255  
I03  20626695.213       -1560.788         -14.295           0.255  
I04  21950197.920        -685.354          -3.813           0.255  
I05  23738682.469       17485.748         223.616           0.255  
I06  22336719.289        2896.472          38.102           0.255  
I07  23673552.712       -1613.194         -16.620           0.255  
> 2019 05 08 04 26 26.8688020  0  6                     
I02  20905889.442         444.044         -27.120           0.255  
I03  20626695.666       -1562.739         -15.155           0.255  
I04  21950197.897        -686.147          -9.443           0.255  
I05  23738677.613       17507.879         221.401           0.255  
I06  22336717.165        2900.201          39.139           0.255  
I07  23673556.193       -1615.016         -18.608           0.255  
> 2019 05 08 04 26 26.9688020  0  6                     
I02  20905893.622         445.057           9.475           0.255  
I03  20626694.993       -1564.697         -16.574           0.255  
I04  21950199.080        -686.627         158.249           0.255  
I05  23738671.594       17530.032         223.986           0.255  
I06  22336716.943        2903.955          40.866           0.255  
I07  23673555.090       -1616.673         -12.478           0.255  
> 2019 05 08 04 26 27.0688020  0  6                     
I02  20905895.150         445.682           6.844           0.255  
I03  20626694.326       -1566.652         -19.898           0.255  
I04  21950197.458        -687.881         -44.288           0.255  
I05  23738666.230       17552.171         220.457           0.255  
I06  22336716.431        2906.998         -66.569           0.255  
I07  23673555.324       -1618.494         -19.257           0.255  
> 2019 05 08 04 26 27.1688020  0  6                     
I02  20905896.362         446.271           4.794           0.255  
I03  20626692.477       -1568.606         -18.289           0.255  
I04  21950195.102        -688.525          -5.798           0.255  
I05  23738659.015       17574.297         223.444           0.255  
I06  22336715.649        2911.570         106.769           0.255  
I07  23673564.107       -1620.178         -17.421           0.255  
> 2019 05 08 04 26 27.2688020  0  6                     
I02  20905894.948         446.935           4.203           0.255  
I03  20626694.289       -1570.495         -17.999           0.255  
I04  21950194.486        -689.285          -8.076           0.255  
I05  23738646.798       17596.471         219.542           0.255  
I06  22336712.970        2915.152          37.372           0.255  
I07  23673553.494       -1621.926         -13.417           0.255  
> 2019 05 08 04 26 27.3688020  0  6                     
I02  20905894.421         447.506           5.589           0.255  
I03  20626693.822       -1572.535         -16.005           0.255  
I04  21950194.671        -690.166          -6.845           0.255  
I05  23738642.817       17618.535         221.336           0.255  
I06  22336713.350        2918.806          39.153           0.255  
I07  23673550.965       -1623.802         -19.793           0.255  
> 2019 05 08 04 26 27.4688020  0  6                     
I02  20905895.281         448.074           6.448           0.255  
I03  20626693.747       -1574.555         -22.992           0.255  
I04  21950204.137        -691.025         -11.647           0.255  
I05  23738637.677       17640.623         218.729           0.255  
I06  22336710.396        2922.475          35.915           0.255  
I07  23673552.927       -1625.542         -13.120           0.255  
> 2019 05 08 04 26 27.5688020  0  6                     
I02  20905895.276         448.621           0.949           0.255  
I03  20626694.400       -1576.534         -17.389           0.255  
I04  21950206.478        -691.907         -11.236           0.255  
I05  23738633.060       17662.709         218.156           0.255  
I06  22336710.496        2926.170          34.902           0.255  
I07  23673558.695       -1627.421         -27.257           0.255  
> 2019 05 08 04 26 27.6688020  0  6                     
I02  20905893.221         449.252           7.184           0.255  
I03  20626698.819       -1578.491         -14.278           0.255  
I04  21950194.443        -692.615          -3.016           0.255  
I05  23738628.269       17684.868         225.312           0.255  
I06  22336710.608        2929.890          38.580           0.255  
I07  23673559.310       -1629.142         -16.706           0.255  
> 2019 05 08 04 26 27.7688020  0  6                     
I02  20905893.526         449.927           6.224           0.255  
I03  20626687.143       -1580.411         -16.757           0.255  
I04  21950196.566        -693.373          -3.074           0.255  
I05  23738622.592       17707.034         221.981           0.255  
I06  22336701.083        2933.672          37.801           0.255  
I07  23673555.385       -1630.830         -16.052           0.255  
> 2019 05 08 04 26 27.8688020  0  6                     
I02  20905893.275         450.585           7.407           0.255  
I03  20626691.509       -1582.332         -16.488           0.255  
I04  21950196.323        -694.140          -0.357           0.255  
I05  23738616.485       17729.230         224.190           0.255  
I06  22336702.799        2937.418          39.083           0.255  
I07  23673556.129       -1632.624         -14.606           0.255  
> 2019 05 08 04 26 27.9688020  0  6                     
I02  20905893.011         451.256           6.800           0.255  
I03  20626692.959       -1584.244         -17.087           0.255  
I04  21950197.028        -694.921          -3.584           0.255  
I05  23738612.662       17751.406         221.634           0.255  
I06  22336707.490        2941.546         159.317           0.255  
I07  23673554.796       -1634.276         -12.331           0.255  
> 2019 05 08 04 26 28.0688020  0  6                     
I02  20905892.007         451.899           5.501           0.255  
I03  20626693.495       -1586.142         -18.913           0.255  
I04  21950198.159        -695.668          -4.726           0.255  
I05  23738608.353       17773.602         221.457           0.255  
I06  22336706.297        2944.963          37.850           0.255  
I07  23673555.520       -1635.922         -14.992           0.255  
> 2019 05 08 04 26 28.1688020  0  6                     
I02  20905892.692         452.547           6.737           0.255  
I03  20626696.366       -1588.057         -17.301           0.255  
I04  21950195.568        -696.412          -6.847           0.255  
I05  23738602.233       17795.790         220.962           0.255  
I06  22336705.986        2948.749          37.663           0.255  
I07  23673555.796       -1637.740         -25.332           0.255  
> 2019 05 08 04 26 28.2688020  0  6                     
I02  20905892.516         453.180           1.464           0.255  
I03  20626697.685       -1590.023         -23.603           0.255  
I04  21950198.357        -697.224         -13.965           0.255  
I05  23738596.217       17817.936         216.491           0.255  
I06  22336705.138        2952.467          33.970           0.255  
I07  23673561.537       -1639.376         -12.107           0.255  
> 2019 05 08 04 26 28.3688020  0  6                     
I02  20905896.526         453.752           9.790           0.255  
I03  20626689.206       -1591.980         -16.089           0.255  
I04  21950194.602        -698.013          -4.459           0.255  
I05  23738588.361       17840.069         226.028           0.255  
I06  22336703.332        2956.208          41.736           0.255  
I07  23673556.237       -1641.231         -11.641           0.255  
> 2019 05 08 04 26 28.4688020  0  6                     
I02  20905894.131         454.265           0.240           0.255  
I03  20626693.331       -1594.016         -24.060           0.255  
I04  21950205.853        -698.918          -8.783           0.255  
I05  23738587.369       17862.153         218.661           0.255  
I06  22336702.104        2959.826          34.998           0.255  
I07  23673554.961       -1643.052         -16.047           0.255  
> 2019 05 08 04 26 28.5688020  0  6                     
I02  20905892.216         454.904           5.139           0.255  
I03  20626696.654       -1596.007         -22.142           0.255  
I04  21950206.358        -699.721          -5.785           0.255  
I05  23738579.880       17884.254         221.094           0.255  
I06  22336702.508        2963.524          35.827           0.255  
I07  23673560.584       -1644.851         -15.534           0.255  
> 2019 05 08 04 26 28.6688020  0  6                     
I02  20905892.917         455.548           3.919           0.255  
I03  20626691.578       -1597.940         -16.048           0.255  
I04  21950193.878        -700.520          -6.938           0.255  
I05  23738572.890       17906.414         220.430           0.255  
I06  22336698.332        2967.272          39.054           0.255  
I07  23673552.944       -1646.607         -18.376           0.255  
> 2019 05 08 04 26 28.7688020  0  6                     
I02  20905893.477         456.172           5.991           0.255  
I03  20626694.238       -1599.894         -17.085           0.255  
I04  21950203.194        -701.325          -5.052           0.255  
I05  23738569.262       17928.553         219.807           0.255  
I06  22336699.190        2971.019          38.779           0.255  
I07  23673559.993       -1648.276         -16.494           0.255  
> 2019 05 08 04 26 28.8688020  0  6                     
I02  20905892.812         456.794           7.849           0.255  
I03  20626701.608       -1601.834         -17.939           0.255  
I04  21950202.768        -702.090          -5.270           0.255  
I05  23738559.525       17950.716         222.801           0.255  
I06  22336697.523        2974.766          39.539           0.255  
I07  23673553.053       -1650.065         -14.548           0.255  
> 2019 05 08 04 26 28.9688020  0  6                     
I02  20905891.226         457.419           5.904           0.255  
I03  20626693.867       -1603.781         -18.587           0.255  
I04  21950202.245        -702.893         -11.192           0.255  
I05  23738553.537       17972.844         218.927           0.255  
I06  22336698.540        2978.471          36.889           0.255  
I07  23673558.494       -1651.827         -15.698           0.255  
> 2019 05 08 04 26 29.0688020  0  6                     
I02  20905892.136         458.065          11.626           0.255  
I03  20626698.493       -1605.690         -19.360           0.255  
I04  21950203.727        -703.626          -5.466           0.255  
I05  23738546.937       17995.063         223.190           0.255  
I06  22336696.459        2982.245          39.246           0.255  
I07  23673560.007       -1653.532         -12.097           0.255  
> 2019 05 08 04 26 29.1688020  0  6                     
I02  20905892.060         458.705           6.555           0.255  
I03  20626688.780       -1607.633         -21.213           0.255  
I04  21950193.175        -704.423          -7.069           0.255  
I05  23738542.916       18017.213         218.806           0.255  
I06  22336694.973        2985.994          38.290           0.255  
I07  23673562.939       -1655.252          -8.888           0.255  
> 2019 05 08 04 26 29.2688020  0  6                     
I02  20905891.898         459.371           9.633           0.255  
I03  20626696.357       -1609.540         -16.703           0.255  
I04  21950204.955        -705.156          -9.053           0.255  
I05  23738537.833       18039.418         223.566           0.255  
I06  22336694.438        2989.766          40.060           0.255  
I07  23673554.136       -1656.987         -12.329           0.255  
> 2019 05 08 04 26 29.3688020  0  6                     
I02  20905889.336         459.977           6.158           0.255  
I03  20626687.969       -1611.499         -20.072           0.255  
I04  21950197.030        -705.982          -8.039           0.255  
I05  23738536.273       18061.554         223.926           0.255  
I06  22336690.835        2993.449          34.837           0.255  
I07  23673566.579       -1658.728          -7.943           0.255  
> 2019 05 08 04 26 29.4688020  0  6                     
I02  20905889.431         460.564           3.209           0.255  
I03  20626694.152       -1613.510         -19.300           0.255  
I04  21950199.199        -706.833          -8.768           0.255  
I05  23738526.657       18083.659         223.580           0.255  
I06  22336690.243        2997.134          34.830           0.255  
I07  23673564.626       -1660.612         -22.395           0.255  
> 2019 05 08 04 26 29.5688020  0  6                     
I02  20905888.815         461.257           9.144           0.255  
I03  20626687.702       -1615.449         -20.019           0.255  
I04  21950204.231        -707.570          -6.511           0.255  
I05  23738522.131       18105.814         221.835           0.255  
I06  22336689.576        3000.901          37.327           0.255  
I07  23673557.297       -1662.339         -21.115           0.255  
> 2019 05 08 04 26 29.6688020  0  6                     
I02  20905893.041         461.862           7.739           0.255  
I03  20626693.337       -1617.382         -16.303           0.255  
I04  21950200.210        -708.370          -6.334           0.255  
I05  23738514.645       18127.983         223.237           0.255  
I06  22336690.524        3004.649          39.340           0.255  
I07  23673564.803       -1664.110         -30.432           0.255  
> 2019 05 08 04 26 29.7688020  0  6                     
I02  20905893.354         462.515           5.914           0.255  
I03  20626702.328       -1619.268         -16.360           0.255  
I04  21950199.542        -709.098          -7.844           0.255  
I05  23738510.378       18150.171         221.604           0.255  
I06  22336686.837        3008.415          38.838           0.255  
I07  23673553.327       -1665.708         -16.184           0.255  
> 2019 05 08 04 26 29.8688020  0  6                     
I02  20905892.691         463.135           5.631           0.255  
I03  20626694.606       -1621.228         -17.522           0.255  
I04  21950199.791        -709.891          -6.535           0.255  
I05  23738504.691       18172.350         224.022           0.255  
I06  22336686.863        3012.131          37.430           0.255  
I07  23673559.398       -1667.431          -6.609           0.255  
> 2019 05 08 04 26 29.9688020  0  6                     
I02  20905888.524         463.787           7.547           0.255  
I03  20626689.448       -1623.151         -16.460           0.255  
I04  21950193.309        -710.669          -4.694           0.255  
I05  23738497.885       18194.529         222.396           0.255  
I06  22336687.942        3015.892          38.797           0.255  
I07  23673563.686       -1669.238         -16.109           0.255  
> 2019 05 08 04 26 30.0688020  0  6                     
I02  20905889.700         464.420           5.306           0.255  
I03  20626697.396       -1625.058         -19.886           0.255  
I04  21950204.310        -711.444         -10.251           0.255  
I05  23738492.562       18216.674         219.242           0.255  
I06  22336687.916        3019.627          36.026           0.255  
I07  23673557.439       -1670.998         -20.456           0.255  
> 2019 05 08 04 26 30.1688020  0  6                     
I02  20905886.704         465.079           6.983           0.255  
I03  20626694.026       -1627.034         -15.737           0.255  
I04  21950196.316        -712.205          -6.199           0.255  
I05  23738488.898       18238.853         224.051           0.255  
I06  22336686.756        3023.378          38.193           0.255  
I07  23673551.477       -1672.722         -25.730           0.255  
> 2019 05 08 04 26 30.2688020  0  6                     
I02  20905888.172         465.683           5.780           0.255  
I03  20626687.473       -1628.967         -21.645           0.255  
I04  21950197.143        -713.014          -9.436           0.255  
I05  23738482.603       18261.038         223.188           0.255  
I06  22336687.266        3027.102          35.263           0.255  
I07  23673562.128       -1674.442         -14.423           0.255  
> 2019 05 08 04 26 30.3688020  0  6                     
I02  20905889.620         466.211           1.616           0.255  
I03  20626696.271       -1630.947         -14.806           0.255  
I04  21950208.704        -713.821          -5.093           0.255  
I05  23738474.796       18283.146         224.552           0.255  
I06  22336684.006        3030.804          40.827           0.255  
I07  23673560.796       -1676.231          -8.098           0.255  
> 2019 05 08 04 26 30.4688020  0  6                     
I02  20905884.578         466.871           6.127           0.255  
I03  20626691.904       -1632.971         -23.924           0.255  
I04  21950199.293        -714.673         -10.081           0.255  
I05  23738471.382       18305.259         220.570           0.255  
I06  22336684.695        3034.470          33.972           0.255  
I07  23673557.337       -1678.078         -15.658           0.255  
> 2019 05 08 04 26 30.5688020  0  6                     
I02  20905885.826         467.444           5.917           0.255  
I03  20626702.843       -1634.946         -21.128           0.255  
I04  21950201.846        -715.517         -14.870           0.255  
I05  23738465.784       18327.392         222.027           0.255  
I06  22336683.114        3038.196          36.911           0.255  
I07  23673552.042       -1679.903         -18.586           0.255  
> 2019 05 08 04 26 30.6688020  0  6                     
I02  20905888.405         468.061           9.256           0.255  
I03  20626695.866       -1636.887         -18.475           0.255  
I04  21950202.699        -716.207          -1.486           0.255  
I05  23738459.225       18349.557         225.783           0.255  
I06  22336682.688        3041.923          40.929           0.255  
I07  23673557.408       -1681.579         -17.593           0.255  
> 2019 05 08 04 26 30.7688020  0  6                     
I02  20905889.059         468.647           4.495           0.255  
I03  20626692.011       -1638.820         -17.757           0.255  
I04  21950197.183        -717.050          -6.688           0.255  
I05  23738454.651       18371.694         223.420           0.255  
I06  22336678.575        3045.626          35.143           0.255  
I07  23673566.322       -1683.382         -21.586           0.255  
> 2019 05 08 04 26 30.8688020  0  6                     
I02  20905892.009         469.303           0.286           0.255  
I03  20626703.111       -1640.834         -15.234           0.255  
I04  21950194.057        -717.867          -2.095           0.255  
I05  23738449.761       18393.825         225.324           0.255  
I06  22336679.058        3049.643         112.241           0.255  
I07  23673564.872       -1685.175         -18.554           0.255  
> 2019 05 08 04 26 30.9688020  0  6                     
I02  20905890.288         469.534        -123.962           0.255  
I03  20626758.183       -1642.763         -19.193           0.255  
I04  21950198.244        -719.124         -57.916           0.255  
I05  23738443.474       18415.982         222.575           0.255  
I06  22336678.637        3053.049          37.058           0.255  
I07  23673560.337       -1686.962         -16.146           0.255  
> 2019 05 08 04 26 31.0688020  0  6                     
I02  20905888.846         470.520           7.880           0.255  
I03  20626767.562       -1644.708         -15.823           0.255  
I04  21950203.392        -719.454          -5.598           0.255  
I05  23738438.354       18438.145         224.855           0.255  
I06  22336677.143        3056.788          37.699           0.255  
I07  23673551.063       -1688.679         -16.819           0.255  
> 2019 05 08 04 26 31.1688020  0  6                     
I02  20905887.543         471.128           4.113           0.255  
I03  20626764.205       -1646.676         -19.443           0.255  
I04  21950204.113        -720.271          -8.330           0.255  
I05  23738431.047       18460.282         222.229           0.255  
I06  22336675.149        3060.503          35.567           0.255  
I07  23673559.654       -1690.450         -16.581           0.255  
> 2019 05 08 04 26 31.2688020  0  6                     
I02  20905891.486         471.778           8.820           0.255  
I03  20626764.943       -1648.629         -18.897           0.255  
I04  21950204.151        -721.038          -3.262           0.255  
I05  23738425.396       18482.426         222.105           0.255  
I06  22336674.438        3064.239          39.310           0.255  
I07  23673563.023       -1692.198         -15.677           0.255  
> 2019 05 08 04 26 31.3688020  0  6                     
I02  20905887.291         472.410          13.855           0.255  
I03  20626763.767       -1650.616         -17.166           0.255  
I04  21950210.020        -721.860          -2.532           0.255  
I05  23738418.493       18504.577         223.803           0.255  
I06  22336675.327        3067.935          40.011           0.255  
I07  23673551.847       -1693.970         -14.359           0.255  
> 2019 05 08 04 26 31.4688020  0  6                     
I02  20905886.779         472.892           1.092           0.255  
I03  20626761.529       -1652.668         -22.557           0.255  
I04  21950197.661        -722.737         -11.172           0.255  
I05  23738414.957       18526.628         217.588           0.255  
I06  22336676.392        3071.557          31.876           0.255  
I07  23673552.499       -1695.848         -27.567           0.255  
> 2019 05 08 04 26 31.5688020  0  6                     
I02  20905883.315         473.510           3.886           0.255  
I03  20626764.724       -1654.627         -19.758           0.255  
I04  21950205.384        -723.559          -9.449           0.255  
I05  23738408.363       18548.781         219.790           0.255  
I06  22336672.354        3075.283          35.896           0.255  
I07  23673554.593       -1697.551         -17.540           0.255  
> 2019 05 08 04 26 31.6688020  0  6                     
I02  20905882.128         474.144           5.160           0.255  
I03  20626767.842       -1656.599         -20.008           0.255  
I04  21950207.947        -724.380          -8.543           0.255  
I05  23738400.945       18570.943         220.851           0.255  
I06  22336672.922        3078.997          35.438           0.255  
I07  23673556.287       -1699.296         -14.741           0.255  
> 2019 05 08 04 26 31.7688020  0  6                     
I02  20905885.694         474.807           6.689           0.255  
I03  20626767.833       -1658.482         -16.481           0.255  
I04  21950195.118        -725.069          -3.816           0.255  
I05  23738398.650       18593.170         225.056           0.255  
I06  22336671.524        3082.769          37.541           0.255  
I07  23673558.087       -1701.033         -11.152           0.255  
> 2019 05 08 04 26 31.8688020  0  6                     
I02  20905885.998         475.421          11.874           0.255  
I03  20626771.069       -1660.508         -19.446           0.255  
I04  21950201.136        -725.949          -8.703           0.255  
I05  23738393.387       18615.283         223.842           0.255  
I06  22336669.040        3086.447          37.649           0.255  
I07  23673558.427       -1702.847         -13.216           0.255  
> 2019 05 08 04 26 31.9688020  0  6                     
I02  20905885.566         475.987          10.628           0.255  
I03  20626769.863       -1662.450         -16.633           0.255  
I04  21950211.328        -726.721          -3.226           0.255  
I05  23738387.809       18637.431         224.530           0.255  
I06  22336670.495        3090.174          38.999           0.255  
I07  23673555.691       -1704.650         -11.303           0.255  
> 2019 05 08 04 26 32.0688020  0  6                     
I02  20905888.156         476.584           4.593           0.255  
I03  20626770.246       -1664.424         -19.233           0.255  
I04  21950193.869        -727.540          -8.421           0.255  
I05  23738383.248       18659.566         220.690           0.255  
I06  22336668.679        3093.887          35.729           0.255  
I07  23673553.743       -1706.373         -19.377           0.255  
> 2019 05 08 04 26 32.1688020  0  6                     
I02  20905884.900         477.228           4.203           0.255  
I03  20626771.257       -1666.349         -15.326           0.255  
I04  21950203.998        -728.332          -3.206           0.255  
I05  23738376.001       18681.717         221.949           0.255  
I06  22336668.283        3097.629          38.504           0.255  
I07  23673551.559       -1708.236         -20.106           0.255  
> 2019 05 08 04 26 32.2688020  0  6                     
I02  20905883.846         477.888           7.631           0.255  
I03  20626761.789       -1668.300         -19.077           0.255  
I04  21950198.284        -729.116          -9.505           0.255  
I05  23738368.049       18703.932         224.926           0.255  
I06  22336664.081        3101.382          38.466           0.255  
I07  23673555.000       -1709.789         -14.139           0.255  
> 2019 05 08 04 26 32.3688020  0  6                     
I02  20905883.515         478.434           4.424           0.255  
I03  20626761.891       -1670.319         -18.477           0.255  
I04  21950199.496        -729.944          -6.546           0.255  
I05  23738361.747       18726.005         222.038           0.255  
I06  22336667.618        3105.037          39.616           0.255  
I07  23673553.342       -1711.694         -14.392           0.255  
> 2019 05 08 04 26 32.4688020  0  6                     
I02  20905884.742         479.007           1.927           0.255  
I03  20626767.633       -1672.334         -23.350           0.255  
I04  21950203.469        -730.780          -7.430           0.255  
I05  23738355.505       18748.124         218.508           0.255  
I06  22336663.850        3108.694          34.873           0.255  
I07  23673556.069       -1713.493         -14.520           0.255  
> 2019 05 08 04 26 32.5688020  0  6                     
I02  20905887.009         479.688           6.707           0.255  
I03  20626767.352       -1674.235         -21.209           0.255  
I04  21950206.669        -731.536         -10.302           0.255  
I05  23738351.063       18770.347         219.562           0.255  
I06  22336662.690        3112.476          35.297           0.255  
I07  23673558.584       -1715.219         -17.905           0.255  
> 2019 05 08 04 26 32.6688020  0  6                     
I02  20905887.793         480.314           8.174           0.255  
I03  20626769.937       -1676.131         -19.673           0.255  
I04  21950208.463        -732.260          -6.410           0.255  
I05  23738345.763       18792.545         219.544           0.255  
I06  22336661.985        3116.255          38.035           0.255  
I07  23673560.678       -1717.010         -19.798           0.255  
> 2019 05 08 04 26 32.7688020  0  6                     
I02  20905887.053         480.948           4.735           0.255  
I03  20626763.087       -1678.087         -21.251           0.255  
I04  21950208.203        -733.019          -7.743           0.255  
I05  23738340.412       18814.718         220.262           0.255  
I06  22336660.659        3120.011          38.451           0.255  
I07  23673566.788       -1718.591         -12.107           0.255  
> 2019 05 08 04 26 32.8688020  0  6                     
I02  20905883.199         481.570           7.910           0.255  
I03  20626768.632       -1680.004         -17.544           0.255  
I04  21950195.763        -733.817          -5.598           0.255  
I05  23738335.845       18836.909         222.966           0.255  
I06  22336657.874        3123.756          40.022           0.255  
I07  23673564.254       -1720.417         -15.983           0.255  
> 2019 05 08 04 26 32.9688020  0  6                     
I02  20905883.413         481.886         -40.302           0.255  
I03  20626761.222       -1681.994         -20.884           0.255  
I04  21950204.502        -736.089        -136.679           0.255  
I05  23738331.192       18859.093         220.952           0.255  
I06  22336658.125        3127.470          35.782           0.255  
I07  23673562.560       -1722.135         -16.540           0.255  
> 2019 05 08 04 26 33.0688020  0  6                     
I02  20905883.868         482.786           5.268           0.255  
I03  20626767.519       -1683.901         -15.488           0.255  
I04  21950207.585        -735.386          -4.346           0.255  
I05  23738323.762       18881.270         222.483           0.255  
I06  22336655.352        3131.199          37.990           0.255  
I07  23673555.100       -1723.964         -22.056           0.255  
> 2019 05 08 04 26 33.1688020  0  6                     
I02  20905886.941         483.368           5.226           0.255  
I03  20626761.637       -1685.931         -21.389           0.255  
I04  21950198.126        -736.238          -9.169           0.255  
I05  23738318.609       18903.366         219.936           0.255  
I06  22336656.770        3134.870          35.467           0.255  
I07  23673557.842       -1725.708         -23.678           0.255  
> 2019 05 08 04 26 33.2688020  0  6                     
I02  20905886.501         483.974           5.663           0.255  
I03  20626765.149       -1687.888         -17.956           0.255  
I04  21950198.884        -737.002          -7.795           0.255  
I05  23738314.513       18925.539         222.859           0.255  
I06  22336657.216        3138.591          39.251           0.255  
I07  23673564.573       -1727.507         -11.919           0.255  
> 2019 05 08 04 26 33.3688020  0  6                     
I02  20905883.885         484.497           7.629           0.255  
I03  20626769.662       -1689.892         -18.335           0.255  
I04  21950206.475        -737.915         -10.111           0.255  
I05  23738307.256       18947.621         220.241           0.255  
I06  22336657.490        3142.237          37.874           0.255  
I07  23673555.461       -1729.289         -13.528           0.255  
> 2019 05 08 04 26 33.4688020  0  6                     
I02  20905882.871         485.013          10.326           0.255  
I03  20626760.978       -1691.990         -20.906           0.255  
I04  21950198.856        -738.787          -7.197           0.255  
I05  23738303.317       18969.677         219.265           0.255  
I06  22336656.174        3145.848          37.709           0.255  
I07  23673557.817       -1731.183         -22.854           0.255  
> 2019 05 08 04 26 33.5688020  0  6                     
I02  20905886.324         485.606           7.205           0.255  
I03  20626769.435       -1693.947         -19.824           0.255  
I04  21950198.586        -739.605          -7.133           0.255  
I05  23738295.332       18991.832         220.163           0.255  
I06  22336655.406        3149.570          36.233           0.255  
I07  23673558.769       -1732.978         -26.773           0.255  
> 2019 05 08 04 26 33.6688020  0  6                     
I02  20905888.025         486.182           6.595           0.255  
I03  20626760.652       -1695.950         -17.719           0.255  
I04  21950198.174        -740.427          -7.147           0.255  
I05  23738286.596       19013.976         223.483           0.255  
I06  22336654.447        3153.265          39.555           0.255  
I07  23673558.355       -1734.750         -20.893           0.255  
> 2019 05 08 04 26 33.7688020  0  6                     
I02  20905883.421         486.787           6.707           0.255  
I03  20626768.415       -1697.903         -19.384           0.255  
I04  21950203.418        -741.213          -3.263           0.255  
I05  23738283.230       19036.115         222.666           0.255  
I06  22336652.875        3156.945          36.782           0.255  
I07  23673553.874       -1736.490         -11.557           0.255  
> 2019 05 08 04 26 33.8688020  0  6                     
I02  20905879.417         486.736         -69.005           0.255  
I03  20626765.245       -1699.903         -20.094           0.255  
I04  21950195.228        -741.966         -17.216           0.255  
I05  23738279.384       19058.254         222.513           0.255  
I06  22336649.735        3159.839         -57.699           0.255  
I07  23673560.583       -1738.340         -16.333           0.255  
> 2019 05 08 04 26 33.9688020  0  6                     
I02  20905881.050         487.983           6.002           0.255  
I03  20626761.309       -1701.826         -21.417           0.255  
I04  21950199.522        -742.818          -8.139           0.255  
I05  23738272.629       19080.450         221.504           0.255  
I06  22336646.699        3164.390          36.820           0.255  
I07  23673558.937       -1740.113         -18.709           0.255  
> 2019 05 08 04 26 34.0688020  0  6                     
I02  20905878.210         488.665           5.651           0.255  
I03  20626772.965       -1703.712         -16.617           0.255  
I04  21950209.009        -743.548          -6.845           0.255  
I05  23738265.902       19102.652         221.982           0.255  
I06  22336650.946        3168.163          36.043           0.255  
I07  23673566.351       -1741.834         -21.669           0.255  
> 2019 05 08 04 26 34.1688020  0  6                     
I02  20905868.606         489.328           6.609           0.255  
I03  20626770.422       -1705.636         -19.929           0.255  
I04  21950198.952        -744.288          -5.079           0.255  
I05  23738261.882       19124.889         221.621           0.255  
I06  22336649.668        3171.944          35.611           0.255  
I07  23673555.317       -1743.434         -17.304           0.255  
> 2019 05 08 04 26 34.2688020  0  6                     
I02  20905876.536         489.990           4.970           0.255  
I03  20626769.792       -1707.518         -18.391           0.255  
I04  21950204.362        -745.012          -5.616           0.255  
I05  23738256.321       19147.130         221.623           0.255  
I06  22336648.345        3175.708          35.910           0.255  
I07  23673559.581       -1745.123         -15.296           0.255  
> 2019 05 08 04 26 34.3688020  0  6                     
I02  20905875.486         490.613           7.060           0.255  
I03  20626765.751       -1709.466         -16.683           0.255  
I04  21950196.611        -745.819          -6.202           0.255  
I05  23738251.925       19169.290         221.336           0.255  
I06  22336647.283        3179.463          38.602           0.255  
I07  23673563.743       -1746.912         -20.005           0.255  
> 2019 05 08 04 26 34.4688020  0  6                     
I02  20905873.822         491.182           1.516           0.255  
I03  20626765.286       -1711.482         -22.266           0.255  
I04  21950204.036        -746.648         -11.833           0.255  
I05  23738244.904       19191.406         215.726           0.255  
I06  22336648.135        3183.137          33.157           0.255  
I07  23673557.174       -1748.769         -31.478           0.255  
> 2019 05 08 04 26 34.5688020  0  6                     
I02  20905877.726         491.831           9.127           0.255  
I03  20626763.862       -1713.406         -16.713           0.255  
I04  21950201.468        -747.402          -8.925           0.255  
I05  23738240.827       19213.617         224.153           0.255  
I06  22336644.091        3186.880          39.145           0.255  
I07  23673557.232       -1750.518         -23.778           0.255  
> 2019 05 08 04 26 34.6688020  0  6                     
I02  20905866.260         492.436           4.508           0.255  
I03  20626764.370       -1715.387         -20.746           0.255  
I04  21950200.596        -748.229         -11.818           0.255  
I05  23738236.231       19235.758         218.126           0.255  
I06  22336641.047        3190.600          36.364           0.255  
I07  23673562.980       -1752.206         -13.252           0.255  
> 2019 05 08 04 26 34.7688020  0  6                     
I02  20905878.150         493.071           9.279           0.255  
I03  20626763.233       -1717.341         -15.495           0.255  
I04  21950200.274        -748.998          -9.755           0.255  
I05  23738230.342       19257.937         221.314           0.255  
I06  22336641.640        3194.308          38.315           0.255  
I07  23673565.701       -1754.035         -21.512           0.255  
> 2019 05 08 04 26 34.8688020  0  6                     
I02  20905877.046         493.702           8.120           0.255  
I03  20626762.370       -1719.333         -17.796           0.255  
I04  21950210.111        -749.812          -6.241           0.255  
I05  23738223.625       19280.112         224.628           0.255  
I06  22336640.007        3197.715          21.103           0.255  
I07  23673562.989       -1755.822         -16.715           0.255  
> 2019 05 08 04 26 34.9688020  0  6                     
I02  20905870.827         494.298           6.735           0.255  
I03  20626763.480       -1721.285         -16.187           0.255  
I04  21950202.356        -750.587          -5.630           0.255  
I05  23738218.538       19302.272         222.689           0.255  
I06  22336641.395        3201.717          38.521           0.255  
I07  23673555.441       -1757.535         -17.362           0.255  
> 2019 05 08 04 26 35.0688020  0  6                     
I02  20905873.118         494.944           3.638           0.255  
I03  20626768.070       -1723.215         -18.837           0.255  
I04  21950211.817        -751.379          -7.496           0.255  
I05  23738210.439       19324.467         222.991           0.255  
I06  22336638.384        3205.457          39.197           0.255  
I07  23673563.872       -1759.398         -20.709           0.255  
> 2019 05 08 04 26 35.1688020  0  6                     
I02  20905871.023         495.580           7.826           0.255  
I03  20626768.584       -1725.222         -19.517           0.255  
I04  21950200.800        -752.146          -5.401           0.255  
I05  23738205.447       19346.599         222.350           0.255  
I06  22336638.607        3209.139          35.949           0.255  
I07  23673575.972       -1761.163         -22.132           0.255  
> 2019 05 08 04 26 35.2688020  0  6                     
I02  20905870.076         496.206           4.927           0.255  
I03  20626769.450       -1727.169         -18.887           0.255  
I04  21950205.579        -752.995          -6.164           0.255  
I05  23738198.779       19368.796         225.547           0.255  
I06  22336636.638        3212.877          36.983           0.255  
I07  23673627.762       -1762.801         -11.600           0.255  
> 2019 05 08 04 26 35.3688020  0  6                     
I02  20905866.734         496.759           6.023           0.255  
I03  20626771.955       -1729.202         -21.366           0.255  
I04  21950199.175        -753.830         -10.440           0.255  
I05  23738191.972       19390.856         221.377           0.255  
I06  22336626.499        3216.523          34.692           0.255  
I07  23673631.545       -1764.673         -15.049           0.255  
> 2019 05 08 04 26 35.4688020  0  6                     
I02  20905867.622         497.316           4.607           0.255  
I03  20626761.764       -1731.189         -21.406           0.255  
I04  21950200.043        -754.673         -10.434           0.255  
I05  23738188.139       19413.002         219.834           0.255  
I06  22336632.579        3220.210          36.020           0.255  
I07  23673626.992       -1766.493         -20.811           0.255  
> 2019 05 08 04 26 35.5688020  0  6                     
I02  20905876.417         498.360          40.359           0.255  
I03  20626766.824       -1733.152         -21.274           0.255  
I04  21950204.917        -755.580         -30.729           0.255  
I05  23738182.944       19435.211         221.235           0.255  
I06  22336633.485        3224.433         124.804           0.255  
I07  23673630.507       -1768.232         -19.757           0.255  
> 2019 05 08 04 26 35.6688020  0  6                     
I02  20905876.265         498.611           3.986           0.255  
I03  20626764.201       -1735.066         -18.797           0.255  
I04  21950199.659        -756.224          -9.218           0.255  
I05  23738175.915       19457.401         223.403           0.255  
I06  22336634.889        3227.697          38.195           0.255  
I07  23673626.372       -1769.944         -14.966           0.255  
> 2019 05 08 04 26 35.7688020  0  6                     
I02  20905869.336         499.286           7.658           0.255  
I03  20626765.821       -1737.009         -20.946           0.255  
I04  21950203.738        -756.937          -4.474           0.255  
I05  23738172.188       19479.604         222.373           0.255  
I06  22336636.126        3231.458          37.730           0.255  
I07  23673629.320       -1771.621         -11.476           0.255  
> 2019 05 08 04 26 35.8688020  0  6                     
I02  20905871.076         499.952          13.169           0.255  
I03  20626771.410       -1738.915         -17.525           0.255  
I04  21950205.283        -757.734          -4.283           0.255  
I05  23738168.189       19501.821         224.091           0.255  
I06  22336632.052        3235.222          41.206           0.255  
I07  23673625.985       -1773.438         -11.900           0.255  
> 2019 05 08 04 26 35.9688020  0  6                     
I02  20905868.505         500.601           5.434           0.255  
I03  20626763.084       -1740.878         -22.912           0.255  
I04  21950194.768        -758.494          -8.954           0.255  
I05  23738162.196       19524.015         220.724           0.255  
I06  22336630.180        3238.954          36.443           0.255  
I07  23673629.706       -1775.131         -14.965           0.255  
> 2019 05 08 04 26 36.0688020  0  6                     
I02  20905867.411         501.247           7.141           0.255  
I03  20626768.296       -1742.792         -17.188           0.255  
I04  21950201.801        -759.269          -6.858           0.255  
I05  23738152.951       19546.225         223.622           0.255  
I06  22336630.541        3242.686          36.689           0.255  
I07  23673631.949       -1776.969         -29.352           0.255  
> 2019 05 08 04 26 36.1688020  0  6                     
I02  20905876.820         501.871           8.947           0.255  
I03  20626763.850       -1744.777         -21.649           0.255  
I04  21950195.804        -760.073          -9.155           0.255  
I05  23738148.052       19568.393         222.820           0.255  
I06  22336630.260        3246.408          35.722           0.255  
I07  23673628.881       -1778.697         -21.632           0.255  
> 2019 05 08 04 26 36.2688020  0  6                     
I02  20905873.435         502.463           4.639           0.255  
I03  20626772.080       -1746.720         -17.093           0.255  
I04  21950202.104        -760.885         -10.277           0.255  
I05  23738146.713       19590.555         223.441           0.255  
I06  22336629.111        3250.116          38.219           0.255  
I07  23673633.500       -1780.455         -15.886           0.255  
> 2019 05 08 04 26 36.3688020  0  6                     
I02  20905870.692         503.087           6.951           0.255  
I03  20626766.836       -1748.698         -16.604           0.255  
I04  21950195.950        -761.642          -7.141           0.255  
I05  23738138.760       19612.698         222.531           0.255  
I06  22336630.680        3253.819          37.945           0.255  
I07  23673625.846       -1782.289         -23.260           0.255  
> 2019 05 08 04 26 36.4688020  0  6                     
I02  20905877.392         503.595           3.717           0.255  
I03  20626765.451       -1750.763         -22.773           0.255  
I04  21950205.514        -762.543         -11.227           0.255  
I05  23738131.611       19634.798         217.953           0.255  
I06  22336632.082        3257.429          35.959           0.255  
I07  23673632.929       -1784.064         -15.958           0.255  
> 2019 05 08 04 26 36.5688020  0  6                     
I02  20905872.567         504.218           4.911           0.255  
I03  20626760.844       -1752.740         -21.536           0.255  
I04  21950198.514        -763.334          -6.430           0.255  
I05  23738126.644       19656.992         224.172           0.255  
I06  22336626.299        3261.170          36.584           0.255  
I07  23673630.598       -1785.786          -6.257           0.255  
> 2019 05 08 04 26 36.6688020  0  6                     
I02  20905877.292         504.734           2.938           0.255  
I03  20626765.921       -1754.700         -21.048           0.255  
I04  21950207.104        -764.365          -0.309           0.255  
I05  23738121.315       19679.130         220.587           0.255  
I06  22336622.577        3264.678          48.524           0.255  
I07  23673629.697       -1787.664         -16.667           0.255  
> 2019 05 08 04 26 36.7688020  0  6                     
I02  20905871.517         505.456           7.947           0.255  
I03  20626765.014       -1756.640         -16.608           0.255  
I04  21950200.555        -764.924          -9.639           0.255  
I05  23738115.075       19701.326         222.563           0.255  
I06  22336622.346        3268.573          37.663           0.255  
I07  23673629.722       -1789.462         -26.127           0.255  
> 2019 05 08 04 26 36.8688020  0  6                     
I02  20905876.747         506.043           6.593           0.255  
I03  20626770.155       -1758.638         -19.805           0.255  
I04  21950208.196        -765.741          -6.636           0.255  
I05  23738111.279       19723.453         220.909           0.255  
I06  22336619.129        3272.279          37.692           0.255  
I07  23673628.226       -1791.237         -19.854           0.255  
> 2019 05 08 04 26 36.9688020  0  6                     
I02  20905873.167         506.685           7.318           0.255  
I03  20626767.579       -1760.585         -17.581           0.255  
I04  21950200.186        -766.498          -7.222           0.255  
I05  23738105.186       19745.645         221.686           0.255  
I06  22336619.979        3276.001          36.958           0.255  
I07  23673636.718       -1792.959         -16.660           0.255  
> 2019 05 08 04 26 37.0688020  0  6                     
I02  20905866.038         507.324           4.945           0.255  
I03  20626764.345       -1762.507         -19.539           0.255  
I04  21950209.821        -767.277          -6.192           0.255  
I05  23738098.086       19767.880         223.095           0.255  
I06  22336620.224        3279.733          35.242           0.255  
I07  23673624.731       -1794.689         -16.046           0.255  
> 2019 05 08 04 26 37.1688020  0  6                     
I02  20905875.721         507.965           4.428           0.255  
I03  20626761.450       -1764.445         -16.990           0.255  
I04  21950199.950        -768.036          -7.647           0.255  
I05  23738093.700       19790.097         225.807           0.255  
I06  22336619.569        3283.500          37.047           0.255  
I07  23673630.391       -1796.456         -17.530           0.255  
> 2019 05 08 04 26 37.2688020  0  6                     
I02  20905867.717         508.677           6.367           0.255  
I03  20626768.632       -1766.358         -18.685           0.255  
I04  21950200.757        -768.778          -8.377           0.255  
I05  23738086.304       19812.331         223.659           0.255  
I06  22336620.555        3287.259          35.984           0.255  
I07  23673627.424       -1798.166         -11.471           0.255  
> 2019 05 08 04 26 37.3688020  0  6                     
I02  20905871.412         509.250           6.639           0.255  
I03  20626769.771       -1768.359         -19.248           0.255  
I04  21950197.607        -769.571          -6.696           0.255  
I05  23738081.385       19834.440         222.781           0.255  
I06  22336618.547        3290.961          39.129           0.255  
I07  23673624.162       -1799.979         -22.586           0.255  
> 2019 05 08 04 26 37.4688020  0  6                     
I02  20905873.254         509.851           7.834           0.255  
I03  20626769.551       -1770.340         -19.535           0.255  
I04  21950193.751        -770.407        -105.265           0.255  
I05  23738077.757       19856.594         222.483           0.255  
I06  22336616.967        3294.639          36.254           0.255  
I07  23673638.065       -1801.729         -17.126           0.255  
> 2019 05 08 04 26 37.5688020  0  6                     
I02  20905872.077         509.753         -30.747           0.255  
I03  20626765.647       -1772.287         -19.292           0.255  
I04  21950201.298        -772.577         -21.241           0.255  
I05  23738070.351       19878.795         220.505           0.255  
I06  22336616.241        3298.380         158.414           0.255  
I07  23673630.478       -1803.489         -21.148           0.255  
> 2019 05 08 04 26 37.6688020  0  6                     
I02  20905874.429         511.182           8.188           0.255  
I03  20626762.010       -1774.192         -19.350           0.255  
I04  21950210.384        -771.925          -6.737           0.255  
I05  23738063.904       19901.059         224.975           0.255  
I06  22336618.344        3302.162          38.731           0.255  
I07  23673629.686       -1805.171         -14.820           0.255  
> 2019 05 08 04 26 37.7688020  0  6                     
I02  20905876.018         511.781           1.800           0.255  
I03  20626771.730       -1776.171         -21.974           0.255  
I04  21950201.507        -772.339          72.389           0.255  
I05  23738057.890       19923.245         222.847           0.255  
I06  22336615.650        3305.877          37.171           0.255  
I07  23673628.532       -1806.912          -7.342           0.255  
> 2019 05 08 04 26 37.8688020  0  6                     
I02  20905874.140         512.398           8.395           0.255  
I03  20626769.226       -1778.151         -17.029           0.255  
I04  21950196.507        -773.499          -8.248           0.255  
I05  23738052.634       19945.398         225.275           0.255  
I06  22336613.373        3309.585          41.258           0.255  
I07  23673629.250       -1808.588          -3.597           0.255  
> 2019 05 08 04 26 37.9688020  0  6                     
I02  20905874.178         513.027           4.523           0.255  
I03  20626766.324       -1780.079         -18.892           0.255  
I04  21950207.827        -774.290         -10.063           0.255  
I05  23738047.160       19967.592         222.649           0.255  
I06  22336614.077        3313.325          38.267           0.255  
I07  23673637.864       -1810.410          -8.491           0.255  
> 2019 05 08 04 26 38.0688020  0  6                     
I02  20905865.602         513.667           6.293           0.255  
I03  20626764.079       -1781.998         -18.890           0.255  
I04  21950198.948        -775.028          -3.061           0.255  
I05  23738042.273       19989.817         226.006           0.255  
I06  22336610.638        3317.044          37.994           0.255  
I07  23673628.486       -1812.266         -17.698           0.255  
> 2019 05 08 04 26 38.1688020  0  6                     
I02  20905869.325         514.352           6.571           0.255  
I03  20626765.236       -1783.919         -19.061           0.255  
I04  21950200.345        -775.792          -7.374           0.255  
I05  23738038.359       20012.015         220.955           0.255  
I06  22336608.787        3320.819          36.277           0.255  
I07  23673630.213       -1813.991         -18.368           0.255  
> 2019 05 08 04 26 38.2688020  0  6                     
I02  20905873.405         514.994           5.959           0.255  
I03  20626765.703       -1785.879         -19.515           0.255  
I04  21950193.881        -776.559          -4.918           0.255  
I05  23738034.222       20034.223         220.975           0.255  
I06  22336611.829        3324.540          34.757           0.255  
I07  23673637.334       -1815.714         -24.434           0.255  
> 2019 05 08 04 26 38.3688020  0  6                     
I02  20905872.571         515.615           9.180           0.255  
I03  20626767.482       -1787.832         -16.971           0.255  
I04  21950202.563        -777.375          -9.014           0.255  
I05  23738025.456       20056.420         224.490           0.255  
I06  22336609.025        3328.256          37.529           0.255  
I07  23673631.561       -1817.366          -9.616           0.255  
> 2019 05 08 04 26 38.4688020  0  6                     
I02  20905871.964         516.133          -2.153           0.255  
I03  20626766.387       -1789.902         -24.121           0.255  
I04  21950210.893        -778.231          -9.160           0.255  
I05  23738019.348       20078.490         216.583           0.255  
I06  22336608.099        3331.870          33.335           0.255  
I07  23673630.951       -1819.259         -12.889           0.255  
> 2019 05 08 04 26 38.5688020  0  6                     
I02  20905874.057         516.807           6.082           0.255  
I03  20626767.821       -1791.816         -19.867           0.255  
I04  21950204.896        -778.973          -6.586           0.255  
I05  23738012.629       20100.703         222.674           0.255  
I06  22336606.293        3336.681         159.574           0.255  
I07  23673635.246       -1821.064         -17.983           0.255  
> 2019 05 08 04 26 38.6688020  0  6                     
I02  20905871.825         517.448           5.428           0.255  
I03  20626770.354       -1793.769         -17.001           0.255  
I04  21950204.997        -779.783         -10.333           0.255  
I05  23738007.673       20122.895         220.649           0.255  
I06  22336603.834        3339.324          34.309           0.255  
I07  23673628.818       -1822.850         -20.189           0.255  
> 2019 05 08 04 26 38.7688020  0  6                     
I02  20905872.594         518.070           7.514           0.255  
I03  20626764.324       -1795.739         -15.690           0.255  
I04  21950197.907        -780.584          -5.866           0.255  
I05  23738001.226       20145.114         226.338           0.255  
I06  22336606.484        3343.055          38.185           0.255  
I07  23673633.341       -1824.591         -18.364           0.255  
> 2019 05 08 04 26 38.8688020  0  6                     
I02  20905874.829         518.693          12.956           0.255  
I03  20626762.736       -1797.716         -18.127           0.255  
I04  21950209.341        -781.340          -5.420           0.255  
I05  23737998.221       20167.285         223.111           0.255  
I06  22336604.901        3346.769          36.730           0.255  
I07  23673631.570       -1826.395         -20.723           0.255  
> 2019 05 08 04 26 38.9688020  0  6                     
I02  20905872.011         519.294           9.185           0.255  
I03  20626765.547       -1799.664         -19.174           0.255  
I04  21950205.595        -782.149          -7.767           0.255  
I05  23737991.267       20189.495         222.921           0.255  
I06  22336603.898        3350.514          40.954           0.255  
I07  23673627.705       -1828.071         -17.145           0.255  
> 2019 05 08 04 26 39.0688020  0  6                     
I02  20905871.593         519.957           5.657           0.255  
I03  20626772.155       -1801.558         -16.927           0.255  
I04  21950200.268        -782.884          -9.131           0.255  
I05  23737986.616       20211.733         223.786           0.255  
I06  22336604.489        3354.266          34.844           0.255  
I07  23673634.041       -1829.887         -25.431           0.255  
> 2019 05 08 04 26 39.1688020  0  6                     
I02  20905872.741         520.566           6.784           0.255  
I03  20626762.214       -1803.536         -19.595           0.255  
I04  21950197.929        -783.670          -7.368           0.255  
I05  23737980.364       20233.859         219.275           0.255  
I06  22336602.384        3357.983          34.860           0.255  
I07  23673636.090       -1831.625         -17.239           0.255  
> 2019 05 08 04 26 39.2688020  0  6                     
I02  20905872.711         521.225           6.009           0.255  
I03  20626766.629       -1805.456         -17.785           0.255  
I04  21950199.949        -784.405          -3.583           0.255  
I05  23737972.224       20256.145         223.685           0.255  
I06  22336600.115        3361.746          37.777           0.255  
I07  23673630.403       -1833.321         -16.884           0.255  
> 2019 05 08 04 26 39.3688020  0  6                     
I02  20905873.093         521.777           6.869           0.255  
I03  20626768.855       -1807.450         -19.405           0.255  
I04  21950194.033        -785.216          -6.570           0.255  
I05  23737967.751       20278.282         222.059           0.255  
I06  22336600.292        3365.449          40.025           0.255  
I07  23673626.663       -1835.221         -16.718           0.255  
> 2019 05 08 04 26 39.4688020  0  6                     
I02  20905870.538         522.361           9.623           0.255  
I03  20626773.383       -1809.471         -19.416           0.255  
I04  21950211.164        -786.066          -6.432           0.255  
I05  23737963.623       20300.432         224.117           0.255  
I06  22336599.719        3370.341          92.128           0.255  
I07  23673637.085       -1836.994         -19.946           0.255  
> 2019 05 08 04 26 39.5688020  0  6                     
I02  20905871.476         522.939           6.166           0.255  
I03  20626762.676       -1811.480         -23.378           0.255  
I04  21950203.228        -786.872         -10.521           0.255  
I05  23737958.754       20322.568         219.698           0.255  
I06  22336600.206        3372.783          34.404           0.255  
I07  23673628.244       -1838.697         -12.486           0.255  
> 2019 05 08 04 26 39.6688020  0  6                     
I02  20905871.056         523.542           9.828           0.255  
I03  20626766.087       -1813.434         -17.244           0.255  
I04  21950199.260        -787.674          -4.087           0.255  
I05  23737953.252       20344.705         221.359           0.255  
I06  22336598.814        3376.467          37.769           0.255  
I07  23673634.443       -1840.535          -8.181           0.255  
> 2019 05 08 04 26 39.7688020  0  6                     
I02  20905870.667         524.146           6.439           0.255  
I03  20626774.473       -1815.412         -19.752           0.255  
I04  21950200.106        -788.461          -9.318           0.255  
I05  23737947.119       20366.911         221.328           0.255  
I06  22336599.287        3380.210          37.400           0.255  
I07  23673637.991       -1842.357         -17.354           0.255  
> 2019 05 08 04 26 39.8688020  0  6                     
I02  20905873.100         524.757           9.441           0.255  
I03  20626765.711       -1817.416         -16.122           0.255  
I04  21950197.165        -789.282          -3.254           0.255  
I05  23737943.518       20389.066         223.413           0.255  
I06  22336598.693        3383.881          41.159           0.255  
I07  23673625.713       -1844.113         -24.169           0.255  
> 2019 05 08 04 26 39.9688020  0  6                     
I02  20905872.366         525.388          11.156           0.255  
I03  20626774.129       -1819.373         -20.269           0.255  
I04  21950210.810        -790.100          -8.633           0.255  
I05  23737938.932       20411.275         222.748           0.255  
I06  22336596.085        3387.603          39.529           0.255  
I07  23673625.110       -1845.864         -18.068           0.255  
> 2019 05 08 04 26 40.0688020  0  6                     
I02  20905871.192         525.933           8.429           0.255  
I03  20626765.759       -1821.345         -21.279           0.255  
I04  21950204.589        -790.912         -12.792           0.255  
I05  23737930.608       20433.458         220.891           0.255  
I06  22336595.511        3391.281          36.197           0.255  
I07  23673632.121       -1847.645         -16.715           0.255  
> 2019 05 08 04 26 40.1688020  0  6                     
I02  20905872.207         526.574           5.404           0.255  
I03  20626771.727       -1823.256         -19.374           0.255  
I04  21950200.797        -791.634         -11.789           0.255  
I05  23737925.727       20455.677         222.909           0.255  
I06  22336593.793        3395.059          38.378           0.255  
I07  23673634.902       -1849.369         -18.409           0.255  
> 2019 05 08 04 26 40.2688020  0  6                     
I02  20905872.086         527.295           3.308           0.255  
I03  20626765.500       -1825.152         -20.095           0.255  
I04  21950194.933        -792.348          -8.541           0.255  
I05  23737920.024       20477.952         221.557           0.255  
I06  22336592.088        3398.871          40.159           0.255  
I07  23673628.969       -1851.025         -12.413           0.255  
> 2019 05 08 04 26 40.3688020  0  6                     
I02  20905870.230         527.961           5.560           0.255  
I03  20626773.327       -1827.100         -18.368           0.255  
I04  21950207.416        -793.114          -8.153           0.255  
I05  23737913.530       20500.192         225.243           0.255  
I06  22336592.605        3402.589          38.258           0.255  
I07  23673632.669       -1852.749         -21.742           0.255  
> 2019 05 08 04 26 40.4688020  0  6                     
I02  20905869.371         528.614           3.663           0.255  
I03  20626770.884       -1829.012         -21.988           0.255  
I04  21950205.760        -792.404          75.033           0.255  
I05  23737908.209       20522.410         221.519           0.255  
I06  22336591.609        3406.334          36.282           0.255  
I07  23673629.906       -1854.522         -14.653           0.255  
> 2019 05 08 04 26 40.5688020  0  6                     
I02  20905871.984         528.914         -88.454           0.255  
I03  20626765.871       -1830.867         -19.426           0.255  
I04  21950202.387        -794.539         -11.863           0.255  
I05  23737898.460       20544.704         222.806           0.255  
I06  22336591.380        3410.134          35.455           0.255  
I07  23673627.628       -1856.176         -15.746           0.255  
> 2019 05 08 04 26 40.6688020  0  6                     
I02  20905869.321         529.984         -33.570           0.255  
I03  20626776.563       -1832.832         -19.980           0.255  
I04  21950204.093        -796.341        -143.200           0.255  
I05  23737892.114       20566.903         221.925           0.255  
I06  22336589.637        3413.851          33.037           0.255  
I07  23673631.656       -1857.951         -12.746           0.255  
> 2019 05 08 04 26 40.7688020  0  6                     
I02  20905869.970         530.603           6.760           0.255  
I03  20626770.314       -1834.767         -16.009           0.255  
I04  21950201.132        -796.080          -5.018           0.255  
I05  23737889.505       20589.144         227.607           0.255  
I06  22336587.068        3417.595          36.473           0.255  
I07  23673633.808       -1859.727         -11.244           0.255  
> 2019 05 08 04 26 40.8688020  0  6                     
I02  20905871.271         531.198           6.749           0.255  
I03  20626766.732       -1836.763         -15.741           0.255  
I04  21950197.043        -796.878          -4.613           0.255  
I05  23737882.538       20611.283         225.454           0.255  
I06  22336587.941        3421.290          37.446           0.255  
I07  23673637.983       -1861.597         -24.953           0.255  
> 2019 05 08 04 26 40.9688020  0  6                     
I02  20905871.380         531.826           8.785           0.255  
I03  20626763.252       -1838.738         -16.731           0.255  
I04  21950194.994        -797.701          -5.800           0.255  
I05  23737875.725       20633.462         222.954           0.255  
I06  22336584.547        3424.989          36.919           0.255  
I07  23673638.859       -1863.285         -17.435           0.255  
> 2019 05 08 04 26 41.0688020  0  6                     
I02  20905872.362         532.440           6.167           0.255  
I03  20626770.978       -1840.697         -20.556           0.255  
I04  21950207.592        -798.458          -9.171           0.255  
I05  23737870.740       20655.645         220.139           0.255  
I06  22336583.477        3428.720          35.831           0.255  
I07  23673626.227       -1865.054         -20.304           0.255  
> 2019 05 08 04 26 41.1688020  0  6                     
I02  20905870.142         533.097          10.258           0.255  
I03  20626767.014       -1842.653         -20.109           0.255  
I04  21950207.069        -799.222          -1.992           0.255  
I05  23737864.873       20677.870         224.004           0.255  
I06  22336584.156        3432.452          38.128           0.255  
I07  23673636.563       -1866.834         -19.233           0.255  
> 2019 05 08 04 26 41.2688020  0  6                     
I02  20905870.036         533.768           7.762           0.255  
I03  20626762.762       -1844.572         -18.750           0.255  
I04  21950211.018        -800.006          -7.909           0.255  
I05  23737862.359       20700.117         223.922           0.255  
I06  22336586.085        3436.201          36.390           0.255  
I07  23673629.181       -1868.595         -17.909           0.255  
> 2019 05 08 04 26 41.3688020  0  6                     
I02  20905869.139         534.336           8.674           0.255  
I03  20626775.781       -1846.581         -19.588           0.255  
I04  21950200.197        -800.831          -6.886           0.255  
I05  23737854.798       20722.261         221.667           0.255  
I06  22336583.483        3439.878          40.200           0.255  
I07  23673632.532       -1870.365         -10.439           0.255  
> 2019 05 08 04 26 41.4688020  0  6                     
I02  20905870.154         534.923           5.263           0.255  
I03  20626771.342       -1848.580         -18.995           0.255  
I04  21950196.574        -801.677          -6.987           0.255  
I05  23737851.034       20744.415         221.480           0.255  
I06  22336581.235        3443.522          36.857           0.255  
I07  23673639.109       -1872.228         -22.084           0.255  
> 2019 05 08 04 26 41.5688020  0  6                     
I02  20905868.965         535.524           0.332           0.255  
I03  20626768.094       -1850.585         -19.229           0.255  
I04  21950204.244        -802.480          -9.483           0.255  
I05  23737844.464       20766.566         219.770           0.255  
I06  22336579.536        3447.206          35.927           0.255  
I07  23673630.044       -1873.990         -18.486           0.255  
> 2019 05 08 04 26 41.6688020  0  6                     
I02  20905869.539         536.146           9.109           0.255  
I03  20626767.231       -1852.540         -17.071           0.255  
I04  21950208.581        -803.280          -3.397           0.255  
I05  23737836.418       20788.753         222.701           0.255  
I06  22336579.970        3450.928          39.473           0.255  
I07  23673631.493       -1875.760          -8.558           0.255  
> 2019 05 08 04 26 41.7688020  0  6                     
I02  20905870.427         536.747           6.438           0.255  
I03  20626764.430       -1854.531         -19.160           0.255  
I04  21950197.693        -804.092         -10.861           0.255  
I05  23737831.896       20810.964         223.540           0.255  
I06  22336576.782        3454.618          35.949           0.255  
I07  23673637.631       -1877.503         -18.410           0.255  
> 2019 05 08 04 26 41.8688020  0  6                     
I02  20905868.628         537.339           9.909           0.255  
I03  20626762.429       -1856.529         -14.680           0.255  
I04  21950194.905        -804.869          -4.648           0.255  
I05  23737826.083       20833.132         228.931           0.255  
I06  22336576.598        3458.320          38.547           0.255  
I07  23673627.296       -1879.297         -10.652           0.255  
> 2019 05 08 04 26 41.9688020  0  6                     
I02  20905866.419         537.991           5.939           0.255  
I03  20626763.670       -1858.468         -19.698           0.255  
I04  21950195.389        -805.642          -5.821           0.255  
I05  23737820.544       20855.341         221.543           0.255  
I06  22336577.698        3462.058          37.871           0.255  
I07  23673627.971       -1881.102          -8.632           0.255  
> 2019 05 08 04 26 42.0688020  0  6                     
I02  20905867.764         538.615           3.728           0.255  
I03  20626774.243       -1860.420         -19.936           0.255  
I04  21950196.928        -806.423          -5.362           0.255  
I05  23737814.628       20877.543         219.896           0.255  
I06  22336575.943        3465.775          39.132           0.255  
I07  23673635.100       -1882.879         -16.565           0.255  
> 2019 05 08 04 26 42.1688020  0  6                     
I02  20905869.412         539.256           5.053           0.255  
I03  20626770.421       -1862.386         -21.259           0.255  
I04  21950210.299        -807.228          -9.998           0.255  
I05  23737810.665       20899.760         223.442           0.255  
I06  22336572.288        3469.493          37.879           0.255  
I07  23673640.730       -1884.553          -8.803           0.255  
> 2019 05 08 04 26 42.2688020  0  6                     
I02  20905871.569         539.886           7.092           0.255  
I03  20626768.905       -1864.356         -20.375           0.255  
I04  21950203.914        -807.983          -5.890           0.255  
I05  23737804.327       20921.946         220.585           0.255  
I06  22336573.663        3473.170          34.333           0.255  
I07  23673633.955       -1886.397         -25.993           0.255  
> 2019 05 08 04 26 42.3688020  0  6                     
I02  20905869.527         540.491           9.051           0.255  
I03  20626767.961       -1866.342         -16.349           0.255  
I04  21950203.713        -808.836          -9.145           0.255  
I05  23737798.330       20944.125         226.185           0.255  
I06  22336573.913        3476.859          38.113           0.255  
I07  23673641.211       -1888.192         -18.222           0.255  
> 2019 05 08 04 26 42.4688020  0  6                     
I02  20905870.946         539.878        -173.670           0.255  
I03  20626767.156       -1868.407         -23.304           0.255  
I04  21950199.608        -809.716         -12.046           0.255  
I05  23737792.993       20966.200         218.239           0.255  
I06  22336574.281        3480.474          33.419           0.255  
I07  23673630.963       -1890.040         -17.430           0.255  
> 2019 05 08 04 26 42.5688020  0  6                     
I02  20905868.897         541.646           7.893           0.255  
I03  20626768.708       -1870.405         -19.435           0.255  
I04  21950198.298        -810.507          -5.581           0.255  
I05  23737780.192       20988.414         223.072           0.255  
I06  22336571.471        3484.185          36.710           0.255  
I07  23673638.278       -1891.839         -19.322           0.255  
> 2019 05 08 04 26 42.6688020  0  6                     
I02  20905868.634         542.259           8.970           0.255  
I03  20626767.430       -1872.387         -22.038           0.255  
I04  21950210.601        -811.327          -8.429           0.255  
I05  23737778.724       21010.562         221.024           0.255  
I06  22336568.747        3487.869          39.080           0.255  
I07  23673636.894       -1893.617         -13.441           0.255  
> 2019 05 08 04 26 42.7688020  0  6                     
I02  20905869.711         542.859          10.009           0.255  
I03  20626767.191       -1874.371         -19.744           0.255  
I04  21950195.162        -812.139          -5.897           0.255  
I05  23737775.884       21032.743         223.202           0.255  
I06  22336568.328        3491.561          39.502           0.255  
I07  23673634.282       -1895.462         -14.519           0.255  
> 2019 05 08 04 26 42.8688020  0  6                     
I02  20905868.444         543.478           7.020           0.255  
I03  20626768.403       -1876.347         -17.299           0.255  
I04  21950194.695        -812.932          -4.792           0.255  
I05  23737771.739       21054.941         227.245           0.255  
I06  22336567.808        3495.264          41.322           0.255  
I07  23673627.374       -1897.198         -10.116           0.255  
> 2019 05 08 04 26 42.9688020  0  6                     
I02  20905865.083         544.095           6.332           0.255  
I03  20626771.435       -1878.349         -19.997           0.255  
I04  21950198.905        -813.766         -10.557           0.255  
I05  23737766.936       21077.117         220.956           0.255  
I06  22336565.468        3498.973          38.870           0.255  
I07  23673629.813       -1898.964         -16.773           0.255  
> 2019 05 08 04 26 43.0688020  0  6                     
I02  20905862.639         544.783           9.721           0.255  
I03  20626771.309       -1880.278         -17.367           0.255  
I04  21950200.336        -814.489          -7.697           0.255  
I05  23737756.104       21099.359         222.254           0.255  
I06  22336565.294        3502.696          37.269           0.255  
I07  23673629.223       -1900.754         -16.424           0.255  
> 2019 05 08 04 26 43.1688020  0  6                     
I02  20905868.307         545.381           6.369           0.255  
I03  20626772.776       -1882.247         -21.915           0.255  
I04  21950198.516        -815.303          -8.863           0.255  
I05  23737754.747       21121.549         219.214           0.255  
I06  22336563.806        3506.394          36.978           0.255  
I07  23673634.871       -1902.597         -20.014           0.255  
> 2019 05 08 04 26 43.2688020  0  6                     
I02  20905868.040         545.269         -52.082           0.255  
I03  20626762.555       -1884.163         -17.555           0.255  
I04  21950196.945        -816.039          -4.403           0.255  
I05  23737748.354       21143.788         224.266           0.255  
I06  22336564.051        3510.817         177.634           0.255  
I07  23673631.023       -1904.262          -9.249           0.255  
> 2019 05 08 04 26 43.3688020  0  6                     
I02  20905867.062         546.637           6.493           0.255  
I03  20626766.768       -1886.198         -19.243           0.255  
I04  21950208.091        -816.891          -7.557           0.255  
I05  23737743.523       21165.940         222.200           0.255  
I06  22336562.158        3513.787          34.109           0.255  
I07  23673638.205       -1906.131         -20.663           0.255  
> 2019 05 08 04 26 43.4688020  0  6                     
I02  20905867.816         547.251           6.471           0.255  
I03  20626768.369       -1888.139         -16.419           0.255  
I04  21950207.018        -817.660          -5.533           0.255  
I05  23737738.603       21188.161         224.732           0.255  
I06  22336549.679        3517.502          36.257           0.255  
I07  23673640.019       -1907.906         -19.175           0.255  
> 2019 05 08 04 26 43.5688020  0  6                     
I02  20905867.450         547.890           6.159           0.255  
I03  20626772.878       -1890.106         -19.215           0.255  
I04  21950209.812        -818.441         -11.763           0.255  
I05  23737733.462       21210.323         216.760           0.255  
I06  22336558.040        3521.202          36.144           0.255  
I07  23673626.998       -1909.615         -22.643           0.255  
> 2019 05 08 04 26 43.6688020  0  6                     
I02  20905866.087         548.521          10.303           0.255  
I03  20626775.065       -1892.100         -15.800           0.255  
I04  21950206.442        -819.234          -7.058           0.255  
I05  23737727.574       21232.548         222.968           0.255  
I06  22336556.461        3524.932          39.441           0.255  
I07  23673638.027       -1911.395         -21.601           0.255  
> 2019 05 08 04 26 43.7688020  0  6                     
I02  20905866.147         549.158           5.926           0.255  
I03  20626763.907       -1894.056         -17.154           0.255  
I04  21950203.707        -820.028          -8.691           0.255  
I05  23737722.303       21254.742         219.263           0.255  
I06  22336557.536        3528.666          38.287           0.255  
I07  23673635.630       -1913.157         -22.265           0.255  
> 2019 05 08 04 26 43.8688020  0  6                     
I02  20905863.311         549.736           8.255           0.255  
I03  20626769.217       -1896.068         -16.943           0.255  
I04  21950205.397        -820.815          -1.764           0.255  
I05  23737716.839       21276.922         223.284           0.255  
I06  22336559.278        3532.318          37.826           0.255  
I07  23673630.625       -1914.941         -15.932           0.255  
> 2019 05 08 04 26 43.9688020  0  6                     
I02  20905866.798         550.389           8.910           0.255  
I03  20626767.425       -1898.026         -16.555           0.255  
I04  21950200.193        -821.647          -7.993           0.255  
I05  23737703.811       21299.165         225.624           0.255  
I06  22336558.830        3536.033          35.881           0.255  
I07  23673627.186       -1916.755         -18.087           0.255  
> 2019 05 08 04 26 44.0688020  0  6                     
I02  20905866.284         550.949           2.699           0.255  
I03  20626774.167       -1900.015         -19.837           0.255  
I04  21950199.530        -822.443          -9.908           0.255  
I05  23737702.161       21321.310         221.228           0.255  
I06  22336556.216        3539.736          36.371           0.255  
I07  23673634.324       -1918.554         -18.199           0.255  
> 2019 05 08 04 26 44.1688020  0  6                     
I02  20905866.600         551.608           6.830           0.255  
I03  20626762.584       -1901.962         -18.486           0.255  
I04  21950198.760        -823.194          -7.951           0.255  
I05  23737695.570       21343.570         224.091           0.255  
I06  22336556.916        3543.471          39.863           0.255  
I07  23673634.256       -1920.241         -15.150           0.255  
> 2019 05 08 04 26 44.2688020  0  6                     
I02  20905865.373         552.200           3.083           0.255  
I03  20626767.903       -1903.966         -22.491           0.255  
I04  21950199.134        -824.040          -9.382           0.255  
I05  23737692.388       21365.722         221.539           0.255  
I06  22336557.284        3547.130          35.171           0.255  
I07  23673634.561       -1922.065         -16.051           0.255  
> 2019 05 08 04 26 44.3688020  0  6                     
I02  20905866.637         552.803           8.516           0.255  
I03  20626772.429       -1905.969         -17.634           0.255  
I04  21950196.486        -825.334         -30.892           0.255  
I05  23737687.101       21387.890         227.932           0.255  
I06  22336553.411        3550.376          -4.528           0.255  
I07  23673637.643       -1923.847         -10.496           0.255  
> 2019 05 08 04 26 44.4688020  0  6                     
I02  20905864.988         553.355           4.449           0.255  
I03  20626762.666       -1908.044         -25.927           0.255  
I04  21950195.217        -825.739         -10.382           0.255  
I05  23737681.303       21410.029         219.939           0.255  
I06  22336550.738        3554.446          35.186           0.255  
I07  23673630.580       -1925.675         -20.120           0.255  
> 2019 05 08 04 26 44.5688020  0  6                     
I02  20905864.620         553.978           9.294           0.255  
I03  20626767.912       -1910.021         -22.279           0.255  
I04  21950193.987        -826.519          -7.777           0.255  
I05  23737672.167       21432.189         220.359           0.255  
I06  22336548.101        3558.144          40.177           0.255  
I07  23673629.946       -1927.502         -14.402           0.255  
> 2019 05 08 04 26 44.6688020  0  6                     
I02  20905866.031         554.604           6.559           0.255  
I03  20626773.939       -1911.939         -18.129           0.255  
I04  21950198.664        -827.275          -8.278           0.255  
I05  23737669.383       21454.460         225.740           0.255  
I06  22336548.427        3561.877          40.984           0.255  
I07  23673630.002       -1929.306         -10.962           0.255  
> 2019 05 08 04 26 44.7688020  0  6                     
I02  20905865.249         555.235           4.679           0.255  
I03  20626765.156       -1913.942         -23.442           0.255  
I04  21950204.135        -828.043         -10.492           0.255  
I05  23737661.160       21476.651         221.287           0.255  
I06  22336547.545        3565.588          38.947           0.255  
I07  23673637.310       -1931.091          -5.954           0.255  
> 2019 05 08 04 26 44.8688020  0  6                     
I02  20905865.611         555.931           6.959           0.255  
I03  20626772.216       -1915.848         -19.177           0.255  
I04  21950201.383        -828.782          -2.663           0.255  
I05  23737656.471       21498.923         225.467           0.255  
I06  22336546.705        3569.342          38.207           0.255  
I07  23673638.271       -1932.787         -13.255           0.255  
> 2019 05 08 04 26 44.9688020  0  6                     
I02  20905866.583         556.629           4.661           0.255  
I03  20626763.801       -1917.687         -19.858           0.255  
I04  21950203.603        -829.435          -1.968           0.255  
I05  23737652.710       21521.232         221.955           0.255  
I06  22336544.650        3573.168          41.106           0.255  
I07  23673641.644       -1934.487         -15.403           0.255  
> 2019 05 08 04 26 45.0688020  0  6                     
I02  20905864.781         557.347           5.523           0.255  
I03  20626766.615       -1919.574         -21.851           0.255  
I04  21950208.850        -830.140          -5.491           0.255  
I05  23737647.658       21543.543         222.345           0.255  
I06  22336543.775        3576.993          41.958           0.255  
I07  23673632.721       -1936.097          -4.629           0.255  
> 2019 05 08 04 26 45.1688020  0  6                     
I02  20905862.376         558.076           6.012           0.255  
I03  20626763.331       -1921.419         -17.697           0.255  
I04  21950194.092        -830.855          -9.943           0.255  
I05  23737640.253       21565.849         222.757           0.255  
I06  22336543.438        3580.774          36.711           0.255  
I07  23673630.960       -1937.818         -20.908           0.255  
> 2019 05 08 04 26 45.2688020  0  6                     
I02  20905861.237         558.815           6.442           0.255  
I03  20626770.155       -1923.292         -18.015           0.255  
I04  21950195.332        -831.528          -7.504           0.255  
I05  23737638.985       21588.162         225.358           0.255  
I06  22336542.335        3584.578          37.037           0.255  
I07  23673639.512       -1939.537         -14.410           0.255  
> 2019 05 08 04 26 45.3688020  0  6                     
I02  20905859.185         559.461           8.290           0.255  
I03  20626766.442       -1925.258         -20.168           0.255  
I04  21950203.113        -832.261          -4.655           0.255  
I05  23737632.243       21610.349         221.790           0.255  
I06  22336541.736        3588.290          36.977           0.255  
I07  23673630.742       -1941.179          -7.938           0.255  
> 2019 05 08 04 26 45.4688020  0  6                     
I02  20905862.410         560.039           8.545           0.255  
I03  20626776.931       -1927.261         -19.963           0.255  
I04  21950206.310        -833.138         -10.781           0.255  
I05  23737625.343       21632.548         219.199           0.255  
I06  22336541.046        3591.971          35.844           0.255  
I07  23673638.195       -1943.070         -14.290           0.255  
> 2019 05 08 04 26 45.5688020  0  6                     
I02  20905863.028         560.636           4.090           0.255  
I03  20626770.870       -1929.244         -23.725           0.255  
I04  21950195.624        -833.930         -16.960           0.255  
I05  23737621.432       21654.758         222.247           0.255  
I06  22336539.407        3595.669          36.792           0.255  
I07  23673628.472       -1944.814          -4.251           0.255  
> 2019 05 08 04 26 45.6688020  0  6                     
I02  20905865.664         561.287           9.329           0.255  
I03  20626783.852       -1931.201         -15.322           0.255  
I04  21950207.404        -834.693          -9.423           0.255  
I05  23737612.840       21676.976         225.529           0.255  
I06  22336541.991        3599.379          38.666           0.255  
I07  23673629.956       -1946.633          -9.008           0.255  
> 2019 05 08 04 26 45.7688020  0  6                     
I02  20905861.938         561.916           4.248           0.255  
I03  20626836.414       -1933.161         -16.974           0.255  
I04  21950193.777        -835.475          -8.252           0.255  
I05  23737604.655       21699.184         221.483           0.255  
I06  22336537.505        3603.067          33.428           0.255  
I07  23673627.312       -1948.387         -21.730           0.255  
> 2019 05 08 04 26 45.8688020  0  6                     
I02  20905864.752         562.536           8.699           0.255  
I03  20626841.836       -1935.146         -17.944           0.255  
I04  21950204.773        -836.250          -4.503           0.255  
I05  23737600.980       21721.397         225.251           0.255  
I06  22336537.761        3606.798          42.209           0.255  
I07  23673628.757       -1950.141         -14.139           0.255  
> 2019 05 08 04 26 45.9688020  0  6                     
I02  20905863.874         563.219           9.059           0.255  
I03  20626837.247       -1937.063         -19.414           0.255  
I04  21950208.958        -837.018         -10.767           0.255  
I05  23737594.213       21743.652         224.011           0.255  
I06  22336536.981        3610.558          39.455           0.255  
I07  23673632.960       -1951.955         -21.446           0.255  
> 2019 05 08 04 26 46.0688020  0  6                     
I02  20905863.022         563.828           5.301           0.255  
I03  20626839.831       -1939.009         -18.473           0.255  
I04  21950196.044        -837.777          -9.659           0.255  
I05  23737589.744       21765.868         221.890           0.255  
I06  22336536.559        3614.268          39.816           0.255  
I07  23673627.894       -1953.636         -22.126           0.255  
> 2019 05 08 04 26 46.1688020  0  6                     
I02  20905861.756         564.496           5.042           0.255  
I03  20626840.546       -1940.944         -19.238           0.255  
I04  21950197.986        -838.497          -5.582           0.255  
I05  23737585.641       21788.121         223.942           0.255  
I06  22336536.416        3618.018          38.756           0.255  
I07  23673633.342       -1955.352         -14.087           0.255  
> 2019 05 08 04 26 46.2688020  0  6                     
I02  20905861.675         565.146           5.727           0.255  
I03  20626842.197       -1942.945         -20.785           0.255  
I04  21950201.911        -839.325          -9.082           0.255  
I05  23737578.902       21810.336         220.229           0.255  
I06  22336535.490        3621.729          35.057           0.255  
I07  23673629.103       -1957.138         -22.158           0.255  
> 2019 05 08 04 26 46.3688020  0  6                     
I02  20905857.063         565.844           7.443           0.255  
I03  20626844.133       -1944.828         -17.734           0.255  
I04  21950203.508        -840.049          -6.777           0.255  
I05  23737574.544       21832.586         222.591           0.255  
I06  22336534.868        3625.487          37.272           0.255  
I07  23673640.710       -1958.887          -6.640           0.255  
> 2019 05 08 04 26 46.4688020  0  6                     
I02  20905861.798         566.554           5.705           0.255  
I03  20626843.094       -1946.726         -18.328           0.255  
I04  21950197.784        -840.765          -8.147           0.255  
I05  23737565.822       21854.900         221.405           0.255  
I06  22336531.612        3629.255          34.177           0.255  
I07  23673635.379       -1960.529          -9.838           0.255  
> 2019 05 08 04 26 46.5688020  0  6                     
I02  20905860.712         567.222           4.425           0.255  
I03  20626842.849       -1948.682         -20.055           0.255  
I04  21950198.144        -841.490          -5.632           0.255  
I05  23737560.477       21877.175         222.301           0.255  
I06  22336530.337        3633.042          37.622           0.255  
I07  23673630.015       -1962.301         -15.654           0.255  
> 2019 05 08 04 26 46.6688020  0  6                     
I02  20905861.727         567.908           7.277           0.255  
I03  20626840.314       -1950.561         -17.424           0.255  
I04  21950198.834        -842.210          -4.609           0.255  
I05  23737555.810       21899.442         224.222           0.255  
I06  22336531.212        3636.806          39.096           0.255  
I07  23673635.573       -1964.065         -17.397           0.255  
> 2019 05 08 04 26 46.7688020  0  6                     
I02  20905859.745         568.592           7.201           0.255  
I03  20626839.218       -1952.483         -20.908           0.255  
I04  21950204.188        -842.973          -8.012           0.255  
I05  23737550.112       21921.715         222.292           0.255  
I06  22336527.923        3640.564          38.148           0.255  
I07  23673629.973       -1965.790         -14.291           0.255  
> 2019 05 08 04 26 46.8688020  0  6                     
I02  20905861.828         569.244           7.028           0.255  
I03  20626836.661       -1954.426         -20.115           0.255  
I04  21950202.640        -843.758          -8.923           0.255  
I05  23737543.205       21943.942         220.669           0.255  
I06  22336528.602        3644.270          36.397           0.255  
I07  23673634.040       -1967.527          -5.785           0.255  
> 2019 05 08 04 26 46.9688020  0  6                     
I02  20905861.219         569.884           5.927           0.255  
I03  20626836.978       -1956.376         -16.602           0.255  
I04  21950201.216        -844.481          -5.517           0.255  
I05  23737538.235       21966.183         222.802           0.255  
I06  22336527.913        3648.034          38.138           0.255  
I07  23673628.838       -1969.251          -8.630           0.255  
> 2019 05 08 04 26 47.0688020  0  6                     
I02  20905860.768         570.504           3.693           0.255  
I03  20626839.053       -1958.326         -19.756           0.255  
I04  21950204.731        -845.252          -9.156           0.255  
I05  23737530.188       21988.419         221.710           0.255  
I06  22336526.297        3651.735          35.213           0.255  
I07  23673633.197       -1971.119         -25.174           0.255  
> 2019 05 08 04 26 47.1688020  0  6                     
I02  20905861.083         571.191          11.450           0.255  
I03  20626839.353       -1960.267         -16.380           0.255  
I04  21950210.089        -846.007          -7.844           0.255  
I05  23737522.133       22010.671         224.914           0.255  
I06  22336526.654        3655.453          35.597           0.255  
I07  23673640.059       -1972.873         -21.168           0.255  
> 2019 05 08 04 26 47.2688020  0  6                     
I02  20905859.416         571.833           6.858           0.255  
I03  20626840.832       -1962.192         -18.211           0.255  
I04  21950208.908        -846.748          -6.380           0.255  
I05  23737517.619       22032.919         225.892           0.255  
I06  22336525.698        3659.187          34.591           0.255  
I07  23673640.633       -1974.583         -19.501           0.255  
> 2019 05 08 04 26 47.3688020  0  6                     
I02  20905861.816         572.425           9.286           0.255  
I03  20626840.326       -1964.218         -17.846           0.255  
I04  21950204.981        -847.562          -2.976           0.255  
I05  23737513.908       22055.105         224.166           0.255  
I06  22336524.589        3662.867          39.074           0.255  
I07  23673632.963       -1976.323         -18.244           0.255  
> 2019 05 08 04 26 47.4688020  0  6                     
I02  20905856.829         573.023           5.797           0.255  
I03  20626845.669       -1966.219         -18.819           0.255  
I04  21950209.172        -848.393          -5.970           0.255  
I05  23737510.772       22077.277         220.315           0.255  
I06  22336521.926        3666.542          34.900           0.255  
I07  23673628.236       -1978.207         -25.385           0.255  
> 2019 05 08 04 26 47.5688020  0  6                     
I02  20905856.783         573.613           4.411           0.255  
I03  20626837.944       -1968.233         -20.610           0.255  
I04  21950193.664        -849.208          -6.385           0.255  
I05  23737506.487       22099.457         218.127           0.255  
I06  22336521.247        3670.239          35.972           0.255  
I07  23673639.326       -1980.037         -25.800           0.255  
> 2019 05 08 04 26 47.6688020  0  6                     
I02  20905858.249         574.262           8.854           0.255  
I03  20626839.313       -1970.208         -17.239           0.255  
I04  21950200.448        -849.974          -4.634           0.255  
I05  23737504.207       22121.679         221.630           0.255  
I06  22336521.582        3673.969          41.209           0.255  
I07  23673635.483       -1981.699         -11.992           0.255  
> 2019 05 08 04 26 47.7688020  0  6                     
I02  20905859.965         574.861           7.348           0.255  
I03  20626842.570       -1972.199         -21.578           0.255  
I04  21950198.967        -850.769          -7.715           0.255  
I05  23737495.284       22143.869         218.105           0.255  
I06  22336521.068        3677.640          37.049           0.255  
I07  23673630.226       -1983.504         -23.850           0.255  
> 2019 05 08 04 26 47.8688020  0  6                     
I02  20905863.245         575.508           7.523           0.255  
I03  20626845.257       -1974.146         -18.420           0.255  
I04  21950193.859        -851.534          -8.099           0.255  
I05  23737487.173       22166.129         223.600           0.255  
I06  22336520.211        3681.379          38.377           0.255  
I07  23673627.037       -1985.257         -21.808           0.255  
> 2019 05 08 04 26 47.9688020  0  6                     
I02  20905859.036         576.200           6.494           0.255  
I03  20626839.134       -1976.050         -18.590           0.255  
I04  21950198.979        -852.256          -5.901           0.255  
I05  23737482.012       22188.427         223.374           0.255  
I06  22336518.353        3685.137          35.729           0.255  
I07  23673641.759       -1986.922         -14.301           0.255  
> 2019 05 08 04 26 48.0688020  0  6                     
I02  20905858.223         576.876           7.465           0.255  
I03  20626844.677       -1977.975         -18.846           0.255  
I04  21950200.098        -853.029          -8.948           0.255  
I05  23737476.108       22210.678         224.734           0.255  
I06  22336518.159        3688.882          35.100           0.255  
I07  23673637.715       -1988.662          -6.385           0.255  
> 2019 05 08 04 26 48.1688020  0  6                     
I02  20905860.185         577.553           7.638           0.255  
I03  20626835.686       -1979.871         -18.507           0.255  
I04  21950202.030        -853.748         -10.901           0.255  
I05  23737471.451       22232.984         225.263           0.255  
I06  22336517.700        3692.658          39.480           0.255  
I07  23673631.144       -1990.363         -14.453           0.255  
> 2019 05 08 04 26 48.2688020  0  6                     
I02  20905859.191         578.259           6.522           0.255  
I03  20626841.055       -1981.761         -18.912           0.255  
I04  21950209.093        -854.424          -5.526           0.255  
I05  23737465.635       22255.293         223.747           0.255  
I06  22336515.986        3696.421          37.212           0.255  
I07  23673633.510       -1992.161         -18.033           0.255  
> 2019 05 08 04 26 48.3688020  0  6                     
I02  20905858.479         578.734          28.303           0.255  
I03  20626835.639       -1983.675         -21.142           0.255  
I04  21950208.926        -855.819          14.701           0.255  
I05  23737456.403       22277.570         223.343           0.255  
I06  22336514.378        3700.217          37.580           0.255  
I07  23673631.062       -1993.793          -8.780           0.255  
> 2019 05 08 04 26 48.4688020  0  6                     
I02  20905857.993         579.488           2.366           0.255  
I03  20626842.890       -1985.714         -22.662           0.255  
I04  21950212.142        -855.993          -6.756           0.255  
I05  23737448.817       22299.706         217.427           0.255  
I06  22336512.038        3703.828          34.679           0.255  
I07  23673637.369       -1995.707         -25.037           0.255  
> 2019 05 08 04 26 48.5688020  0  6                     
I02  20905858.981         580.126           6.941           0.255  
I03  20626835.421       -1987.697         -18.200           0.255  
I04  21950198.497        -856.772          -5.357           0.255  
I05  23737446.826       22321.918         223.866           0.255  
I06  22336512.857        3707.506          36.332           0.255  
I07  23673633.784       -1997.535         -28.419           0.255  
> 2019 05 08 04 26 48.6688020  0  6                     
I02  20905860.561         580.756           8.283           0.255  
I03  20626841.937       -1989.662         -18.123           0.255  
I04  21950198.447        -857.564          -7.615           0.255  
I05  23737442.442       22344.166         224.549           0.255  
I06  22336510.424        3711.244          39.083           0.255  
I07  23673632.629       -1999.217         -17.257           0.255  
> 2019 05 08 04 26 48.7688020  0  6                     
I02  20905856.536         581.365           6.462           0.255  
I03  20626838.340       -1991.647         -20.073           0.255  
I04  21950204.109        -858.322          -6.300           0.255  
I05  23737436.408       22366.379         222.799           0.255  
I06  22336509.369        3714.952          37.461           0.255  
I07  23673634.798       -2001.071         -22.957           0.255  
> 2019 05 08 04 26 48.8688020  0  6                     
I02  20905855.236         582.014           7.379           0.255  
I03  20626836.181       -1993.595         -18.096           0.255  
I04  21950208.955        -859.129          -7.940           0.255  
I05  23737433.461       22388.626         225.559           0.255  
I06  22336508.786        3718.663          39.560           0.255  
I07  23673633.490       -2002.760          -6.772           0.255  
> 2019 05 08 04 26 48.9688020  0  6                     
I02  20905853.675         582.646           4.944           0.255  
I03  20626836.363       -1995.570         -21.228           0.255  
I04  21950210.504        -859.903          -8.398           0.255  
I05  23737424.442       22410.842         220.578           0.255  
I06  22336505.654        3722.385          37.999           0.255  
I07  23673632.920       -2004.586         -20.031           0.255  
> 2019 05 08 04 26 49.0688020  0  6                     
I02  20905854.417         583.321          10.969           0.255  
I03  20626844.611       -1997.476         -18.448           0.255  
I04  21950197.914        -860.655          -1.337           0.255  
I05  23737416.192       22433.131         223.476           0.255  
I06  22336505.509        3726.119          39.428           0.255  
I07  23673631.450       -2006.364         -21.971           0.255  
> 2019 05 08 04 26 49.1688020  0  6                     
I02  20905857.402         583.959           5.624           0.255  
I03  20626840.513       -1999.436         -20.299           0.255  
I04  21950201.140        -861.400         -10.986           0.255  
I05  23737412.336       22455.358         220.499           0.255  
I06  22336507.548        3729.843          35.568           0.255  
I07  23673631.546       -2008.165         -18.593           0.255  
> 2019 05 08 04 26 49.2688020  0  6                     
I02  20905857.362         584.628          10.152           0.255  
I03  20626837.568       -2001.358         -18.255           0.255  
I04  21950201.256        -862.109          -2.244           0.255  
I05  23737408.514       22477.605         222.481           0.255  
I06  22336505.427        3733.600          38.115           0.255  
I07  23673639.538       -2009.773         -13.362           0.255  
> 2019 05 08 04 26 49.3688020  0  6                     
I02  20905855.411         585.258           6.912           0.255  
I03  20626836.411       -2003.317         -18.454           0.255  
I04  21950203.063        -862.894          -5.077           0.255  
I05  23737404.728       22499.864         223.656           0.255  
I06  22336503.702        3737.303          34.896           0.255  
I07  23673639.392       -2011.592         -19.946           0.255  
> 2019 05 08 04 26 49.4688020  0  6                     
I02  20905856.337         585.806           3.142           0.255  
I03  20626846.673       -2005.331         -18.757           0.255  
I04  21950201.062        -863.744          -7.826           0.255  
I05  23737396.956       22522.073         224.774           0.255  
I06  22336501.019        3740.974          36.867           0.255  
I07  23673641.275       -2013.375         -14.093           0.255  
> 2019 05 08 04 26 49.5688020  0  6                     
I02  20905859.162         586.457           4.930           0.255  
I03  20626845.723       -2007.303         -19.688           0.255  
I04  21950199.355        -864.522          -9.221           0.255  
I05  23737392.637       22544.266         221.272           0.255  
I06  22336501.768        3744.686          35.873           0.255  
I07  23673642.976       -2015.182         -20.152           0.255  
> 2019 05 08 04 26 49.6688020  0  6                     
I02  20905857.889         587.074           9.004           0.255  
I03  20626837.733       -2009.283         -18.016           0.255  
I04  21950208.538        -865.330          -7.456           0.255  
I05  23737386.719       22566.509         223.929           0.255  
I06  22336501.922        3748.364          37.398           0.255  
I07  23673626.822       -2016.920         -16.924           0.255  
> 2019 05 08 04 26 49.7688020  0  6                     
I02  20905858.444         587.725           6.681           0.255  
I03  20626837.385       -2011.207         -18.999           0.255  
I04  21950212.536        -866.063          -6.393           0.255  
I05  23737382.219       22588.758         222.197           0.255  
I06  22336498.875        3752.122          40.675           0.255  
I07  23673641.072       -2018.713         -18.551           0.255  
> 2019 05 08 04 26 49.8688020  0  6                     
I02  20905857.504         588.348           7.754           0.255  
I03  20626836.551       -2013.224         -19.205           0.255  
I04  21950196.359        -866.881          -9.114           0.255  
I05  23737376.889       22610.972         222.274           0.255  
I06  22336500.051        3755.805          35.668           0.255  
I07  23673629.860       -2020.461         -17.001           0.255  
> 2019 05 08 04 26 49.9688020  0  6                     
I02  20905854.704         589.060           7.714           0.255  
I03  20626836.762       -2015.134         -16.682           0.255  
I04  21950201.844        -867.586          -7.366           0.255  
I05  23737369.965       22633.258         224.503           0.255  
I06  22336497.125        3759.568          39.532           0.255  
I07  23673631.689       -2022.253         -10.849           0.255  
> 2019 05 08 04 26 50.0688020  0  6                     
I02  20905858.510         589.692           5.831           0.255  
I03  20626837.157       -2017.108         -20.920           0.255  
I04  21950204.076        -868.340          -9.464           0.255  
I05  23737364.755       22655.500         220.884           0.255  
I06  22336500.313        3763.804          85.688           0.255  
I07  23673630.990       -2023.912         -10.757           0.255  
> 2019 05 08 04 26 50.1688020  0  6                     
I02  20905858.203         590.373           8.657           0.255  
I03  20626837.346       -2019.037         -16.702           0.255  
I04  21950213.905        -869.082          -5.831           0.255  
I05  23737357.742       22677.760         224.644           0.255  
I06  22336496.749        3767.016          36.664           0.255  
I07  23673640.526       -2025.736         -19.437           0.255  
> 2019 05 08 04 26 50.2688020  0  6                     
I02  20905856.523         591.029           7.362           0.255  
I03  20626840.543       -2020.997         -19.087           0.255  
I04  21950197.306        -869.855         -11.083           0.255  
I05  23737350.340       22700.021         223.839           0.255  
I06  22336495.278        3770.734          34.658           0.255  
I07  23673641.023       -2027.476         -26.143           0.255  
> 2019 05 08 04 26 50.3688020  0  6                     
I02  20905856.002         591.590           8.400           0.255  
I03  20626843.345       -2022.991         -17.397           0.255  
I04  21950201.723        -870.662          -4.871           0.255  
I05  23737347.136       22722.225         225.478           0.255  
I06  22336492.198        3774.427          39.611           0.255  
I07  23673627.807       -2029.220         -13.526           0.255  
> 2019 05 08 04 26 50.4688020  0  6                     
I02  20905854.645         592.229           3.217           0.255  
I03  20626846.044       -2024.985         -21.049           0.255  
I04  21950202.289        -871.482          -9.541           0.255  
I05  23737340.710       22744.439         221.173           0.255  
I06  22336491.753        3778.079          34.244           0.255  
I07  23673631.470       -2031.075         -24.025           0.255  
> 2019 05 08 04 26 50.5688020  0  6                     
I02  20905853.956         592.888           6.261           0.255  
I03  20626847.066       -2026.975         -21.860           0.255  
I04  21950210.971        -872.251          -7.330           0.255  
I05  23737336.532       22766.644         220.096           0.255  
I06  22336490.620        3781.785          36.103           0.255  
I07  23673636.933       -2032.912         -21.524           0.255  
> 2019 05 08 04 26 50.6688020  0  6                     
I02  20905856.208         593.532           4.953           0.255  
I03  20626837.564       -2028.902         -18.144           0.255  
I04  21950211.258        -873.005          -7.432           0.255  
I05  23737330.967       22788.917         224.618           0.255  
I06  22336490.652        3785.496          34.792           0.255  
I07  23673643.592       -2034.589         -14.234           0.255  
> 2019 05 08 04 26 50.7688020  0  6                     
I02  20905853.735         594.190           5.170           0.255  
I03  20626842.039       -2030.883         -21.811           0.255  
I04  21950200.233        -873.781          -8.532           0.255  
I05  23737322.433       22811.155         222.297           0.255  
I06  22336490.892        3789.242          34.103           0.255  
I07  23673632.971       -2036.405         -25.090           0.255  
> 2019 05 08 04 26 50.8688020  0  6                     
I02  20905855.323         594.832          10.489           0.255  
I03  20626836.697       -2032.816         -15.420           0.255  
I04  21950203.934        -874.505           1.166           0.255  
I05  23737317.727       22833.394         224.231           0.255  
I06  22336488.278        3792.939          39.682           0.255  
I07  23673642.230       -2038.199         -14.019           0.255  
> 2019 05 08 04 26 50.9688020  0  6                     
I02  20905853.745         595.467         -91.556           0.255  
I03  20626844.482       -2034.801         -19.808           0.255  
I04  21950250.326        -875.351          -9.737           0.255  
I05  23737310.583       22855.637         222.254           0.255  
I06  22336488.687        3796.637          35.612           0.255  
I07  23673634.173       -2039.955         -19.364           0.255  
> 2019 05 08 04 26 51.0688020  0  6                     
I02  20905855.033         596.116           7.313           0.255  
I03  20626836.539       -2036.765         -17.276           0.255  
I04  21950277.879        -876.098          -6.668           0.255  
I05  23737302.017       22877.897         225.158           0.255  
I06  22336486.586        3800.375          36.919           0.255  
I07  23673632.502       -2041.686         -18.048           0.255  
> 2019 05 08 04 26 51.1688020  0  6                     
I02  20905852.550         596.798           5.443           0.255  
I03  20626841.384       -2038.683         -19.200           0.255  
I04  21950273.041        -876.827          -6.906           0.255  
I05  23737296.986       22900.176         221.146           0.255  
I06  22336485.375        3804.090          33.387           0.255  
I07  23673636.792       -2043.478         -20.689           0.255  
> 2019 05 08 04 26 51.2688020  0  6                     
I02  20905851.695         597.465           7.537           0.255  
I03  20626836.426       -2040.627         -17.664           0.255  
I04  21950279.202        -877.555          -4.957           0.255  
I05  23737291.349       22922.445         222.521           0.255  
I06  22336485.576        3807.859          36.988           0.255  
I07  23673626.691       -2045.126         -17.308           0.255  
> 2019 05 08 04 26 51.3688020  0  6                     
I02  20905853.312         598.141          10.021           0.255  
I03  20626841.642       -2042.571         -17.648           0.255  
I04  21950269.416        -878.340          -7.462           0.255  
I05  23737287.701       22944.711         224.724           0.255  
I06  22336484.347        3811.572          37.152           0.255  
I07  23673631.100       -2046.977         -21.888           0.255  
> 2019 05 08 04 26 51.4688020  0  6                     
I02  20905854.964         598.701           3.893           0.255  
I03  20626839.305       -2044.604         -22.156           0.255  
I04  21950269.186        -879.171          -9.821           0.255  
I05  23737279.908       22966.854         216.886           0.255  
I06  22336484.742        3815.234          36.596           0.255  
I07  23673639.326       -2048.840         -16.942           0.255  
> 2019 05 08 04 26 51.5688020  0  6                     
I02  20905855.104         599.390           7.626           0.255  
I03  20626845.393       -2046.530         -18.170           0.255  
I04  21950277.771        -879.917          -8.992           0.255  
I05  23737274.520       22989.176         224.752           0.255  
I06  22336482.429        3818.994          38.541           0.255  
I07  23673643.689       -2050.489          -7.298           0.255  
> 2019 05 08 04 26 51.6688020  0  6                     
I02  20905853.168         600.043           5.587           0.255  
I03  20626840.332       -2048.502         -22.020           0.255  
I04  21950270.175        -880.661          -8.295           0.255  
I05  23737272.961       23011.391         221.090           0.255  
I06  22336483.800        3822.725          37.682           0.255  
I07  23673694.904       -2052.290          -3.942           0.255  
> 2019 05 08 04 26 51.7688020  0  6                     
I02  20905853.325         600.729           9.715           0.255  
I03  20626836.511       -2050.420         -19.328           0.255  
I04  21950280.753        -881.423          -7.666           0.255  
I05  23737265.909       23033.674         223.657           0.255  
I06  22336480.507        3826.461          41.337           0.255  
I07  23673706.315       -2053.999         -16.044           0.255  
