     3.03           OBSERVATION DATA    M: Mixed            RINEX VERSION / TYPE
GNSS-SDRLIB v1.1                        20230628 091907 UTC PGM / RUN BY / DATE 
                                                            MARKER NAME         
                                                            MARKER NUMBER       
                                                            MARKER TYPE         
                                                            OBSERVER / AGENCY   
GNSS-SDRLIB         GNSS-SDRLIB         1.1                 REC # / TYPE / VERS 
                                                            ANT # / TYPE        
        0.0000        0.0000        0.0000                  APPROX POSITION XYZ 
        0.0000        0.0000        0.0000                  ANTENNA: DELTA H/E/N
G    4 C5A L5A D5A S5A                                      SYS / # / OBS TYPES 
R    4 C5A L5A D5A S5A                                      SYS / # / OBS TYPES 
E    4 C5A L5A D5A S5A                                      SYS / # / OBS TYPES 
J    4 C5A L5A D5A S5A                                      SYS / # / OBS TYPES 
S    4 C5A L5A D5A S5A                                      SYS / # / OBS TYPES 
C    4 C5A L5A D5A S5A                                      SYS / # / OBS TYPES 
I    4 C5A L5A D5A S5A                                      SYS / # / OBS TYPES 
  1970    01    01    00    00   00.0000000     GPS         TIME OF FIRST OBS   
  1970    01    01    00    00   00.0000000     GPS         TIME OF LAST OBS    
G L5A  0.00000                                              SYS / PHASE SHIFT   
R L5A  0.00000                                              SYS / PHASE SHIFT   
E L5A  0.00000                                              SYS / PHASE SHIFT   
J L5A  0.00000                                              SYS / PHASE SHIFT   
S L5A  0.00000                                              SYS / PHASE SHIFT   
C L5A  0.00000                                              SYS / PHASE SHIFT   
I L5A                                                       SYS / PHASE SHIFT   
  0                                                         GLONASS SLOT / FRQ #
 C1C    0.000 C1P    0.000 C2C    0.000 C2P    0.000        GLONASS COD/PHS/BIS 
                                                            END OF HEADER       
> 2019 05 08 04 25 48.0588020  0  1                     
I02  20626316.385         230.017           2.115           0.255  
> 2019 05 08 04 25 48.0688020  0  2                     
I02  20626316.425         230.070           5.262           0.255  
I06  22057446.601        1555.916          37.118           0.255  
> 2019 05 08 04 25 48.0588020  0  3                     
I02  20626316.385         230.017           2.115           0.255  
I04  21670500.977        -323.788          -7.222           0.255  
I06  22057444.844        1555.545          34.209           0.255  
> 2019 05 08 04 25 48.0688020  0  3                     
I02  20626316.425         230.070           5.262           0.255  
I04  21670491.507        -323.912         -12.450           0.255  
I06  22057446.601        1555.916          37.118           0.255  
> 2019 05 08 04 25 48.0588020  0  4                     
I02  20905872.852         230.014           2.144           0.255  
I03  20626465.840        -831.385         -22.638           0.255  
I04  21950057.444        -323.779          -7.179           0.255  
I06  22337001.311        1555.513          34.586           0.255  
> 2019 05 08 04 25 48.0688020  0  4                     
I02  20905872.892         230.063           4.902           0.255  
I03  20626467.596        -831.591         -20.579           0.255  
I04  21950047.974        -323.901         -12.201           0.255  
I06  22337003.068        1555.881          36.738           0.255  
> 2019 05 08 04 25 48.0588020  0  5                     
I02  20905872.852         230.014           2.144           0.255  
I03  20626465.840        -831.385         -22.638           0.255  
I04  21950057.444        -323.779          -7.179           0.255  
I05  23740774.791        9291.927         215.431           0.255  
I06  22337001.311        1555.513          34.586           0.255  
> 2019 05 08 04 25 48.0688020  0  5                     
I02  20905872.892         230.063           4.902           0.255  
I03  20626467.596        -831.591         -20.579           0.255  
I04  21950047.974        -323.901         -12.201           0.255  
I05  23740774.151        9294.097         216.999           0.255  
I06  22337003.068        1555.881          36.738           0.255  
> 2019 05 08 04 25 48.0588020  0  6                     
I02  20905872.852         230.014           2.144           0.255  
I03  20626465.840        -831.385         -22.638           0.255  
I04  21950057.444        -323.779          -7.179           0.255  
I05  23740774.791        9291.927         215.431           0.255  
I06  22337001.311        1555.513          34.586           0.255  
I07  23673331.566        -624.325         -19.096           0.255  
> 2019 05 08 04 25 48.0688020  0  6                     
I02  20905872.892         230.063           4.902           0.255  
I03  20626467.596        -831.591         -20.579           0.255  
I04  21950047.974        -323.901         -12.201           0.255  
I05  23740774.151        9294.097         216.999           0.255  
I06  22337003.068        1555.881          36.738           0.255  
I07  23673333.671        -624.514         -18.886           0.255  
> 2019 05 08 04 25 48.0788020  0  6                     
I02  20905872.275         230.159           9.577           0.255  
I03  20626469.125        -831.760         -16.870           0.255  
I04  21950050.815        -323.980          -7.858           0.255  
I05  23740773.670        9296.336         223.953           0.255  
I06  22337003.904        1556.256          37.534           0.255  
I07  23673334.768        -624.676         -16.278           0.255  
> 2019 05 08 04 25 48.0888020  0  6                     
I02  20905872.282         230.207           4.874           0.255  
I03  20626470.865        -831.952         -19.249           0.255  
I04  21950055.539        -324.072          -9.169           0.255  
I05  23740773.257        9298.540         220.367           0.255  
I06  22337005.931        1556.630          37.389           0.255  
I07  23673336.549        -624.847         -17.035           0.255  
> 2019 05 08 04 25 48.0988020  0  6                     
I02  20905871.508         230.247           3.987           0.255  
I03  20626461.775        -832.149         -19.669           0.255  
I04  21950046.072        -324.140          -6.827           0.255  
I05  23740774.161        9300.705         216.493           0.255  
I06  22337005.366        1556.991          36.111           0.255  
I07  23673326.006        -625.038         -19.146           0.255  
> 2019 05 08 04 25 48.1088020  0  6                     
I02  20905872.239         230.275           2.727           0.255  
I03  20626462.189        -832.358         -20.876           0.255  
I04  21950049.481        -324.195          -5.517           0.255  
I05  23740772.895        9302.884         217.853           0.255  
I06  22337005.363        1557.370          37.913           0.255  
I07  23673328.243        -625.179         -14.101           0.255  
> 2019 05 08 04 25 48.1188020  0  6                     
I02  20905873.449         230.348           7.360           0.255  
I03  20626463.595        -832.550         -19.247           0.255  
I04  21950053.508        -324.269          -7.402           0.255  
I05  23740772.113        9305.117         223.359           0.255  
I06  22337006.598        1557.749          37.882           0.255  
I07  23673331.389        -625.315         -13.588           0.255  
> 2019 05 08 04 25 48.1288020  0  6                     
I02  20905873.161         230.432           8.399           0.255  
I03  20626465.370        -832.742         -19.133           0.255  
I04  21950056.866        -324.416         -14.698           0.255  
I05  23740772.509        9307.329         221.206           0.255  
I06  22337006.595        1558.137          38.798           0.255  
I07  23673333.207        -625.479         -16.358           0.255  
> 2019 05 08 04 25 48.1388020  0  6                     
I02  20905873.882         230.487           5.528           0.255  
I03  20626467.337        -832.948         -20.643           0.255  
I04  21950046.572        -324.540         -12.411           0.255  
I05  23740771.870        9309.503         217.421           0.255  
I06  22337007.814        1558.499          36.237           0.255  
I07  23673334.940        -625.687         -20.799           0.255  
> 2019 05 08 04 25 48.1488020  0  6                     
I02  20905873.396         230.508           2.048           0.255  
I03  20626468.843        -833.157         -20.859           0.255  
I04  21950048.960        -324.574          -3.362           0.255  
I05  23740771.024        9311.672         216.840           0.255  
I06  22337008.726        1558.864          36.480           0.255  
I07  23673335.225        -625.901         -21.431           0.255  
> 2019 05 08 04 25 48.1588020  0  6                     
I02  20905872.972         230.585           7.685           0.255  
I03  20626469.564        -833.330         -17.380           0.255  
I04  21950053.814        -324.580          -0.635           0.255  
I05  23740769.500        9313.877         220.526           0.255  
I06  22337009.341        1559.250          38.601           0.255  
I07  23673337.878        -626.051         -15.039           0.255  
> 2019 05 08 04 25 48.1688020  0  6                     
I02  20905873.564         230.647           6.187           0.255  
I03  20626470.991        -833.505         -17.455           0.255  
I04  21950044.352        -324.702         -12.208           0.255  
I05  23740768.089        9316.091         221.363           0.255  
I06  22337008.708        1559.624          37.394           0.255  
I07  23673327.996        -626.187         -13.554           0.255  
> 2019 05 08 04 25 48.1788020  0  6                     
I02  20905873.888         230.689           4.213           0.255  
I03  20626463.114        -833.713         -20.787           0.255  
I04  21950048.309        -324.886         -18.388           0.255  
I05  23740766.254        9318.273         218.189           0.255  
I06  22337008.792        1560.005          38.048           0.255  
I07  23673328.324        -626.385         -19.830           0.255  
> 2019 05 08 04 25 48.1888020  0  6                     
I02  20905875.036         230.749           6.062           0.255  
I03  20626463.762        -833.942         -22.970           0.255  
I04  21950051.626        -325.383        -104.919           0.255  
I05  23740766.265        9320.447         217.400           0.255  
I06  22337009.189        1560.350          34.577           0.255  
I07  23673330.863        -626.600         -21.482           0.255  
> 2019 05 08 04 25 48.1988020  0  6                     
I02  20905876.774         230.803           5.324           0.255  
I03  20626465.477        -834.128         -18.536           0.255  
I04  21950054.627        -325.002          -0.199           0.255  
I05  23740765.559        9322.644         219.700           0.255  
I06  22337010.062        1560.721          37.053           0.255  
I07  23673333.668        -626.791         -19.129           0.255  
> 2019 05 08 04 25 48.2088020  0  6                     
I02  20905876.545         230.843           4.032           0.255  
I03  20626467.101        -834.274         -14.581           0.255  
I04  21950045.754        -324.972           3.016           0.255  
I05  23740765.224        9324.856         221.287           0.255  
I06  22337010.880        1561.095          37.427           0.255  
I07  23673335.412        -626.995         -20.385           0.255  
> 2019 05 08 04 25 48.2188020  0  6                     
I02  20905875.416         230.882           3.936           0.255  
I03  20626468.892        -834.502         -22.812           0.255  
I04  21950048.827        -325.135         -16.266           0.255  
I05  23740764.813        9327.040         218.364           0.255  
I06  22337011.366        1561.481          38.577           0.255  
I07  23673337.754        -627.126         -13.124           0.255  
> 2019 05 08 04 25 48.2288020  0  6                     
I02  20905875.021         230.971           8.831           0.255  
I03  20626470.507        -834.731         -22.935           0.255  
I04  21950055.679        -325.340         -20.564           0.255  
I05  23740764.101        9329.228         218.821           0.255  
I06  22337001.950        1561.854          37.335           0.255  
I07  23673327.351        -627.323         -19.656           0.255  
> 2019 05 08 04 25 48.2388020  0  6                     
I02  20905876.008         231.039           6.851           0.255  
I03  20626461.191        -834.932         -20.098           0.255  
I04  21950045.802        -325.429          -8.811           0.255  
I05  23740763.410        9331.423         219.522           0.255  
I06  22337001.463        1562.252          39.757           0.255  
I07  23673327.684        -627.472         -14.895           0.255  
> 2019 05 08 04 25 48.2488020  0  6                     
I02  20905875.595         231.092           5.303           0.255  
I03  20626461.579        -835.078         -14.606           0.255  
I04  21950048.661        -325.448          -1.953           0.255  
I05  23740762.633        9333.636         221.252           0.255  
I06  22337002.368        1562.607          35.538           0.255  
I07  23673329.927        -627.641         -16.924           0.255  
> 2019 05 08 04 25 48.2588020  0  6                     
I02  20905874.978         231.133           4.055           0.255  
I03  20626463.924        -835.285         -20.668           0.255  
I04  21950053.645        -325.446           0.224           0.255  
I05  23740762.190        9335.824         218.836           0.255  
I06  22337002.797        1562.953          34.523           0.255  
I07  23673331.549        -627.820         -17.826           0.255  
> 2019 05 08 04 25 48.2688020  0  6                     
I02  20905874.900         230.696          -0.135           0.255  
I03  20626465.655        -835.514         -22.951           0.255  
I04  21950057.309        -325.540          -9.401           0.255  
I05  23740761.539        9338.007         218.313           0.255  
I06  22337003.055        1563.331          37.846           0.255  
I07  23673333.667        -628.022         -20.215           0.255  
> 2019 05 08 04 25 48.2788020  0  6                     
I02  20905875.422         231.226           4.217           0.255  
I03  20626466.707        -835.711         -19.684           0.255  
I04  21950048.316        -325.667         -12.741           0.255  
I05  23740761.309        9340.192         218.426           0.255  
I06  22337003.941        1563.709          37.842           0.255  
I07  23673335.175        -628.196         -17.479           0.255  
> 2019 05 08 04 25 48.2888020  0  6                     
I02  20905875.155         231.272           4.603           0.255  
I03  20626467.887        -835.858         -14.638           0.255  
I04  21950050.698        -325.797         -12.973           0.255  
I05  23740760.871        9342.398         220.610           0.255  
I06  22337003.614        1564.085          37.557           0.255  
I07  23673336.685        -628.350         -15.351           0.255  
> 2019 05 08 04 25 48.2988020  0  6                     
I02  20905874.572         231.343           7.086           0.255  
I03  20626469.819        -836.050         -19.235           0.255  
I04  21950054.976        -325.893          -9.581           0.255  
I05  23740761.394        9344.603         220.499           0.255  
I06  22337001.883        1564.462          37.697           0.255  
I07  23673325.720        -628.518         -16.856           0.255  
> 2019 05 08 04 25 48.3088020  0  6                     
I02  20905874.495         231.425           8.145           0.255  
I03  20626471.040        -836.285         -23.549           0.255  
I04  21950044.951        -326.000         -10.746           0.255  
I05  23740761.083        9346.794         219.088           0.255  
I06  22337002.239        1564.824          36.154           0.255  
I07  23673326.338        -628.721         -20.268           0.255  
> 2019 05 08 04 25 48.3188020  0  6                     
I02  20905874.985         231.491           6.600           0.255  
I03  20626462.297        -836.495         -20.934           0.255  
I04  21950047.967        -326.033          -3.265           0.255  
I05  23740760.276        9348.986         219.191           0.255  
I06  22337002.640        1565.192          36.880           0.255  
I07  23673328.937        -628.919         -19.736           0.255  
> 2019 05 08 04 25 48.3288020  0  6                     
I02  20905874.770         231.530           3.910           0.255  
I03  20626462.749        -836.647         -15.242           0.255  
I04  21950052.099        -326.091          -5.857           0.255  
I05  23740760.025        9351.185         219.988           0.255  
I06  22337003.199        1565.576          38.397           0.255  
I07  23673331.900        -629.054         -13.568           0.255  
> 2019 05 08 04 25 48.3388020  0  6                     
I02  20905874.378         231.529          -0.017           0.255  
I03  20626465.154        -836.856         -20.900           0.255  
I04  21950055.619        -326.203         -11.143           0.255  
I05  23740759.355        9353.353         216.782           0.255  
I06  22337003.525        1565.946          36.992           0.255  
I07  23673334.528        -629.248         -19.390           0.255  
> 2019 05 08 04 25 48.3488020  0  6                     
I02  20905874.582         231.559           2.929           0.255  
I03  20626467.101        -837.119         -26.240           0.255  
I04  21950046.432        -326.354         -15.074           0.255  
I05  23740758.043        9355.499         214.572           0.255  
I06  22337004.252        1566.259          31.224           0.255  
I07  23673335.808        -629.499         -25.075           0.255  
> 2019 05 08 04 25 48.3588020  0  6                     
I02  20905876.021         231.642           8.288           0.255  
I03  20626468.018        -837.334         -21.528           0.255  
I04  21950048.748        -326.443          -8.917           0.255  
I05  23740758.162        9357.685         218.628           0.255  
I06  22337003.654        1566.618          35.930           0.255  
I07  23673337.581        -629.697         -19.803           0.255  
> 2019 05 08 04 25 48.3688020  0  6                     
I02  20905875.816         231.731           8.932           0.255  
I03  20626469.542        -837.478         -14.427           0.255  
I04  21950053.993        -326.514          -7.129           0.255  
I05  23740758.846        9359.920         223.464           0.255  
I06  22337004.276        1567.022          40.413           0.255  
I07  23673326.977        -629.747          -4.963           0.255  
> 2019 05 08 04 25 48.3788020  0  6                     
I02  20905873.848         231.776           4.535           0.255  
I03  20626471.083        -837.669         -19.057           0.255  
I04  21950044.360        -326.593          -7.870           0.255  
I05  23740757.973        9362.123         220.324           0.255  
I06  22337004.977        1567.427          40.514           0.255  
I07  23673328.261        -629.938         -19.183           0.255  
> 2019 05 08 04 25 48.3888020  0  6                     
I02  20905874.025         231.801           2.502           0.255  
I03  20626462.066        -837.905         -23.592           0.255  
I04  21950047.118        -326.721         -12.771           0.255  
I05  23740756.938        9364.286         216.255           0.255  
I06  22337004.818        1567.775          34.831           0.255  
I07  23673330.017        -630.148         -20.956           0.255  
> 2019 05 08 04 25 48.3988020  0  6                     
I02  20905875.359         231.832           3.101           0.255  
I03  20626461.901        -838.125         -21.984           0.255  
I04  21950051.534        -326.818          -9.721           0.255  
I05  23740756.863        9366.469         218.340           0.255  
I06  22337004.958        1568.104          32.848           0.255  
I07  23673331.703        -630.416         -26.775           0.255  
> 2019 05 08 04 25 48.4088020  0  6                     
I02  20905875.418         231.880           4.729           0.255  
I03  20626464.175        -838.275         -15.041           0.255  
I04  21950055.341        -326.862          -4.382           0.255  
I05  23740755.871        9368.666         219.683           0.255  
I06  22337005.273        1568.460          35.635           0.255  
I07  23673333.216        -630.620         -20.388           0.255  
> 2019 05 08 04 25 48.4188020  0  6                     
I02  20905875.376         231.947           6.688           0.255  
I03  20626466.732        -838.487         -21.167           0.255  
I04  21950046.373        -326.931          -6.959           0.255  
I05  23740754.780        9370.856         219.004           0.255  
I06  22337004.634        1568.846          38.559           0.255  
I07  23673335.468        -630.760         -14.038           0.255  
> 2019 05 08 04 25 48.4288020  0  6                     
I02  20905876.105         231.997           5.075           0.255  
I03  20626468.325        -838.706         -21.905           0.255  
I04  21950049.139        -327.024          -9.244           0.255  
I05  23740754.334        9373.043         218.745           0.255  
I06  22337004.277        1569.234          38.815           0.255  
I07  23673336.659        -630.913         -15.302           0.255  
> 2019 05 08 04 25 48.4388020  0  6                     
I02  20905875.853         232.036           3.843           0.255  
I03  20626469.675        -838.924         -21.830           0.255  
I04  21950052.076        -327.189         -16.505           0.255  
I05  23740754.266        9375.220         217.699           0.255  
I06  22337005.108        1569.613          37.874           0.255  
I07  23673326.305        -631.092         -17.931           0.255  
> 2019 05 08 04 25 48.4488020  0  6                     
I02  20905875.303         232.095           5.881           0.255  
I03  20626471.432        -839.088         -16.377           0.255  
I04  21950057.500        -327.312         -12.288           0.255  
I05  23740753.170        9377.435         221.471           0.255  
I06  22337003.888        1569.968          35.499           0.255  
I07  23673326.013        -631.245         -15.323           0.255  
> 2019 05 08 04 25 48.4588020  0  6                     
I02  20905874.902         232.147           5.264           0.255  
I03  20626463.387        -839.289         -20.130           0.255  
I04  21950048.045        -327.383          -7.195           0.255  
I05  23740752.211        9379.620         218.433           0.255  
I06  22337003.262        1570.308          34.069           0.255  
I07  23673327.323        -631.462         -21.622           0.255  
> 2019 05 08 04 25 48.4688020  0  6                     
I02  20905875.344         232.187           3.952           0.255  
I03  20626463.918        -839.544         -25.522           0.255  
I04  21950049.560        -327.445          -6.193           0.255  
I05  23740751.529        9381.774         215.436           0.255  
I06  22337003.602        1570.629          32.073           0.255  
I07  23673330.485        -631.646         -18.378           0.255  
> 2019 05 08 04 25 48.4788020  0  6                     
I02  20905876.121         232.220           3.306           0.255  
I03  20626465.962        -839.762         -21.785           0.255  
I04  21950052.750        -327.509          -6.320           0.255  
I05  23740750.220        9383.941         216.688           0.255  
I06  22337004.033        1571.038          40.940           0.255  
I07  23673333.487        -631.868         -22.270           0.255  
> 2019 05 08 04 25 48.4888020  0  6                     
I02  20905876.827         232.251           3.095           0.255  
I03  20626468.018        -839.910         -14.834           0.255  
I04  21950055.887        -327.582          -7.346           0.255  
I05  23740749.654        9386.168         222.732           0.255  
I06  22337004.815        1571.456          41.795           0.255  
I07  23673335.492        -632.031         -16.238           0.255  
> 2019 05 08 04 25 48.4988020  0  6                     
I02  20905876.598         232.345           9.417           0.255  
I03  20626469.721        -840.097         -18.640           0.255  
I04  21950045.868        -327.701         -11.868           0.255  
I05  23740749.321        9388.384         221.619           0.255  
I06  22337005.723        1571.822          36.510           0.255  
I07  23673335.779        -632.183         -15.203           0.255  
> 2019 05 08 04 25 48.5088020  0  6                     
I02  20905876.924         232.424           7.898           0.255  
I03  20626470.606        -840.333         -23.608           0.255  
I04  21950049.578        -327.845         -14.431           0.255  
I05  23740747.753        9390.558         217.385           0.255  
I06  22337005.277        1572.118          29.684           0.255  
I07  23673339.189        -632.333         -15.020           0.255  
> 2019 05 08 04 25 48.5188020  0  6                     
I02  20905877.781         232.451           2.680           0.255  
I03  20626460.946        -840.560         -22.680           0.255  
I04  21950055.508        -327.954         -10.919           0.255  
I05  23740746.113        9392.718         215.962           0.255  
I06  22337004.383        1572.471          35.240           0.255  
I07  23673328.373        -632.543         -21.037           0.255  
> 2019 05 08 04 25 48.5288020  0  6                     
I02  20905868.543         232.484           3.321           0.255  
I03  20626462.099        -840.729         -16.912           0.255  
I04  21950046.190        -328.017          -6.281           0.255  
I05  23740744.627        9394.914         219.595           0.255  
I06  22337004.971        1572.901          42.976           0.255  
I07  23673329.863        -632.729         -18.602           0.255  
> 2019 05 08 04 25 48.5388020  0  6                     
I02  20905866.905         232.550           6.613           0.255  
I03  20626464.902        -840.916         -18.685           0.255  
I04  21950048.789        -328.049          -3.233           0.255  
I05  23740743.551        9397.109         219.513           0.255  
I06  22337005.208        1573.281          38.040           0.255  
I07  23673333.916        -632.884         -15.500           0.255  
> 2019 05 08 04 25 48.5488020  0  6                     
I02  20905868.905         232.613           6.346           0.255  
I03  20626467.162        -841.114         -19.848           0.255  
I04  21950051.418        -328.139          -8.993           0.255  
I05  23740743.203        9399.324         221.474           0.255  
I06  22337004.580        1573.650          36.885           0.255  
I07  23673337.203        -633.042         -15.824           0.255  
> 2019 05 08 04 25 48.5588020  0  6                     
I02  20905870.743         232.649           3.565           0.255  
I03  20626468.869        -841.322         -20.792           0.255  
I04  21950054.795        -328.241         -10.167           0.255  
I05  23740742.965        9401.519         219.505           0.255  
I06  22337004.420        1574.027          37.702           0.255  
I07  23673326.713        -633.227         -18.410           0.255  
> 2019 05 08 04 25 48.5688020  0  6                     
I02  20905870.651         232.715           6.550           0.255  
I03  20626470.581        -841.496         -17.354           0.255  
I04  21950044.662        -328.311          -6.993           0.255  
I05  23740742.421        9403.727         220.886           0.255  
I06  22337004.616        1574.410          38.293           0.255  
I07  23673327.702        -633.427         -20.050           0.255  
> 2019 05 08 04 25 48.5788020  0  6                     
I02  20905870.373         232.791           7.596           0.255  
I03  20626461.572        -841.689         -19.387           0.255  
I04  21950048.077        -328.387          -7.654           0.255  
I05  23740742.338        9405.928         220.059           0.255  
I06  22337003.353        1574.765          35.490           0.255  
I07  23673329.624        -633.577         -15.003           0.255  
> 2019 05 08 04 25 48.5888020  0  6                     
I02  20905869.968         232.876           8.558           0.255  
I03  20626461.936        -841.900         -21.073           0.255  
I04  21950054.464        -328.530         -14.245           0.255  
I05  23740742.855        9408.097         216.936           0.255  
I06  22337002.620        1575.131          36.673           0.255  
I07  23673330.368        -633.764         -18.683           0.255  
> 2019 05 08 04 25 48.5988020  0  6                     
I02  20905870.966         232.911           3.455           0.255  
I03  20626463.394        -842.103         -20.255           0.255  
I04  21950044.917        -328.654         -12.363           0.255  
I05  23740742.039        9410.288         219.082           0.255  
I06  22337002.250        1575.500          36.888           0.255  
I07  23673333.507        -633.919         -15.512           0.255  
> 2019 05 08 04 25 48.6088020  0  6                     
I02  20905872.116         232.926           1.574           0.255  
I03  20626464.924        -842.273         -16.998           0.255  
I04  21950046.891        -328.688          -3.397           0.255  
I05  23740742.077        9412.524         223.607           0.255  
I06  22337001.088        1575.882          38.204           0.255  
I07  23673337.732        -634.034         -11.524           0.255  
> 2019 05 08 04 25 48.6188020  0  6                     
I02  20905873.946         232.998           7.113           0.255  
I03  20626466.123        -842.467         -19.433           0.255  
I04  21950050.892        -328.724          -3.644           0.255  
I05  23740741.970        9414.720         219.612           0.255  
I06  22337001.365        1576.262          37.944           0.255  
I07  23673326.675        -634.222         -18.795           0.255  
> 2019 05 08 04 25 48.6288020  0  6                     
I02  20905874.941         233.102          10.477           0.255  
I03  20626467.295        -842.658         -19.055           0.255  
I04  21950054.155        -328.781          -5.711           0.255  
I05  23740742.559        9416.888         216.750           0.255  
I06  22337001.769        1576.610          34.802           0.255  
I07  23673326.570        -634.498         -27.627           0.255  
> 2019 05 08 04 25 48.6388020  0  6                     
I02  20905875.189         233.119           1.696           0.255  
I03  20626468.707        -842.878         -21.998           0.255  
I04  21950044.721        -328.917         -13.617           0.255  
I05  23740742.056        9419.057         216.943           0.255  
I06  22337000.436        1576.979          36.928           0.255  
I07  23673329.689        -634.751         -25.295           0.255  
> 2019 05 08 04 25 48.6488020  0  6                     
I02  20905874.809         233.151           3.124           0.255  
I03  20626470.427        -843.070         -19.209           0.255  
I04  21950048.945        -329.062         -14.516           0.255  
I05  23740741.687        9421.264         220.627           0.255  
I06  22337000.616        1577.633          42.370           0.255  
I07  23673332.482        -634.888         -13.677           0.255  
> 2019 05 08 04 25 48.6588020  0  6                     
I02  20905872.983         233.198           4.761           0.255  
I03  20626461.934        -843.278         -20.873           0.255  
I04  21950054.115        -329.164         -10.152           0.255  
I05  23740741.143        9423.472         220.867           0.255  
I06  22337001.695        1577.761          37.786           0.255  
I07  23673332.950        -634.918          -2.973           0.255  
> 2019 05 08 04 25 48.6688020  0  6                     
I02  20905873.796         233.286           8.779           0.255  
I03  20626462.664        -843.468         -18.948           0.255  
I04  21950044.899        -329.221          -5.709           0.255  
I05  23740740.446        9425.671         219.864           0.255  
I06  22337001.398        1578.097          33.602           0.255  
I07  23673333.684        -635.102         -18.424           0.255  
> 2019 05 08 04 25 48.6788020  0  6                     
I02  20905875.785         233.354           6.843           0.255  
I03  20626464.143        -843.658         -19.045           0.255  
I04  21950047.401        -329.269          -4.839           0.255  
I05  23740740.455        9427.843         217.225           0.255  
I06  22337000.376        1578.471          37.472           0.255  
I07  23673334.828        -635.406         -30.363           0.255  
> 2019 05 08 04 25 48.6888020  0  6                     
I02  20905877.023         233.408           5.354           0.255  
I03  20626466.004        -843.840         -18.176           0.255  
I04  21950050.697        -329.312          -4.224           0.255  
I05  23740740.567        9430.047         220.427           0.255  
I06  22336999.493        1578.876          40.510           0.255  
I07  23673336.659        -635.623         -21.764           0.255  
> 2019 05 08 04 25 48.6988020  0  6                     
I02  20905877.348         233.455           4.673           0.255  
I03  20626467.676        -844.064         -22.410           0.255  
I04  21950054.288        -329.424         -11.186           0.255  
I05  23740740.369        9432.253         220.527           0.255  
I06  22336999.433        1579.244          36.798           0.255  
I07  23673325.451        -635.694          -7.075           0.255  
> 2019 05 08 04 25 48.7088020  0  6                     
I02  20905868.204         233.492           3.744           0.255  
I03  20626468.660        -844.276         -21.142           0.255  
I04  21950044.532        -329.549         -12.503           0.255  
I05  23740740.348        9434.437         218.408           0.255  
I06  22336998.778        1579.599          35.457           0.255  
I07  23673326.362        -635.797         -10.271           0.255  
> 2019 05 08 04 25 48.7188020  0  6                     
I02  20905866.884         233.535           4.341           0.255  
I03  20626470.347        -844.465         -18.877           0.255  
I04  21950048.123        -329.659         -11.051           0.255  
I05  23740739.006        9436.602         216.545           0.255  
I06  22336998.927        1579.959          36.030           0.255  
I07  23673328.553        -636.061         -26.380           0.255  
> 2019 05 08 04 25 48.7288020  0  6                     
I02  20905868.349         233.611           7.600           0.255  
I03  20626472.266        -844.640         -17.549           0.255  
I04  21950050.675        -329.740          -8.087           0.255  
I05  23740737.721        9438.800         219.804           0.255  
I06  22336999.792        1580.349          39.008           0.255  
I07  23673330.833        -636.263         -20.269           0.255  
> 2019 05 08 04 25 48.7388020  0  6                     
I02  20905868.798         233.711           9.969           0.255  
I03  20626463.377        -844.822         -18.205           0.255  
I04  21950054.713        -329.804          -6.437           0.255  
I05  23740735.883        9441.034         223.416           0.255  
I06  22337000.250        1580.739          39.014           0.255  
I07  23673333.998        -636.397         -13.329           0.255  
> 2019 05 08 04 25 48.7488020  0  6                     
I02  20905870.074         233.756           4.471           0.255  
I03  20626463.678        -845.034         -21.147           0.255  
I04  21950045.273        -329.876          -7.214           0.255  
I05  23740735.373        9443.238         220.338           0.255  
I06  22337000.179        1581.087          34.725           0.255  
I07  23673335.488        -636.542         -14.563           0.255  
> 2019 05 08 04 25 48.7588020  0  6                     
I02  20905871.046         233.772           1.617           0.255  
I03  20626466.173        -845.259         -22.499           0.255  
I04  21950046.618        -330.127        -112.146           0.255  
I05  23740734.304        9445.405         216.742           0.255  
I06  22336999.943        1582.143          99.222           0.255  
I07  23673337.727        -636.750         -20.723           0.255  
> 2019 05 08 04 25 48.7688020  0  6                     
I02  20905871.081         233.778           0.583           0.255  
I03  20626468.672        -845.432         -17.396           0.255  
I04  21950053.107        -330.060          -8.990           0.255  
I05  23740733.371        9447.588         218.273           0.255  
I06  22336999.015        1581.824          40.074           0.255  
I07  23673327.214        -636.950         -20.006           0.255  
> 2019 05 08 04 25 48.7788020  0  6                     
I02  20905870.554         233.875           9.748           0.255  
I03  20626470.742        -845.612         -17.989           0.255  
I04  21950057.966        -328.841         300.220           0.255  
I05  23740733.259        9449.797         220.860           0.255  
I06  22337000.260        1582.949         223.031           0.255  
I07  23673327.335        -637.118         -16.806           0.255  
> 2019 05 08 04 25 48.7888020  0  6                     
I02  20905871.159         234.007          13.147           0.255  
I03  20626461.524        -845.808         -19.555           0.255  
I04  21950048.153        -330.225          -9.473           0.255  
I05  23740732.686        9452.000         220.304           0.255  
I06  22337000.237        1582.617          39.653           0.255  
I07  23673328.213        -637.272         -15.424           0.255  
> 2019 05 08 04 25 48.7988020  0  6                     
I02  20905871.598         234.037           3.028           0.255  
I03  20626461.810        -846.023         -21.532           0.255  
I04  21950052.505        -330.331         -10.565           0.255  
I05  23740732.117        9454.166         216.669           0.255  
I06  22336998.580        1582.971          35.411           0.255  
I07  23673330.941        -637.463         -19.061           0.255  
> 2019 05 08 04 25 48.8088020  0  6                     
I02  20905871.921         234.035          -0.208           0.255  
I03  20626464.381        -846.226         -20.249           0.255  
I04  21950056.760        -330.442         -11.090           0.255  
I05  23740731.502        9456.378         221.135           0.255  
I06  22336999.699        1583.326          35.443           0.255  
I07  23673332.067        -637.627         -16.496           0.255  
> 2019 05 08 04 25 48.8188020  0  6                     
I02  20905871.895         234.124           8.886           0.255  
I03  20626466.603        -846.416         -19.045           0.255  
I04  21950047.181        -330.510          -6.838           0.255  
I05  23740731.312        9458.600         222.273           0.255  
I06  22337000.343        1583.683          35.681           0.255  
I07  23673333.960        -637.799         -17.155           0.255  
> 2019 05 08 04 25 48.8288020  0  6                     
I02  20905873.522         234.218           9.381           0.255  
I03  20626467.826        -846.594         -17.799           0.255  
I04  21950047.259        -330.556          -4.599           0.255  
I05  23740731.594        9460.785         218.431           0.255  
I06  22337000.233        1584.074          39.174           0.255  
I07  23673334.861        -638.005         -20.623           0.255  
> 2019 05 08 04 25 48.8388020  0  6                     
I02  20905875.212         234.222           0.401           0.255  
I03  20626469.157        -846.814         -22.002           0.255  
I04  21950051.659        -330.694         -13.761           0.255  
I05  23740731.381        9462.941         215.589           0.255  
I06  22336999.418        1584.430          35.539           0.255  
I07  23673336.513        -638.212         -20.696           0.255  
> 2019 05 08 04 25 48.8488020  0  6                     
I02  20905875.860         234.216          -0.543           0.255  
I03  20626471.045        -847.052         -23.756           0.255  
I04  21950055.749        -330.806         -11.257           0.255  
I05  23740731.155        9465.095         215.400           0.255  
I06  22336998.715        1584.794          36.380           0.255  
I07  23673326.487        -638.425         -21.230           0.255  
> 2019 05 08 04 25 48.8588020  0  6                     
I02  20905875.572         234.317          10.076           0.255  
I03  20626461.960        -847.239         -18.682           0.255  
I04  21950045.988        -330.868          -6.180           0.255  
I05  23740731.134        9467.322         222.691           0.255  
I06  22336998.305        1585.432         135.861           0.255  
I07  23673324.243        -638.549         -12.410           0.255  
> 2019 05 08 04 25 48.8688020  0  6                     
I02  20905874.926         234.430          11.319           0.255  
I03  20626462.586        -847.400         -16.119           0.255  
I04  21950049.983        -330.944          -7.641           0.255  
I05  23740730.505        9469.542         222.054           0.255  
I06  22336998.152        1585.542          38.301           0.255  
I07  23673326.361        -638.695         -14.594           0.255  
> 2019 05 08 04 25 48.8788020  0  6                     
I02  20905874.269         234.468           3.749           0.255  
I03  20626464.923        -847.586         -18.589           0.255  
I04  21950054.729        -331.048         -10.364           0.255  
I05  23740729.856        9471.724         218.225           0.255  
I06  22336997.975        1585.921          37.869           0.255  
I07  23673329.163        -638.896         -20.099           0.255  
> 2019 05 08 04 25 48.8888020  0  6                     
I02  20905875.235         234.463          -0.429           0.255  
I03  20626466.037        -847.796         -21.009           0.255  
I04  21950045.307        -331.146          -9.763           0.255  
I05  23740729.113        9473.912         218.792           0.255  
I06  22336998.012        1586.289          36.819           0.255  
I07  23673331.032        -639.037         -14.182           0.255  
> 2019 05 08 04 25 48.8988020  0  6                     
I02  20905876.994         234.529           6.590           0.255  
I03  20626467.386        -847.991         -19.545           0.255  
I04  21950046.913        -331.203          -5.696           0.255  
I05  23740729.746        9476.132         221.942           0.255  
I06  22336997.783        1586.662          37.343           0.255  
I07  23673332.388        -639.227         -18.966           0.255  
> 2019 05 08 04 25 48.9088020  0  6                     
I02  20905867.411         234.648          11.825           0.255  
I03  20626469.382        -848.191         -19.978           0.255  
I04  21950050.277        -331.279          -7.681           0.255  
I05  23740728.535        9478.325         219.327           0.255  
I06  22336998.398        1587.051          38.847           0.255  
I07  23673334.507        -639.370         -14.297           0.255  
> 2019 05 08 04 25 48.9188020  0  6                     
I02  20905865.725         234.700           5.224           0.255  
I03  20626471.952        -848.386         -19.521           0.255  
I04  21950053.107        -331.408         -12.853           0.255  
I05  23740727.370        9480.497         217.217           0.255  
I06  22336999.133        1587.412          36.103           0.255  
I07  23673335.593        -639.618         -24.830           0.255  
> 2019 05 08 04 25 48.9288020  0  6                     
I02  20905866.527         234.722           2.249           0.255  
I03  20626463.416        -848.573         -18.641           0.255  
I04  21950058.753        -331.515         -10.699           0.255  
I05  23740726.877        9482.674         217.736           0.255  
I06  22336998.344        1587.761          34.923           0.255  
I07  23673337.077        -639.856         -23.783           0.255  
> 2019 05 08 04 25 48.9388020  0  6                     
I02  20905867.225         234.762           3.936           0.255  
I03  20626463.824        -848.768         -19.532           0.255  
I04  21950049.313        -331.550          -3.542           0.255  
I05  23740725.335        9484.893         221.819           0.255  
I06  22336998.194        1588.147          38.624           0.255  
I07  23673326.561        -639.930          -7.425           0.255  
> 2019 05 08 04 25 48.9488020  0  6                     
I02  20905867.537         234.846           8.388           0.255  
I03  20626466.224        -848.976         -20.800           0.255  
I04  21950052.454        -331.621          -7.015           0.255  
I05  23740723.979        9487.107         221.399           0.255  
I06  22336997.925        1588.532          38.431           0.255  
I07  23673327.852        -640.010          -7.953           0.255  
> 2019 05 08 04 25 48.9588020  0  6                     
I02  20905867.784         234.920           7.432           0.255  
I03  20626468.253        -849.195         -21.929           0.255  
I04  21950057.055        -331.732         -11.138           0.255  
I05  23740722.752        9489.301         219.415           0.255  
I06  22336998.103        1588.904          37.289           0.255  
I07  23673330.543        -640.222         -21.243           0.255  
> 2019 05 08 04 25 48.9688020  0  6                     
I02  20905868.587         234.955           3.497           0.255  
I03  20626470.113        -849.380         -18.435           0.255  
I04  21950047.791        -331.829          -9.692           0.255  
I05  23740722.230        9491.480         217.932           0.255  
I06  22336998.498        1589.266          36.151           0.255  
I07  23673333.213        -640.521         -29.849           0.255  
> 2019 05 08 04 25 48.9788020  0  6                     
I02  20905868.984         234.988           3.316           0.255  
I03  20626471.607        -849.535         -15.521           0.255  
I04  21950050.616        -331.875          -4.669           0.255  
I05  23740721.583        9493.672         219.205           0.255  
I06  22337000.041        1589.636          37.045           0.255  
I07  23673335.751        -640.689         -16.860           0.255  
> 2019 05 08 04 25 48.9888020  0  6                     
I02  20905871.012         235.051           6.329           0.255  
I03  20626463.955        -849.721         -18.643           0.255  
I04  21950054.393        -331.936          -6.095           0.255  
I05  23740720.615        9495.856         218.430           0.255  
I06  22336999.192        1590.010          37.339           0.255  
I07  23673336.922        -640.814         -12.503           0.255  
> 2019 05 08 04 25 48.9988020  0  6                     
I02  20905871.095         235.132           8.046           0.255  
I03  20626464.585        -849.975         -25.385           0.255  
I04  21950045.405        -332.046         -10.993           0.255  
I05  23740719.442        9498.067         221.072           0.255  
I06  22336997.627        1590.381          37.151           0.255  
I07  23673325.642        -640.983         -16.844           0.255  
> 2019 05 08 04 25 49.0088020  0  6                     
I02  20905870.813         235.195           6.281           0.255  
I03  20626466.966        -850.203         -22.838           0.255  
I04  21950049.735        -332.194         -14.733           0.255  
I05  23740719.555        9500.252         218.528           0.255  
I06  22336998.296        1590.744          36.264           0.255  
I07  23673327.335        -641.167         -18.449           0.255  
> 2019 05 08 04 25 49.0188020  0  6                     
I02  20905870.746         235.237           4.244           0.255  
I03  20626469.395        -850.361         -15.794           0.255  
I04  21950055.227        -332.272          -7.793           0.255  
I05  23740719.387        9502.446         219.326           0.255  
I06  22336999.184        1591.132          38.770           0.255  
I07  23673330.583        -641.373         -20.514           0.255  
> 2019 05 08 04 25 49.0288020  0  6                     
I02  20905871.072         235.266           2.883           0.255  
I03  20626470.965        -850.510         -14.829           0.255  
I04  21950045.632        -332.324          -5.280           0.255  
I05  23740718.139        9504.626         218.054           0.255  
I06  22337000.129        1591.514          38.271           0.255  
I07  23673332.163        -641.547         -17.465           0.255  
> 2019 05 08 04 25 49.0388020  0  6                     
I02  20905871.791         235.323           5.688           0.255  
I03  20626462.558        -850.749         -23.941           0.255  
I04  21950047.890        -332.386          -6.171           0.255  
I05  23740716.788        9506.804         217.776           0.255  
I06  22337000.168        1591.502         -18.344           0.255  
I07  23673335.399        -641.715         -16.793           0.255  
> 2019 05 08 04 25 49.0488020  0  6                     
I02  20905871.480         235.384           6.122           0.255  
I03  20626463.564        -850.982         -23.330           0.255  
I04  21950053.521        -332.499         -11.289           0.255  
I05  23740717.643        9509.017         221.259           0.255  
I06  22337001.252        1592.231          34.947           0.255  
I07  23673338.303        -641.886         -17.080           0.255  
> 2019 05 08 04 25 49.0588020  0  6                     
I02  20905870.424         235.448           6.379           0.255  
I03  20626466.127        -851.173         -19.075           0.255  
I04  21950057.807        -332.587          -8.783           0.255  
I05  23740717.168        9511.221         220.488           0.255  
I06  22337001.062        1592.585          35.385           0.255  
I07  23673327.281        -642.021         -13.529           0.255  
> 2019 05 08 04 25 49.0688020  0  6                     
I02  20905870.548         235.504           5.605           0.255  
I03  20626468.088        -851.317         -14.349           0.255  
I04  21950047.749        -332.707         -12.046           0.255  
I05  23740717.657        9513.427         220.594           0.255  
I06  22337002.170        1592.968          38.266           0.255  
I07  23673327.806        -642.226         -20.518           0.255  
> 2019 05 08 04 25 49.0788020  0  6                     
I02  20905870.360         235.553           4.889           0.255  
I03  20626469.642        -851.519         -20.262           0.255  
I04  21950052.631        -332.796          -8.822           0.255  
I05  23740717.554        9515.612         218.489           0.255  
I06  22337000.529        1593.353          38.534           0.255  
I07  23673330.710        -642.405         -17.870           0.255  
> 2019 05 08 04 25 49.0888020  0  6                     
I02  20905871.639         235.585           3.252           0.255  
I03  20626471.152        -851.746         -22.687           0.255  
I04  21950057.231        -332.888          -9.258           0.255  
I05  23740717.343        9517.804         219.144           0.255  
I06  22337000.635        1593.725          37.250           0.255  
I07  23673333.229        -642.611         -20.614           0.255  
> 2019 05 08 04 25 49.0988020  0  6                     
I02  20905871.631         235.653           6.816           0.255  
I03  20626462.522        -851.984         -23.805           0.255  
I04  21950048.085        -332.948          -6.034           0.255  
I05  23740716.888        9519.988         218.455           0.255  
I06  22337000.088        1594.105          37.949           0.255  
I07  23673336.943        -642.739         -12.736           0.255  
> 2019 05 08 04 25 49.1088020  0  6                     
I02  20905871.754         235.725           7.179           0.255  
I03  20626463.775        -852.160         -17.580           0.255  
I04  21950049.599        -333.025          -7.614           0.255  
I05  23740716.228        9522.161         217.247           0.255  
I06  22336999.953        1594.472          36.675           0.255  
I07  23673326.482        -642.876         -13.753           0.255  
> 2019 05 08 04 25 49.1188020  0  6                     
I02  20905873.180         235.771           4.579           0.255  
I03  20626466.546        -852.319         -15.928           0.255  
I04  21950053.874        -333.147         -12.235           0.255  
I05  23740715.969        9524.343         218.248           0.255  
I06  22336999.863        1594.845          37.349           0.255  
I07  23673327.239        -643.079         -20.252           0.255  
> 2019 05 08 04 25 49.1288020  0  6                     
I02  20905872.787         235.811           3.991           0.255  
I03  20626468.981        -852.506         -18.679           0.255  
I04  21950044.153        -333.218          -7.068           0.255  
I05  23740714.843        9526.567         222.415           0.255  
I06  22336999.259        1595.210          36.474           0.255  
I07  23673331.143        -643.301         -22.192           0.255  
> 2019 05 08 04 25 49.1388020  0  6                     
I02  20905873.270         235.894           8.338           0.255  
I03  20626470.932        -852.743         -23.681           0.255  
I04  21950047.162        -333.278          -6.015           0.255  
I05  23740713.846        9528.792         222.506           0.255  
I06  22336999.330        1595.594          38.393           0.255  
I07  23673334.247        -643.480         -17.968           0.255  
> 2019 05 08 04 25 49.1488020  0  6                     
I02  20905872.073         235.955           6.119           0.255  
I03  20626462.559        -852.927         -18.454           0.255  
I04  21950054.491        -333.376          -9.861           0.255  
I05  23740713.044        9531.002         220.946           0.255  
I06  22336999.749        1595.958          36.379           0.255  
I07  23673336.123        -643.679         -19.873           0.255  
> 2019 05 08 04 25 49.1588020  0  6                     
I02  20905872.062         235.997           4.120           0.255  
I03  20626463.499        -853.116         -18.896           0.255  
I04  21950045.852        -333.490         -11.364           0.255  
I05  23740711.023        9533.138         213.617           0.255  
I06  22336999.313        1596.337          37.928           0.255  
I07  23673325.330        -643.894         -21.553           0.255  
> 2019 05 08 04 25 49.1688020  0  6                     
I02  20905871.265         236.048           5.106           0.255  
I03  20626466.165        -853.299         -18.235           0.255  
I04  21950048.472        -333.567          -7.697           0.255  
I05  23740711.487        9535.316         217.829           0.255  
I06  22336999.392        1596.687          35.044           0.255  
I07  23673327.407        -644.003         -10.847           0.255  
> 2019 05 08 04 25 49.1788020  0  6                     
I02  20905871.325         236.090           4.255           0.255  
I03  20626468.646        -853.492         -19.363           0.255  
I04  21950054.913        -333.630          -6.269           0.255  
I05  23740711.984        9537.546         222.954           0.255  
I06  22336998.667        1597.076          38.876           0.255  
I07  23673328.570        -644.156         -15.255           0.255  
> 2019 05 08 04 25 49.1888020  0  6                     
I02  20905872.419         236.175           8.495           0.255  
I03  20626470.267        -853.681         -18.831           0.255  
I04  21950046.154        -333.729          -9.937           0.255  
I05  23740710.786        9539.774         222.793           0.255  
I06  22336999.083        1597.348          87.771           0.255  
I07  23673332.662        -644.345         -18.915           0.255  
> 2019 05 08 04 25 49.1988020  0  6                     
I02  20905872.472         236.225           4.942           0.255  
I03  20626471.665        -853.903         -22.201           0.255  
I04  21950047.519        -333.836         -10.695           0.255  
I05  23740710.645        9541.960         218.649           0.255  
I06  22336999.654        1597.837          36.617           0.255  
I07  23673336.049        -644.526         -18.109           0.255  
> 2019 05 08 04 25 49.2088020  0  6                     
I02  20905873.236         236.266           4.135           0.255  
I03  20626461.982        -854.110         -20.718           0.255  
I04  21950052.532        -333.927          -9.090           0.255  
I05  23740711.736        9544.112         215.194           0.255  
I06  22336998.472        1598.163          32.623           0.255  
I07  23673324.793        -644.690         -16.424           0.255  
> 2019 05 08 04 25 49.2188020  0  6                     
I02  20905873.190         236.324           5.830           0.255  
I03  20626462.586        -854.302         -19.244           0.255  
I04  21950059.714        -333.980          -5.346           0.255  
I05  23740710.902        9546.294         218.204           0.255  
I06  22336999.929        1598.544          38.152           0.255  
I07  23673326.120        -644.869         -17.885           0.255  
> 2019 05 08 04 25 49.2288020  0  6                     
I02  20905872.567         236.412           8.777           0.255  
I03  20626465.416        -854.470         -16.782           0.255  
I04  21950051.275        -334.012          -3.205           0.255  
I05  23740709.116        9548.529         223.502           0.255  
I06  22336999.575        1598.940          39.596           0.255  
I07  23673330.353        -645.022         -15.329           0.255  
> 2019 05 08 04 25 49.2388020  0  6                     
I02  20905872.507         236.437           2.537           0.255  
I03  20626468.541        -854.667         -19.675           0.255  
I04  21950053.808        -334.108          -9.539           0.255  
I05  23740708.622        9550.725         219.561           0.255  
I06  22336999.938        1599.333          39.306           0.255  
I07  23673334.106        -645.265         -24.317           0.255  
> 2019 05 08 04 25 49.2488020  0  6                     
I02  20905873.222         236.489           5.218           0.255  
I03  20626470.104        -854.874         -20.720           0.255  
I04  21950057.930        -334.262         -15.407           0.255  
I05  23740708.947        9552.912         218.699           0.255  
I06  22336999.537        1599.703          36.973           0.255  
I07  23673336.836        -645.460         -19.419           0.255  
> 2019 05 08 04 25 49.2588020  0  6                     
I02  20905873.826         236.537           4.781           0.255  
I03  20626471.804        -855.110         -23.636           0.255  
I04  21950048.353        -334.377         -11.471           0.255  
I05  23740708.432        9555.067         215.547           0.255  
I06  22336998.482        1600.053          35.011           0.255  
I07  23673325.624        -645.583         -12.337           0.255  
> 2019 05 08 04 25 49.2688020  0  6                     
I02  20905873.144         236.619           8.186           0.255  
I03  20626464.513        -855.274         -16.353           0.255  
I04  21950050.532        -334.420          -4.326           0.255  
I05  23740707.553        9557.299         223.112           0.255  
I06  22336998.841        1600.395          34.149           0.255  
I07  23673325.779        -645.736         -15.322           0.255  
> 2019 05 08 04 25 49.2788020  0  6                     
I02  20905871.971         236.684           6.444           0.255  
I03  20626465.401        -855.466         -19.241           0.255  
I04  21950055.590        -334.467          -4.747           0.255  
I05  23740707.269        9559.515         221.602           0.255  
I06  22336998.792        1600.803          40.778           0.255  
I07  23673328.634        -645.914         -17.807           0.255  
> 2019 05 08 04 25 49.2888020  0  6                     
I02  20905871.246         236.712           2.887           0.255  
I03  20626467.745        -855.673         -20.699           0.255  
I04  21950046.677        -334.547          -7.938           0.255  
I05  23740707.536        9561.700         218.572           0.255  
I06  22336998.906        1601.181          37.837           0.255  
I07  23673331.899        -646.117         -20.284           0.255  
> 2019 05 08 04 25 49.2988020  0  6                     
I02  20905872.286         236.721           0.857           0.255  
I03  20626469.734        -855.864         -19.030           0.255  
I04  21950048.272        -334.671         -12.403           0.255  
I05  23740706.987        9563.860         215.956           0.255  
I06  22336997.744        1601.545          36.422           0.255  
I07  23673334.778        -646.315         -19.748           0.255  
> 2019 05 08 04 25 49.3088020  0  6                     
I02  20905872.193         236.818           9.697           0.255  
I03  20626471.821        -856.038         -17.389           0.255  
I04  21950053.883        -334.799         -12.867           0.255  
I05  23740705.736        9566.084         222.370           0.255  
I06  22336996.938        1601.924          37.844           0.255  
I07  23673338.339        -646.420         -10.571           0.255  
> 2019 05 08 04 25 49.3188020  0  6                     
I02  20905872.392         236.931          11.286           0.255  
I03  20626464.281        -856.249         -21.116           0.255  
I04  21950044.993        -334.874          -7.505           0.255  
I05  23740705.517        9568.285         220.154           0.255  
I06  22336995.764        1602.306          38.196           0.255  
I07  23673327.476        -646.566         -14.567           0.255  
> 2019 05 08 04 25 49.3288020  0  6                     
I02  20905872.317         236.974           4.350           0.255  
I03  20626465.680        -856.464         -21.512           0.255  
I04  21950047.204        -334.900          -2.568           0.255  
I05  23740704.209        9570.484         219.878           0.255  
I06  22336996.453        1602.668          36.249           0.255  
I07  23673329.188        -646.754         -18.786           0.255  
> 2019 05 08 04 25 49.3388020  0  6                     
I02  20905872.081         236.944          -3.078           0.255  
I03  20626468.409        -856.665         -20.121           0.255  
I04  21950051.348        -334.982          -8.181           0.255  
I05  23740704.444        9572.639         215.519           0.255  
I06  22336996.807        1603.007          33.853           0.255  
I07  23673331.462        -647.049         -29.516           0.255  
> 2019 05 08 04 25 49.3488020  0  6                     
I02  20905871.810         236.966           2.215           0.255  
I03  20626470.840        -856.858         -19.330           0.255  
I04  21950055.687        -335.134         -15.243           0.255  
I05  23740702.865        9574.814         217.499           0.255  
I06  22336997.806        1603.348          34.141           0.255  
I07  23673334.544        -647.216         -16.662           0.255  
> 2019 05 08 04 25 49.3588020  0  6                     
I02  20905871.910         237.032           6.595           0.255  
I03  20626463.409        -857.057         -19.861           0.255  
I04  21950046.330        -335.255         -12.064           0.255  
I05  23740703.211        9577.015         220.106           0.255  
I06  22336997.716        1603.717          36.947           0.255  
I07  23673337.270        -647.412         -19.688           0.255  
> 2019 05 08 04 25 49.3688020  0  6                     
I02  20905871.395         237.146          11.445           0.255  
I03  20626464.917        -857.273         -21.597           0.255  
I04  21950050.569        -335.362         -10.655           0.255  
I05  23740701.699        9579.216         220.053           0.255  
I06  22336996.394        1604.099          38.150           0.255  
I07  23673326.806        -647.511          -9.894           0.255  
> 2019 05 08 04 25 49.3788020  0  6                     
I02  20905871.756         237.198           5.155           0.255  
I03  20626467.083        -857.489         -21.605           0.255  
I04  21950055.276        -335.444          -8.269           0.255  
I05  23740700.741        9581.382         216.627           0.255  
I06  22336997.182        1604.485          38.654           0.255  
I07  23673326.309        -647.740         -22.882           0.255  
> 2019 05 08 04 25 49.3888020  0  6                     
I02  20905871.009         237.237           3.920           0.255  
I03  20626469.587        -857.679         -19.041           0.255  
I04  21950046.337        -335.487          -4.227           0.255  
I05  23740699.785        9583.585         220.334           0.255  
I06  22336998.108        1604.889          40.347           0.255  
I07  23673328.600        -647.883         -14.231           0.255  
> 2019 05 08 04 25 49.3988020  0  6                     
I02  20905871.587         237.235          -0.198           0.255  
I03  20626472.294        -857.856         -17.621           0.255  
I04  21950047.689        -335.549          -6.274           0.255  
I05  23740700.438        9585.786         220.101           0.255  
I06  22336996.609        1605.229          33.987           0.255  
I07  23673331.727        -648.096         -21.302           0.255  
> 2019 05 08 04 25 49.4088020  0  6                     
I02  20905871.634         237.319           8.390           0.255  
I03  20626464.684        -858.076         -22.091           0.255  
I04  21950051.799        -335.688         -13.887           0.255  
I05  23740699.919        9587.973         218.674           0.255  
I06  22336995.617        1605.558          32.892           0.255  
I07  23673335.176        -648.274         -17.889           0.255  
> 2019 05 08 04 25 49.4188020  0  6                     
I02  20905872.443         237.385           6.622           0.255  
I03  20626465.649        -858.303         -22.686           0.255  
I04  21950056.397        -335.825         -13.721           0.255  
I05  23740699.489        9590.139         216.565           0.255  
I06  22336994.334        1605.935          37.761           0.255  
I07  23673337.169        -648.443         -16.889           0.255  
> 2019 05 08 04 25 49.4288020  0  6                     
I02  20905872.695         237.444           5.929           0.255  
I03  20626468.387        -858.500         -19.620           0.255  
I04  21950046.487        -335.895          -6.965           0.255  
I05  23740699.298        9592.322         218.330           0.255  
I06  22336992.966        1606.333          39.765           0.255  
I07  23673326.880        -648.610         -16.651           0.255  
> 2019 05 08 04 25 49.4388020  0  6                     
I02  20905872.468         237.457           1.278           0.255  
I03  20626470.515        -858.680         -18.011           0.255  
I04  21950048.986        -335.983          -8.780           0.255  
I05  23740698.775        9594.526         220.439           0.255  
I06  22336992.562        1606.715          38.152           0.255  
I07  23673328.323        -648.860         -24.982           0.255  
> 2019 05 08 04 25 49.4488020  0  6                     
I02  20905873.633         237.474           1.690           0.255  
I03  20626461.005        -858.880         -20.045           0.255  
I04  21950053.939        -336.068          -8.493           0.255  
I05  23740697.554        9596.728         220.183           0.255  
I06  22336991.698        1607.041          32.650           0.255  
I07  23673330.481        -649.024         -16.411           0.255  
> 2019 05 08 04 25 49.4588020  0  6                     
I02  20905873.094         237.528           5.365           0.255  
I03  20626462.315        -859.095         -21.451           0.255  
I04  21950044.791        -336.153          -8.477           0.255  
I05  23740696.005        9598.900         217.214           0.255  
I06  22336991.727        1607.379          33.798           0.255  
I07  23673333.954        -649.201         -17.766           0.255  
> 2019 05 08 04 25 49.4688020  0  6                     
I02  20905874.034         237.625           9.743           0.255  
I03  20626464.042        -859.316         -22.142           0.255  
I04  21950046.190        -336.239          -8.627           0.255  
I05  23740694.404        9601.091         219.028           0.255  
I06  22336991.172        1607.747          36.782           0.255  
I07  23673335.915        -649.365         -16.396           0.255  
> 2019 05 08 04 25 49.4788020  0  6                     
I02  20905874.202         237.680           5.467           0.255  
I03  20626466.598        -859.518         -20.240           0.255  
I04  21950050.622        -336.328          -8.878           0.255  
I05  23740694.707        9603.275         218.456           0.255  
I06  22336991.574        1608.136          38.910           0.255  
I07  23673338.098        -649.535         -16.938           0.255  
> 2019 05 08 04 25 49.4888020  0  6                     
I02  20905874.485         237.708           2.801           0.255  
I03  20626468.465        -859.706         -18.788           0.255  
I04  21950056.175        -336.442         -11.442           0.255  
I05  23740694.304        9605.462         218.723           0.255  
I06  22336993.368        1608.518          38.158           0.255  
I07  23673326.900        -649.729         -19.402           0.255  
> 2019 05 08 04 25 49.4988020  0  6                     
I02  20905873.399         237.717           0.975           0.255  
I03  20626470.607        -859.906         -20.014           0.255  
I04  21950046.232        -336.558         -11.610           0.255  
I05  23740693.726        9607.652         218.937           0.255  
I06  22336993.804        1608.895          37.770           0.255  
I07  23673326.986        -649.936         -20.741           0.255  
> 2019 05 08 04 25 49.5088020  0  6                     
I02  20905872.778         237.792           7.446           0.255  
I03  20626461.802        -860.112         -20.579           0.255  
I04  21950049.826        -336.597          -3.908           0.255  
I05  23740692.715        9609.852         220.069           0.255  
I06  22336993.246        1609.262          36.680           0.255  
I07  23673328.998        -650.103         -16.659           0.255  
> 2019 05 08 04 25 49.5188020  0  6                     
I02  20905872.834         237.892          10.051           0.255  
I03  20626462.933        -860.311         -19.869           0.255  
I04  21950054.192        -336.663          -6.583           0.255  
I05  23740691.508        9612.060         220.716           0.255  
I06  22336993.942        1609.616          35.429           0.255  
I07  23673332.691        -650.261         -15.840           0.255  
> 2019 05 08 04 25 49.5288020  0  6                     
I02  20905872.929         237.942           4.953           0.255  
I03  20626466.382        -860.512         -20.134           0.255  
I04  21950044.325        -336.790         -12.663           0.255  
I05  23740692.374        9614.230         217.011           0.255  
I06  22336993.456        1609.981          36.440           0.255  
I07  23673334.834        -650.451         -19.024           0.255  
> 2019 05 08 04 25 49.5388020  0  6                     
I02  20905873.510         237.964           2.181           0.255  
I03  20626469.366        -860.726         -21.359           0.255  
I04  21950046.624        -336.894         -10.383           0.255  
I05  23740691.073        9616.399         216.944           0.255  
I06  22336993.906        1610.354          37.335           0.255  
I07  23673338.554        -650.628         -17.656           0.255  
> 2019 05 08 04 25 49.5488020  0  6                     
I02  20905872.739         237.993           2.901           0.255  
I03  20626472.086        -860.898         -17.251           0.255  
I04  21950051.299        -336.932          -3.816           0.255  
I05  23740690.463        9618.624         222.447           0.255  
I06  22336994.023        1610.758          40.361           0.255  
I07  23673328.595        -650.809         -18.065           0.255  
> 2019 05 08 04 25 49.5588020  0  6                     
I02  20905873.257         238.099          10.570           0.255  
I03  20626462.968        -861.087         -18.910           0.255  
I04  21950055.376        -336.998          -6.616           0.255  
I05  23740689.863        9620.854         223.068           0.255  
I06  22336993.706        1611.154          39.628           0.255  
I07  23673329.024        -650.942         -13.326           0.255  
> 2019 05 08 04 25 49.5688020  0  6                     
I02  20905874.285         238.187           8.879           0.255  
I03  20626463.005        -861.270         -18.297           0.255  
I04  21950045.597        -337.128         -13.003           0.255  
I05  23740688.613        9623.042         218.786           0.255  
I06  22336992.679        1611.495          34.088           0.255  
I07  23673331.816        -651.146         -20.435           0.255  
> 2019 05 08 04 25 49.5788020  0  6                     
I02  20905873.580         238.212           2.507           0.255  
I03  20626465.826        -861.473         -20.278           0.255  
I04  21950049.838        -337.291         -16.344           0.255  
I05  23740688.158        9625.193         215.131           0.255  
I06  22336992.835        1611.839          34.414           0.255  
I07  23673333.302        -651.343         -19.700           0.255  
> 2019 05 08 04 25 49.5888020  0  6                     
I02  20905873.540         238.229           1.710           0.255  
I03  20626468.729        -861.679         -20.601           0.255  
I04  21950053.711        -337.360          -6.822           0.255  
I05  23740687.938        9627.383         218.923           0.255  
I06  22336991.279        1612.236          39.677           0.255  
I07  23673335.664        -651.549         -20.533           0.255  
> 2019 05 08 04 25 49.5988020  0  6                     
I02  20905874.537         238.304           7.420           0.255  
I03  20626470.635        -861.840         -16.071           0.255  
I04  21950057.892        -337.352           0.742           0.255  
I05  23740686.906        9629.619         223.672           0.255  
I06  22336991.886        1612.640          40.384           0.255  
I07  23673337.663        -651.692         -14.349           0.255  
> 2019 05 08 04 25 49.6088020  0  6                     
I02  20905874.896         238.411          10.738           0.255  
I03  20626461.109        -862.035         -19.462           0.255  
I04  21950047.710        -337.458         -10.548           0.255  
I05  23740686.776        9631.844         222.488           0.255  
I06  22336992.728        1612.988          34.826           0.255  
I07  23673326.459        -651.783          -9.047           0.255  
> 2019 05 08 04 25 49.6188020  0  6                     
I02  20905874.105         238.459           4.757           0.255  
I03  20626461.966        -862.251         -21.620           0.255  
I04  21950050.910        -337.588         -13.088           0.255  
I05  23740686.338        9634.022         217.764           0.255  
I06  22336993.652        1613.328          34.044           0.255  
I07  23673328.357        -652.015         -23.277           0.255  
> 2019 05 08 04 25 49.6288020  0  6                     
I02  20905873.070         238.506           4.777           0.255  
I03  20626464.928        -862.453         -20.258           0.255  
I04  21950056.385        -337.649          -6.055           0.255  
I05  23740685.598        9636.203         218.150           0.255  
I06  22336994.495        1613.703          37.488           0.255  
I07  23673330.157        -652.253         -23.772           0.255  
> 2019 05 08 04 25 49.6388020  0  6                     
I02  20905872.556         238.559           5.279           0.255  
I03  20626467.738        -862.659         -20.552           0.255  
I04  21950046.165        -337.709          -5.986           0.255  
I05  23740684.918        9638.399         219.516           0.255  
I06  22336995.615        1614.121          41.736           0.255  
I07  23673332.746        -652.362         -10.884           0.255  
> 2019 05 08 04 25 49.6488020  0  6                     
I02  20905873.158         238.604           4.434           0.255  
I03  20626469.692        -862.865         -20.587           0.255  
I04  21950047.796        -337.815         -10.594           0.255  
I05  23740684.980        9640.575         217.625           0.255  
I06  22336996.580        1614.501          38.045           0.255  
I07  23673335.019        -652.480         -11.837           0.255  
> 2019 05 08 04 25 49.6588020  0  6                     
I02  20905872.610         238.617           1.398           0.255  
I03  20626471.867        -863.043         -17.874           0.255  
I04  21950052.326        -337.938         -12.336           0.255  
I05  23740683.729        9642.762         218.664           0.255  
I06  22336996.331        1614.838          33.729           0.255  
I07  23673337.514        -652.674         -19.332           0.255  
> 2019 05 08 04 25 49.6688020  0  6                     
I02  20905872.869         238.713           9.521           0.255  
I03  20626462.008        -863.237         -19.331           0.255  
I04  21950056.378        -338.032          -9.395           0.255  
I05  23740682.025        9644.978         221.607           0.255  
I06  22336997.417        1615.199          36.036           0.255  
I07  23673326.674        -652.897         -22.362           0.255  
> 2019 05 08 04 25 49.6788020  0  6                     
I02  20905873.125         238.823          10.980           0.255  
I03  20626462.422        -863.413         -17.607           0.255  
I04  21950047.333        -338.065          -3.272           0.255  
I05  23740681.547        9647.204         222.655           0.255  
I06  22336997.648        1615.579          38.026           0.255  
I07  23673328.083        -653.143         -24.616           0.255  
> 2019 05 08 04 25 49.6888020  0  6                     
I02  20905871.772         238.844           2.146           0.255  
I03  20626465.742        -863.607         -19.451           0.255  
I04  21950049.852        -338.091          -2.637           0.255  
I05  23740680.602        9649.386         218.169           0.255  
I06  22336997.077        1615.964          38.502           0.255  
I07  23673330.527        -653.267         -12.361           0.255  
> 2019 05 08 04 25 49.6988020  0  6                     
I02  20905871.755         238.822          -2.213           0.255  
I03  20626468.018        -863.803         -19.606           0.255  
I04  21950053.808        -338.205         -11.331           0.255  
I05  23740680.562        9651.554         216.831           0.255  
I06  22336996.778        1616.340          37.647           0.255  
I07  23673331.749        -653.421         -15.373           0.255  
> 2019 05 08 04 25 49.7088020  0  6                     
I02  20905871.506         238.896           7.450           0.255  
I03  20626470.044        -864.022         -21.818           0.255  
I04  21950060.239        -338.334         -12.914           0.255  
I05  23740680.044        9653.746         219.233           0.255  
I06  22336995.076        1616.734          39.384           0.255  
I07  23673334.126        -653.637         -21.654           0.255  
> 2019 05 08 04 25 49.7188020  0  6                     
I02  20905871.454         239.040          14.362           0.255  
I03  20626471.837        -864.228         -20.592           0.255  
I04  21950050.586        -338.393          -5.912           0.255  
I05  23740679.317        9655.985         223.862           0.255  
I06  22336993.570        1617.118          38.373           0.255  
I07  23673336.958        -653.755         -11.778           0.255  
> 2019 05 08 04 25 49.7288020  0  6                     
I02  20905871.375         239.127           8.668           0.255  
I03  20626462.659        -864.416         -18.809           0.255  
I04  21950053.021        -338.482          -8.940           0.255  
I05  23740679.155        9658.195         220.986           0.255  
I06  22336993.939        1617.463          34.480           0.255  
I07  23673326.079        -653.922         -16.733           0.255  
> 2019 05 08 04 25 49.7388020  0  6                     
I02  20905871.358         239.142           1.521           0.255  
I03  20626464.275        -864.608         -19.205           0.255  
I04  21950057.716        -338.589         -10.671           0.255  
I05  23740679.058        9660.354         215.956           0.255  
I06  22336994.006        1617.822          35.933           0.255  
I07  23673328.636        -654.105         -18.245           0.255  
> 2019 05 08 04 25 49.7488020  0  6                     
I02  20905872.200         239.115          -2.668           0.255  
I03  20626466.156        -864.777         -16.927           0.255  
I04  21950047.883        -338.716         -12.732           0.255  
I05  23740680.429        9662.521         216.671           0.255  
I06  22336992.382        1618.188          36.635           0.255  
I07  23673331.901        -654.326         -22.086           0.255  
> 2019 05 08 04 25 49.7588020  0  6                     
I02  20905872.442         239.203           8.765           0.255  
I03  20626468.982        -864.949         -17.255           0.255  
I04  21950050.756        -338.763          -4.656           0.255  
I05  23740680.334        9664.757         223.625           0.255  
I06  22336991.878        1618.592          40.316           0.255  
I07  23673334.172        -654.480         -15.423           0.255  
> 2019 05 08 04 25 49.7688020  0  6                     
I02  20905873.015         239.319          11.645           0.255  
I03  20626470.537        -865.175         -22.593           0.255  
I04  21950055.938        -338.786          -2.330           0.255  
I05  23740679.129        9666.980         222.242           0.255  
I06  22336991.730        1618.985          39.375           0.255  
I07  23673337.088        -654.630         -14.992           0.255  
> 2019 05 08 04 25 49.7788020  0  6                     
I02  20905871.762         239.387           6.776           0.255  
I03  20626462.372        -865.404         -22.867           0.255  
I04  21950046.663        -338.876          -8.967           0.255  
I05  23740677.279        9669.151         217.091           0.255  
I06  22336990.346        1619.336          35.055           0.255  
I07  23673326.290        -654.804         -17.387           0.255  
> 2019 05 08 04 25 49.7888020  0  6                     
I02  20905872.627         239.418           3.109           0.255  
I03  20626462.934        -865.599         -19.516           0.255  
I04  21950048.059        -339.040         -16.397           0.255  
I05  23740675.607        9671.315         216.442           0.255  
I06  22336990.618        1619.710          37.447           0.255  
I07  23673326.350        -654.983         -17.978           0.255  
> 2019 05 08 04 25 49.7988020  0  6                     
I02  20905872.810         239.457           3.898           0.255  
I03  20626465.819        -865.757         -15.806           0.255  
I04  21950052.453        -339.137          -9.724           0.255  
I05  23740674.761        9673.535         222.028           0.255  
I06  22336989.519        1620.094          38.324           0.255  
I07  23673329.785        -655.128         -14.453           0.255  
> 2019 05 08 04 25 49.8088020  0  6                     
I02  20905872.598         239.526           6.898           0.255  
I03  20626468.096        -865.919         -16.141           0.255  
I04  21950058.132        -339.168          -3.061           0.255  
I05  23740673.326        9675.771         223.551           0.255  
I06  22336990.562        1620.454          36.088           0.255  
I07  23673331.873        -655.294         -16.576           0.255  
> 2019 05 08 04 25 49.8188020  0  6                     
I02  20905871.857         239.588           6.182           0.255  
I03  20626470.276        -866.132         -21.377           0.255  
I04  21950048.638        -339.220          -5.217           0.255  
I05  23740671.585        9677.952         218.095           0.255  
I06  22336991.134        1620.844          38.939           0.255  
I07  23673335.286        -655.535         -24.164           0.255  
> 2019 05 08 04 25 49.8288020  0  6                     
I02  20905873.313         239.659           7.120           0.255  
I03  20626472.141        -866.355         -22.207           0.255  
I04  21950051.112        -339.291          -7.149           0.255  
I05  23740670.525        9680.124         217.221           0.255  
I06  22336990.970        1621.217          37.352           0.255  
I07  23673338.675        -655.748         -21.219           0.255  
> 2019 05 08 04 25 49.8388020  0  6                     
I02  20905873.325         239.712           5.301           0.255  
I03  20626463.586        -866.564         -20.918           0.255  
I04  21950055.572        -339.408         -11.648           0.255  
I05  23740669.477        9682.298         217.421           0.255  
I06  22336991.458        1621.565          34.762           0.255  
I07  23673328.025        -655.832          -8.473           0.255  
> 2019 05 08 04 25 49.8488020  0  6                     
I02  20905873.621         239.732           2.000           0.255  
I03  20626464.245        -866.752         -18.800           0.255  
I04  21950045.749        -339.540         -13.242           0.255  
I05  23740669.690        9684.489         219.073           0.255  
I06  22336991.356        1621.910          34.479           0.255  
I07  23673328.197        -656.017         -18.424           0.255  
> 2019 05 08 04 25 49.8588020  0  6                     
I02  20905873.371         239.778           4.545           0.255  
I03  20626467.165        -866.934         -18.233           0.255  
I04  21950049.620        -339.630          -8.951           0.255  
I05  23740669.405        9686.700         221.085           0.255  
I06  22336990.136        1622.119         -12.995           0.255  
I07  23673331.131        -656.260         -24.392           0.255  
> 2019 05 08 04 25 49.8688020  0  6                     
I02  20905873.760         239.867           8.943           0.255  
I03  20626469.042        -867.126         -19.161           0.255  
I04  21950054.940        -339.662          -3.270           0.255  
I05  23740669.099        9688.918         221.854           0.255  
I06  22336989.232        1622.715          40.197           0.255  
I07  23673334.441        -656.467         -20.613           0.255  
> 2019 05 08 04 25 49.8788020  0  6                     
I02  20905874.448         239.954           8.747           0.255  
I03  20626471.959        -867.318         -19.189           0.255  
I04  21950045.271        -339.732          -6.937           0.255  
I05  23740669.712        9691.132         221.364           0.255  
I06  22336989.477        1623.103          38.736           0.255  
I07  23673336.602        -656.603         -13.595           0.255  
> 2019 05 08 04 25 49.8888020  0  6                     
I02  20905873.955         240.005           5.065           0.255  
I03  20626464.079        -867.497         -17.912           0.255  
I04  21950047.287        -339.829          -9.708           0.255  
I05  23740669.614        9693.319         218.737           0.255  
I06  22336990.494        1623.460          35.745           0.255  
I07  23673325.680        -656.720         -11.796           0.255  
> 2019 05 08 04 25 49.8988020  0  6                     
I02  20905873.981         240.036           3.039           0.255  
I03  20626464.475        -867.719         -22.204           0.255  
I04  21950050.144        -339.927          -9.823           0.255  
I05  23740668.665        9695.491         217.128           0.255  
I06  22336990.345        1623.821          36.078           0.255  
I07  23673326.422        -656.833         -11.212           0.255  
> 2019 05 08 04 25 49.9088020  0  6                     
I02  20905874.827         240.068           3.280           0.255  
I03  20626466.066        -867.930         -21.113           0.255  
I04  21950054.716        -340.025          -9.770           0.255  
I05  23740667.336        9697.696         220.473           0.255  
I06  22336989.081        1624.186          36.518           0.255  
I07  23673329.412        -657.027         -19.413           0.255  
> 2019 05 08 04 25 49.9188020  0  6                     
I02  20905873.598         240.179          11.046           0.255  
I03  20626469.178        -868.090         -16.037           0.255  
I04  21950045.533        -340.092          -6.742           0.255  
I05  23740666.490        9699.901         220.523           0.255  
I06  22336988.198        1624.565          37.857           0.255  
I07  23673330.737        -657.295         -26.851           0.255  
> 2019 05 08 04 25 49.9288020  0  6                     
I02  20905872.956         240.272           9.324           0.255  
I03  20626471.939        -868.267         -17.694           0.255  
I04  21950049.508        -340.187          -9.451           0.255  
I05  23740667.901        9702.111         221.065           0.255  
I06  22336987.115        1624.938          37.346           0.255  
I07  23673333.078        -657.450         -15.469           0.255  
> 2019 05 08 04 25 49.9388020  0  6                     
I02  20905873.570         240.300           2.828           0.255  
I03  20626462.906        -868.470         -20.316           0.255  
I04  21950054.754        -340.278          -9.140           0.255  
I05  23740668.307        9704.305         219.316           0.255  
I06  22336986.418        1625.336          39.745           0.255  
I07  23673336.371        -657.627         -17.663           0.255  
> 2019 05 08 04 25 49.9488020  0  6                     
I02  20905874.197         240.302           0.220           0.255  
I03  20626463.682        -868.682         -21.190           0.255  
I04  21950045.498        -340.364          -8.564           0.255  
I05  23740667.218        9706.492         218.776           0.255  
I06  22336986.944        1625.700          36.386           0.255  
I07  23673325.446        -657.800         -17.373           0.255  
> 2019 05 08 04 25 49.9588020  0  6                     
I02  20905873.758         240.376           7.393           0.255  
I03  20626466.519        -868.878         -19.590           0.255  
I04  21950047.309        -341.480        -112.039           0.255  
I05  23740667.342        9708.670         217.749           0.255  
I06  22336987.362        1626.072          37.287           0.255  
I07  23673325.643        -657.964         -16.370           0.255  
> 2019 05 08 04 25 49.9688020  0  6                     
I02  20905872.694         240.488          11.145           0.255  
I03  20626468.928        -869.050         -17.165           0.255  
I04  21950050.890        -340.474          -6.419           0.255  
I05  23740667.833        9710.888         221.772           0.255  
I06  22336987.015        1626.456          38.328           0.255  
I07  23673328.955        -658.104         -14.006           0.255  
> 2019 05 08 04 25 49.9788020  0  6                     
I02  20905873.096         240.526           3.860           0.255  
I03  20626470.890        -869.257         -20.747           0.255  
I04  21950054.637        -340.585         -11.160           0.255  
I05  23740667.761        9713.100         221.280           0.255  
I06  22336987.732        1626.847          39.174           0.255  
I07  23673331.618        -658.290         -18.561           0.255  
> 2019 05 08 04 25 49.9888020  0  6                     
I02  20905872.928         240.544           1.793           0.255  
I03  20626461.885        -869.462         -20.476           0.255  
I04  21950044.742        -340.743         -15.809           0.255  
I05  23740667.259        9715.294         219.330           0.255  
I06  22336988.748        1627.195          34.717           0.255  
I07  23673334.249        -658.478         -18.811           0.255  
> 2019 05 08 04 25 49.9988020  0  6                     
I02  20905872.297         240.608           6.369           0.255  
I03  20626463.008        -869.654         -19.153           0.255  
I04  21950048.714        -340.822          -7.842           0.255  
I05  23740666.018        9717.476         218.214           0.255  
I06  22336987.253        1627.554          35.919           0.255  
I07  23673337.557        -658.641         -16.349           0.255  
> 2019 05 08 04 25 50.0088020  0  6                     
I02  20905872.419         240.713          10.541           0.255  
I03  20626465.977        -869.835         -18.169           0.255  
I04  21950053.838        -339.456          70.228           0.255  
I05  23740665.313        9719.678         220.178           0.255  
I06  22336987.976        1627.952          39.845           0.255  
I07  23673327.198        -658.780         -13.904           0.255  
> 2019 05 08 04 25 50.0188020  0  6                     
I02  20905873.428         240.772           5.833           0.255  
I03  20626468.538        -870.038         -20.263           0.255  
I04  21950044.365        -340.918          -4.006           0.255  
I05  23740664.968        9721.867         218.981           0.255  
I06  22336988.464        1628.344          39.151           0.255  
I07  23673329.651        -658.976         -19.577           0.255  
> 2019 05 08 04 25 50.0288020  0  6                     
I02  20905872.906         240.784           1.240           0.255  
I03  20626471.217        -870.234         -19.577           0.255  
I04  21950047.862        -341.002          -8.364           0.255  
I05  23740664.206        9724.085         221.763           0.255  
I06  22336987.132        1628.706          36.191           0.255  
I07  23673331.948        -659.184         -20.775           0.255  
> 2019 05 08 04 25 50.0388020  0  6                     
I02  20905872.455         240.810           2.624           0.255  
I03  20626462.691        -870.430         -19.612           0.255  
I04  21950053.547        -341.071          -6.938           0.255  
I05  23740663.090        9726.283         219.841           0.255  
I06  22336986.825        1629.062          35.603           0.255  
I07  23673334.400        -659.356         -17.237           0.255  
> 2019 05 08 04 25 50.0488020  0  6                     
I02  20905872.932         240.944          13.386           0.255  
I03  20626463.542        -870.613         -18.287           0.255  
I04  21950057.424        -341.159          -8.809           0.255  
I05  23740661.745        9728.472         218.823           0.255  
I06  22336987.624        1629.443          38.178           0.255  
I07  23673338.869        -659.453          -9.724           0.255  
> 2019 05 08 04 25 50.0588020  0  6                     
I02  20905872.176         241.028           8.354           0.255  
I03  20626466.611        -870.809         -19.652           0.255  
I04  21950047.876        -339.731         192.806           0.255  
I05  23740660.084        9730.652         218.015           0.255  
I06  22336987.818        1629.825          38.176           0.255  
I07  23673328.104        -659.627         -17.349           0.255  
> 2019 05 08 04 25 50.0688020  0  6                     
I02  20905872.251         240.175        -133.541           0.255  
I03  20626469.117        -871.001         -19.210           0.255  
I04  21950050.471        -341.078        -134.788           0.255  
I05  23740659.102        9732.848         219.639           0.255  
I06  22336988.234        1630.192          36.636           0.255  
I07  23673330.033        -659.827         -19.977           0.255  
> 2019 05 08 04 25 50.0788020  0  6                     
I02  20905872.555         241.062           2.244           0.255  
I03  20626471.994        -871.199         -19.824           0.255  
I04  21950054.405        -341.484          -6.285           0.255  
I05  23740657.751        9735.053         220.467           0.255  
I06  22336987.934        1630.553          36.164           0.255  
I07  23673332.228        -660.045         -21.843           0.255  
> 2019 05 08 04 25 50.0888020  0  6                     
I02  20905872.474         241.162          10.040           0.255  
I03  20626464.069        -871.370         -17.054           0.255  
I04  21950045.548        -341.510          -2.619           0.255  
I05  23740657.211        9737.266         221.299           0.255  
I06  22336987.379        1630.933          37.986           0.255  
I07  23673333.705        -660.251         -20.577           0.255  
> 2019 05 08 04 25 50.0988020  0  6                     
I02  20905873.941         241.215           5.302           0.255  
I03  20626464.671        -871.571         -20.116           0.255  
I04  21950047.698        -341.564          -5.343           0.255  
I05  23740656.490        9739.456         219.060           0.255  
I06  22336987.143        1631.331          39.818           0.255  
I07  23673336.447        -660.427         -17.578           0.255  
> 2019 05 08 04 25 50.1088020  0  6                     
I02  20905873.793         241.263           4.727           0.255  
I03  20626467.355        -871.806         -23.505           0.255  
I04  21950052.170        -341.655          -9.157           0.255  
I05  23740657.319        9741.657         220.036           0.255  
I06  22336988.069        1631.703          37.154           0.255  
I07  23673325.732        -660.503          -7.636           0.255  
> 2019 05 08 04 25 50.1188020  0  6                     
I02  20905872.831         241.319           5.687           0.255  
I03  20626470.360        -872.019         -21.248           0.255  
I04  21950057.282        -342.704         -62.416           0.255  
I05  23740656.804        9743.833         217.630           0.255  
I06  22336988.005        1632.069          36.638           0.255  
I07  23673326.625        -660.652         -14.943           0.255  
> 2019 05 08 04 25 50.1288020  0  6                     
I02  20905872.162         241.411           9.174           0.255  
I03  20626463.326        -872.175         -15.676           0.255  
I04  21950048.426        -341.882          -8.622           0.255  
I05  23740655.870        9746.053         222.031           0.255  
I06  22336988.280        1632.428          35.872           0.255  
I07  23673330.030        -660.857         -20.414           0.255  
> 2019 05 08 04 25 50.1388020  0  6                     
I02  20905873.171         241.456           4.513           0.255  
I03  20626463.845        -872.341         -16.525           0.255  
I04  21950050.397        -341.928          -4.552           0.255  
I05  23740655.250        9748.262         220.895           0.255  
I06  22336987.425        1632.836          40.804           0.255  
I07  23673334.443        -661.045         -18.840           0.255  
> 2019 05 08 04 25 50.1488020  0  6                     
I02  20905873.214         241.497           4.034           0.255  
I03  20626466.677        -872.536         -19.518           0.255  
I04  21950053.913        -342.004          -7.676           0.255  
I05  23740654.759        9750.447         218.443           0.255  
I06  22336987.621        1633.222          38.576           0.255  
I07  23673338.218        -661.246         -20.098           0.255  
> 2019 05 08 04 25 50.1588020  0  6                     
I02  20905873.028         241.554           5.765           0.255  
I03  20626469.457        -872.752         -21.655           0.255  
I04  21950059.027        -342.101          -9.647           0.255  
I05  23740653.282        9752.626         217.957           0.255  
I06  22336986.602        1633.584          36.222           0.255  
I07  23673326.933        -661.436         -18.974           0.255  
> 2019 05 08 04 25 50.1688020  0  6                     
I02  20905872.365         241.657          10.253           0.255  
I03  20626472.057        -872.950         -19.755           0.255  
I04  21950049.310        -342.465         124.630           0.255  
I05  23740651.867        9754.867         224.074           0.255  
I06  22336987.187        1634.682         180.364           0.255  
I07  23673328.704        -661.566         -13.019           0.255  
> 2019 05 08 04 25 50.1788020  0  6                     
I02  20905871.738         241.707           5.025           0.255  
I03  20626462.847        -873.129         -17.857           0.255  
I04  21950052.678        -342.233          -6.677           0.255  
I05  23740651.755        9757.072         220.511           0.255  
I06  22336987.201        1634.323          36.359           0.255  
I07  23673330.859        -661.758         -19.242           0.255  
> 2019 05 08 04 25 50.1888020  0  6                     
I02  20905871.697         241.734           2.676           0.255  
I03  20626463.944        -873.296         -16.736           0.255  
I04  21950057.525        -342.355         -12.206           0.255  
I05  23740651.555        9759.237         216.518           0.255  
I06  22336988.116        1634.678          35.516           0.255  
I07  23673334.459        -661.974         -21.587           0.255  
> 2019 05 08 04 25 50.1988020  0  6                     
I02  20905871.103         241.784           4.985           0.255  
I03  20626467.517        -873.506         -20.975           0.255  
I04  21950047.698        -342.475         -11.985           0.255  
I05  23740651.288        9761.397         215.995           0.255  
I06  22336988.440        1635.056          37.782           0.255  
I07  23673338.619        -662.172         -19.814           0.255  
> 2019 05 08 04 25 50.2088020  0  6                     
I02  20905870.248         241.881           9.711           0.255  
I03  20626470.186        -873.718         -21.189           0.255  
I04  21950051.597        -342.519          -4.339           0.255  
I05  23740650.408        9763.623         222.617           0.255  
I06  22336988.786        1635.451          39.501           0.255  
I07  23673328.280        -662.279         -10.705           0.255  
> 2019 05 08 04 25 50.2188020  0  6                     
I02  20905870.538         241.952           7.172           0.255  
I03  20626471.786        -873.919         -20.098           0.255  
I04  21950056.747        -342.555          -3.614           0.255  
I05  23740650.514        9765.847         222.305           0.255  
I06  22336988.212        1635.842          39.159           0.255  
I07  23673328.833        -662.396         -11.671           0.255  
> 2019 05 08 04 25 50.2288020  0  6                     
I02  20905870.744         241.967           1.417           0.255  
I03  20626462.527        -874.091         -17.207           0.255  
I04  21950046.903        -342.668         -11.370           0.255  
I05  23740649.933        9768.040         219.323           0.255  
I06  22336988.357        1636.195          35.329           0.255  
I07  23673331.643        -662.629         -23.267           0.255  
> 2019 05 08 04 25 50.2388020  0  6                     
I02  20905870.626         241.982           1.513           0.255  
I03  20626464.426        -874.289         -19.787           0.255  
I04  21950048.578        -342.848         -17.923           0.255  
I05  23740648.288        9770.214         217.375           0.255  
I06  22336989.965        1636.559          36.378           0.255  
I07  23673334.857        -662.853         -22.420           0.255  
> 2019 05 08 04 25 50.2488020  0  6                     
I02  20905870.442         242.106          12.387           0.255  
I03  20626467.816        -874.496         -20.698           0.255  
I04  21950052.107        -342.914          -6.689           0.255  
I05  23740648.879        9772.401         218.737           0.255  
I06  22336989.121        1636.949          39.017           0.255  
I07  23673336.916        -663.007         -15.386           0.255  
> 2019 05 08 04 25 50.2588020  0  6                     
I02  20905871.642         242.205           9.956           0.255  
I03  20626469.576        -874.693         -19.706           0.255  
I04  21950056.873        -342.931          -1.633           0.255  
I05  23740649.294        9774.619         221.830           0.255  
I06  22336988.774        1637.335          38.567           0.255  
I07  23673326.118        -663.141         -13.374           0.255  
> 2019 05 08 04 25 50.2688020  0  6                     
I02  20905872.276         242.238           3.239           0.255  
I03  20626472.410        -874.878         -18.494           0.255  
I04  21950047.626        -343.011          -8.017           0.255  
I05  23740649.883        9776.817         219.740           0.255  
I06  22336990.119        1637.700          36.500           0.255  
I07  23673326.952        -663.281         -14.007           0.255  
> 2019 05 08 04 25 50.2788020  0  6                     
I02  20905872.337         242.251           1.341           0.255  
I03  20626464.065        -875.073         -19.596           0.255  
I04  21950049.361        -343.126         -11.526           0.255  
I05  23740648.768        9778.993         217.603           0.255  
I06  22336991.180        1638.055          35.503           0.255  
I07  23673330.709        -663.497         -21.624           0.255  
> 2019 05 08 04 25 50.2888020  0  6                     
I02  20905871.758         242.358          10.715           0.255  
I03  20626465.006        -875.271         -19.788           0.255  
I04  21950054.295        -343.237         -11.055           0.255  
I05  23740647.786        9781.220         222.723           0.255  
I06  22336991.472        1638.460          40.475           0.255  
I07  23673333.182        -663.668         -17.148           0.255  
> 2019 05 08 04 25 50.2988020  0  6                     
I02  20905872.192         242.417           5.903           0.255  
I03  20626467.513        -875.469         -19.803           0.255  
I04  21950045.249        -343.292          -5.567           0.255  
I05  23740647.203        9783.437         221.705           0.255  
I06  22336990.954        1638.840          37.982           0.255  
I07  23673336.886        -663.847         -17.862           0.255  
> 2019 05 08 04 25 50.3088020  0  6                     
I02  20905871.702         242.428           1.092           0.255  
I03  20626470.124        -875.645         -17.552           0.255  
I04  21950050.777        -343.333          -4.042           0.255  
I05  23740645.742        9785.610         217.357           0.255  
I06  22336991.008        1639.195          35.505           0.255  
I07  23673326.544        -664.037         -19.033           0.255  
> 2019 05 08 04 25 50.3188020  0  6                     
I02  20905870.990         242.473           4.500           0.255  
I03  20626472.466        -875.839         -19.435           0.255  
I04  21950056.464        -343.401          -6.792           0.255  
I05  23740645.032        9787.774         216.371           0.255  
I06  22336991.274        1639.555          36.058           0.255  
I07  23673326.868        -664.220         -18.235           0.255  
> 2019 05 08 04 25 50.3288020  0  6                     
I02  20905870.984         242.568           9.494           0.255  
I03  20626464.574        -876.043         -20.355           0.255  
I04  21950047.499        -343.537         -13.615           0.255  
I05  23740645.270        9789.993         221.919           0.255  
I06  22336990.510        1639.957          40.153           0.255  
I07  23673330.037        -664.379         -15.946           0.255  
> 2019 05 08 04 25 50.3388020  0  6                     
I02  20905871.616         242.650           8.171           0.255  
I03  20626465.499        -876.248         -20.564           0.255  
I04  21950050.542        -343.663         -12.569           0.255  
I05  23740645.474        9792.207         221.397           0.255  
I06  22336989.739        1640.305          34.784           0.255  
I07  23673331.850        -664.550         -17.079           0.255  
> 2019 05 08 04 25 50.3488020  0  6                     
I02  20905872.806         242.635          -1.454           0.255  
I03  20626468.576        -876.481         -23.267           0.255  
I04  21950053.870        -343.785         -12.262           0.255  
I05  23740644.679        9794.370         216.276           0.255  
I06  22336987.994        1640.628          32.320           0.255  
I07  23673333.560        -664.733         -18.261           0.255  
> 2019 05 08 04 25 50.3588020  0  6                     
I02  20905872.778         242.630          -0.548           0.255  
I03  20626471.552        -876.689         -20.837           0.255  
I04  21950059.021        -343.877          -9.160           0.255  
I05  23740643.642        9796.526         215.594           0.255  
I06  22336987.181        1641.009          38.071           0.255  
I07  23673337.279        -664.984         -25.138           0.255  
> 2019 05 08 04 25 50.3688020  0  6                     
I02  20905873.064         242.688           5.812           0.255  
I03  20626463.508        -876.855         -16.510           0.255  
I04  21950049.514        -343.896          -1.954           0.255  
I05  23740642.607        9798.744         221.798           0.255  
I06  22336986.841        1641.415          40.629           0.255  
I07  23673326.625        -665.169         -18.490           0.255  
> 2019 05 08 04 25 50.3788020  0  6                     
I02  20905873.396         242.844          15.630           0.255  
I03  20626465.524        -877.029         -17.466           0.255  
I04  21950051.420        -343.960          -6.339           0.255  
I05  23740641.586        9800.975         223.131           0.255  
I06  22336986.565        1641.822          40.701           0.255  
I07  23673328.854        -665.227          -5.798           0.255  
> 2019 05 08 04 25 50.3888020  0  6                     
I02  20905872.755         242.928           8.432           0.255  
I03  20626468.308        -877.259         -22.940           0.255  
I04  21950056.636        -344.090         -13.012           0.255  
I05  23740640.572        9803.139         216.329           0.255  
I06  22336986.191        1642.172          35.052           0.255  
I07  23673330.755        -665.350         -12.329           0.255  
> 2019 05 08 04 25 50.3988020  0  6                     
I02  20905872.845         242.935           0.643           0.255  
I03  20626470.994        -877.489         -22.993           0.255  
I04  21950047.223        -344.211         -12.101           0.255  
I05  23740640.067        9805.299         216.030           0.255  
I06  22336984.724        1642.473          30.078           0.255  
I07  23673333.714        -665.617         -26.723           0.255  
> 2019 05 08 04 25 50.4088020  0  6                     
I02  20905872.680         242.982           4.731           0.255  
I03  20626462.022        -877.664         -17.589           0.255  
I04  21950052.222        -344.286          -7.514           0.255  
I05  23740639.579        9807.507         220.828           0.255  
I06  22336983.003        1642.843          37.028           0.255  
I07  23673335.525        -665.923         -30.533           0.255  
> 2019 05 08 04 25 50.4188020  0  6                     
I02  20905872.014         243.016           3.387           0.255  
I03  20626464.035        -877.824         -15.964           0.255  
I04  21950057.966        -344.341          -5.517           0.255  
I05  23740638.900        9809.729         222.158           0.255  
I06  22336982.662        1643.261          41.730           0.255  
I07  23673338.829        -666.107         -18.428           0.255  
> 2019 05 08 04 25 50.4288020  0  6                     
I02  20905872.062         243.093           7.708           0.255  
I03  20626467.232        -878.038         -21.369           0.255  
I04  21950049.101        -344.449         -10.767           0.255  
I05  23740639.438        9811.902         217.288           0.255  
I06  22336982.798        1643.637          37.581           0.255  
I07  23673328.911        -666.192          -8.502           0.255  
> 2019 05 08 04 25 50.4388020  0  6                     
I02  20905872.832         243.148           5.510           0.255  
I03  20626469.326        -878.270         -23.249           0.255  
I04  21950051.485        -344.572         -12.343           0.255  
I05  23740638.928        9814.075         217.357           0.255  
I06  22336983.243        1643.991          35.481           0.255  
I07  23673329.975        -666.333         -14.154           0.255  
> 2019 05 08 04 25 50.4488020  0  6                     
I02  20905873.367         243.216           6.819           0.255  
I03  20626471.405        -878.479         -20.863           0.255  
I04  21950054.896        -344.659          -8.619           0.255  
I05  23740638.115        9816.279         220.414           0.255  
I06  22336983.157        1644.344          35.253           0.255  
I07  23673332.944        -666.544         -21.056           0.255  
> 2019 05 08 04 25 50.4588020  0  6                     
I02  20905873.765         243.268           5.192           0.255  
I03  20626461.757        -878.644         -16.496           0.255  
I04  21950045.349        -344.733          -7.464           0.255  
I05  23740637.489        9818.504         222.485           0.255  
I06  22336983.393        1644.712          36.799           0.255  
I07  23673335.745        -666.740         -19.602           0.255  
> 2019 05 08 04 25 50.4688020  0  6                     
I02  20905873.679         243.284           1.611           0.255  
I03  20626462.637        -878.856         -21.185           0.255  
I04  21950049.258        -344.807          -7.405           0.255  
I05  23740637.084        9820.671         216.661           0.255  
I06  22336982.706        1645.074          36.214           0.255  
I07  23673336.639        -666.897         -15.658           0.255  
> 2019 05 08 04 25 50.4788020  0  6                     
I02  20905872.972         243.303           1.900           0.255  
I03  20626466.478        -879.071         -21.526           0.255  
I04  21950054.428        -344.887          -7.982           0.255  
I05  23740635.985        9822.832         216.163           0.255  
I06  22336981.505        1645.445          37.138           0.255  
I07  23673325.595        -667.055         -15.861           0.255  
> 2019 05 08 04 25 50.4888020  0  6                     
I02  20905873.204         243.401           9.715           0.255  
I03  20626468.975        -879.257         -18.588           0.255  
I04  21950046.054        -344.995         -10.778           0.255  
I05  23740635.280        9825.051         221.896           0.255  
I06  22336981.758        1645.843          39.721           0.255  
I07  23673326.852        -667.228         -17.317           0.255  
> 2019 05 08 04 25 50.4988020  0  6                     
I02  20905873.655         243.509          10.835           0.255  
I03  20626471.224        -879.421         -16.405           0.255  
I04  21950048.468        -345.103         -10.862           0.255  
I05  23740635.776        9827.270         221.822           0.255  
I06  22336982.553        1646.229          38.602           0.255  
I07  23673330.085        -667.416         -18.779           0.255  
> 2019 05 08 04 25 50.5088020  0  6                     
I02  20905874.080         243.542           3.293           0.255  
I03  20626462.207        -879.610         -18.893           0.255  
I04  21950052.739        -345.190          -8.651           0.255  
I05  23740635.456        9829.471         220.181           0.255  
I06  22336982.045        1646.590          36.106           0.255  
I07  23673333.241        -667.604         -18.760           0.255  
> 2019 05 08 04 25 50.5188020  0  6                     
I02  20905875.497         243.543           0.148           0.255  
I03  20626463.027        -879.842         -23.191           0.255  
I04  21950056.562        -345.244          -5.376           0.255  
I05  23740635.947        9831.638         216.690           0.255  
I06  22336982.853        1646.934          34.475           0.255  
I07  23673334.721        -667.786         -18.227           0.255  
> 2019 05 08 04 25 50.5288020  0  6                     
I02  20905874.958         243.623           7.987           0.255  
I03  20626466.681        -880.067         -22.509           0.255  
I04  21950046.598        -345.294          -5.007           0.255  
I05  23740635.577        9833.811         217.256           0.255  
I06  22336983.081        1647.306          37.126           0.255  
I07  23673337.165        -667.983         -19.646           0.255  
> 2019 05 08 04 25 50.5388020  0  6                     
I02  20905873.435         243.722           9.910           0.255  
I03  20626470.031        -880.237         -16.989           0.255  
I04  21950048.071        -345.376          -8.200           0.255  
I05  23740635.349        9836.046         223.492           0.255  
I06  22336983.675        1647.709          40.295           0.255  
I07  23673327.068        -668.086         -10.339           0.255  
> 2019 05 08 04 25 50.5488020  0  6                     
I02  20905873.123         243.773           5.025           0.255  
I03  20626472.493        -880.380         -14.309           0.255  
I04  21950051.631        -345.480         -10.384           0.255  
I05  23740635.650        9838.265         221.932           0.255  
I06  22336983.864        1648.090          38.158           0.255  
I07  23673327.758        -668.279         -19.299           0.255  
> 2019 05 08 04 25 50.5588020  0  6                     
I02  20905872.879         243.816           4.335           0.255  
I03  20626464.441        -880.586         -20.575           0.255  
I04  21950055.332        -345.584         -10.470           0.255  
I05  23740635.456        9840.443         217.809           0.255  
I06  22336983.773        1648.467          37.726           0.255  
I07  23673331.808        -668.441         -16.221           0.255  
> 2019 05 08 04 25 50.5688020  0  6                     
I02  20905872.319         243.888           7.252           0.255  
I03  20626465.834        -880.795         -20.959           0.255  
I04  21950045.969        -345.668          -8.375           0.255  
I05  23740636.173        9842.630         218.685           0.255  
I06  22336984.218        1648.870          40.302           0.255  
I07  23673334.238        -668.601         -15.971           0.255  
> 2019 05 08 04 25 50.5788020  0  6                     
I02  20905872.082         243.964           7.596           0.255  
I03  20626467.935        -880.990         -19.433           0.255  
I04  21950049.054        -345.724          -5.623           0.255  
I05  23740635.622        9844.865         223.530           0.255  
I06  22336985.070        1649.263          39.256           0.255  
I07  23673337.055        -668.753         -15.246           0.255  
> 2019 05 08 04 25 50.5888020  0  6                     
I02  20905872.357         244.026           6.137           0.255  
I03  20626470.147        -881.190         -20.019           0.255  
I04  21950053.021        -345.790          -6.561           0.255  
I05  23740633.582        9847.090         222.437           0.255  
I06  22336985.554        1649.629          36.644           0.255  
I07  23673326.415        -668.929         -17.602           0.255  
> 2019 05 08 04 25 50.5988020  0  6                     
I02  20905872.616         244.087           6.084           0.255  
I03  20626472.280        -881.372         -18.257           0.255  
I04  21950057.196        -345.904         -11.393           0.255  
I05  23740632.860        9849.270         218.039           0.255  
I06  22336985.178        1649.980          35.067           0.255  
I07  23673327.345        -669.121         -19.140           0.255  
> 2019 05 08 04 25 50.6088020  0  6                     
I02  20905872.221         244.167           7.993           0.255  
I03  20626463.791        -881.531         -15.856           0.255  
I04  21950047.391        -345.972          -6.809           0.255  
I05  23740631.714        9851.444         217.407           0.255  
I06  22336985.274        1650.342          36.192           0.255  
I07  23673330.095        -669.352         -23.166           0.255  
> 2019 05 08 04 25 50.6188020  0  6                     
I02  20905871.094         244.228           6.188           0.255  
I03  20626464.730        -881.703         -17.255           0.255  
I04  21950050.514        -345.998          -2.649           0.255  
I05  23740630.943        9853.658         221.359           0.255  
I06  22336986.063        1650.752          41.039           0.255  
I07  23673332.291        -669.440          -8.756           0.255  
> 2019 05 08 04 25 50.6288020  0  6                     
I02  20905871.201         244.254           2.516           0.255  
I03  20626468.213        -881.907         -20.408           0.255  
I04  21950054.823        -346.045          -4.639           0.255  
I05  23740630.949        9855.884         222.615           0.255  
I06  22336986.950        1651.144          39.151           0.255  
I07  23673333.729        -669.569         -12.871           0.255  
> 2019 05 08 04 25 50.6388020  0  6                     
I02  20905870.508         244.316           6.215           0.255  
I03  20626471.631        -882.155         -24.791           0.255  
I04  21950045.275        -346.197         -15.229           0.255  
I05  23740630.141        9858.076         219.248           0.255  
I06  22336986.668        1651.488          34.436           0.255  
I07  23673336.454        -669.781         -21.231           0.255  
> 2019 05 08 04 25 50.6488020  0  6                     
I02  20905871.300         244.376           6.051           0.255  
I03  20626462.934        -882.364         -20.841           0.255  
I04  21950049.499        -346.348         -15.090           0.255  
I05  23740630.240        9860.232         215.528           0.255  
I06  22336985.723        1651.845          35.641           0.255  
I07  23673325.493        -670.018         -23.724           0.255  
> 2019 05 08 04 25 50.6588020  0  6                     
I02  20905871.659         244.448           7.151           0.255  
I03  20626463.539        -882.500         -13.576           0.255  
I04  21950054.891        -346.407          -5.887           0.255  
I05  23740630.682        9862.423         219.137           0.255  
I06  22336985.167        1652.223          37.778           0.255  
I07  23673326.131        -670.226         -20.818           0.255  
> 2019 05 08 04 25 50.6688020  0  6                     
I02  20905871.459         244.473           2.571           0.255  
I03  20626466.417        -882.655         -15.535           0.255  
I04  21950045.118        -346.416          -0.959           0.255  
I05  23740630.975        9864.650         222.731           0.255  
I06  22336984.651        1652.607          38.441           0.255  
I07  23673329.050        -670.347         -12.081           0.255  
> 2019 05 08 04 25 50.6788020  0  6                     
I02  20905871.415         244.520           4.680           0.255  
I03  20626470.407        -882.908         -25.317           0.255  
I04  21950048.443        -346.516          -9.936           0.255  
I05  23740629.127        9866.850         219.962           0.255  
I06  22336984.566        1652.996          38.927           0.255  
I07  23673332.924        -670.475         -12.813           0.255  
> 2019 05 08 04 25 50.6888020  0  6                     
I02  20905871.430         244.614           9.380           0.255  
I03  20626461.638        -883.144         -23.598           0.255  
I04  21950055.184        -346.656         -14.037           0.255  
I05  23740627.505        9869.040         219.038           0.255  
I06  22336985.162        1653.374          37.748           0.255  
I07  23673336.816        -670.701         -22.616           0.255  
> 2019 05 08 04 25 50.6988020  0  6                     
I02  20905870.944         244.711           9.733           0.255  
I03  20626462.709        -883.302         -15.761           0.255  
I04  21950045.634        -346.726          -6.983           0.255  
I05  23740626.231        9871.239         219.892           0.255  
I06  22336985.055        1653.738          36.399           0.255  
I07  23673325.453        -670.878         -17.695           0.255  
> 2019 05 08 04 25 50.7088020  0  6                     
I02  20905870.710         244.738           2.705           0.255  
I03  20626466.389        -883.460         -15.846           0.255  
I04  21950047.866        -346.763          -3.680           0.255  
I05  23740626.089        9873.433         219.345           0.255  
I06  22336985.436        1654.101          36.348           0.255  
I07  23673327.041        -671.012         -13.326           0.255  
> 2019 05 08 04 25 50.7188020  0  6                     
I02  20905870.746         244.771           3.263           0.255  
I03  20626469.089        -883.669         -20.893           0.255  
I04  21950052.736        -346.841          -7.797           0.255  
I05  23740626.180        9875.641         220.787           0.255  
I06  22336985.101        1654.466          36.491           0.255  
I07  23673330.964        -671.193         -18.164           0.255  
> 2019 05 08 04 25 50.7288020  0  6                     
I02  20905870.367         244.852           8.067           0.255  
I03  20626471.726        -883.886         -21.659           0.255  
I04  21950059.659        -346.993         -15.254           0.255  
I05  23740624.946        9877.844         220.355           0.255  
I06  22336983.383        1654.856          38.943           0.255  
I07  23673333.515        -671.382         -18.872           0.255  
> 2019 05 08 04 25 50.7388020  0  6                     
I02  20905869.875         244.959          10.695           0.255  
I03  20626464.594        -884.061         -17.521           0.255  
I04  21950049.787        -347.090          -9.686           0.255  
I05  23740623.435        9880.049         220.473           0.255  
I06  22336984.437        1655.250          39.490           0.255  
I07  23673337.076        -671.559         -17.742           0.255  
> 2019 05 08 04 25 50.7488020  0  6                     
I02  20905869.987         244.988           2.899           0.255  
I03  20626465.515        -884.232         -17.130           0.255  
I04  21950053.199        -347.110          -1.979           0.255  
I05  23740623.143        9882.241         219.222           0.255  
I06  22336983.949        1655.613          36.287           0.255  
I07  23673326.524        -671.722         -16.212           0.255  
> 2019 05 08 04 25 50.7588020  0  6                     
I02  20905869.815         245.019           3.095           0.255  
I03  20626467.885        -884.456         -22.378           0.255  
I04  21950060.166        -347.209          -9.886           0.255  
I05  23740622.429        9884.416         217.438           0.255  
I06  22336985.124        1655.993          37.925           0.255  
I07  23673328.541        -671.885         -16.367           0.255  
> 2019 05 08 04 25 50.7688020  0  6                     
I02  20905869.314         245.089           7.058           0.255  
I03  20626470.772        -884.657         -20.140           0.255  
I04  21950050.669        -347.355         -14.575           0.255  
I05  23740622.714        9886.619         220.369           0.255  
I06  22336985.070        1656.383          39.031           0.255  
I07  23673331.264        -672.045         -15.979           0.255  
> 2019 05 08 04 25 50.7788020  0  6                     
I02  20905869.924         245.206          11.675           0.255  
I03  20626462.430        -884.840         -18.267           0.255  
I04  21950054.379        -347.412          -5.740           0.255  
I05  23740622.312        9888.850         223.044           0.255  
I06  22336983.783        1656.765          38.257           0.255  
I07  23673333.864        -672.244         -19.859           0.255  
> 2019 05 08 04 25 50.7888020  0  6                     
I02  20905869.590         245.266           5.975           0.255  
I03  20626464.516        -885.015         -17.475           0.255  
I04  21950044.516        -347.433          -2.071           0.255  
I05  23740621.256        9891.066         221.586           0.255  
I06  22336983.780        1657.116          35.032           0.255  
I07  23673335.461        -672.454         -21.022           0.255  
> 2019 05 08 04 25 50.7988020  0  6                     
I02  20905869.768         245.263          -0.283           0.255  
I03  20626468.043        -885.216         -20.163           0.255  
I04  21950047.408        -347.525          -9.228           0.255  
I05  23740621.569        9893.216         215.077           0.255  
I06  22336984.062        1657.470          35.440           0.255  
I07  23673338.039        -672.633         -17.872           0.255  
> 2019 05 08 04 25 50.8088020  0  6                     
I02  20905869.115         245.253          -1.004           0.255  
I03  20626471.514        -885.421         -20.488           0.255  
I04  21950051.730        -348.457         -29.042           0.255  
I05  23740621.481        9895.387         217.085           0.255  
I06  22336984.073        1656.394         -99.962           0.255  
I07  23673327.046        -672.775         -14.232           0.255  
> 2019 05 08 04 25 50.8188020  0  6                     
I02  20905868.363         245.336           8.341           0.255  
I03  20626464.743        -885.615         -19.410           0.255  
I04  21950056.382        -347.682          -5.308           0.255  
I05  23740621.886        9897.616         222.847           0.255  
I06  22336982.737        1658.261          40.254           0.255  
I07  23673328.522        -672.869          -9.443           0.255  
> 2019 05 08 04 25 50.8288020  0  6                     
I02  20905867.713         245.486          14.993           0.255  
I03  20626466.737        -885.786         -17.082           0.255  
I04  21950046.629        -347.795         -11.328           0.255  
I05  23740620.854        9899.851         223.493           0.255  
I06  22336982.802        1658.644          38.395           0.255  
I07  23673331.889        -673.080         -21.099           0.255  
> 2019 05 08 04 25 50.8388020  0  6                     
I02  20905867.932         245.568           8.161           0.255  
I03  20626470.314        -886.014         -22.794           0.255  
I04  21950051.118        -347.930         -13.533           0.255  
I05  23740620.793        9902.029         217.870           0.255  
I06  22336981.084        1658.971          32.680           0.255  
I07  23673333.750        -673.374         -29.344           0.255  
> 2019 05 08 04 25 50.8488020  0  6                     
I02  20905869.030         245.558          -0.957           0.255  
I03  20626463.071        -886.254         -23.996           0.255  
I04  21950056.345        -348.052         -12.171           0.255  
I05  23740620.011        9904.145         211.588           0.255  
I06  22336979.487        1659.295          32.333           0.255  
I07  23673337.551        -673.593         -21.895           0.255  
> 2019 05 08 04 25 50.8588020  0  6                     
I02  20905869.921         245.565           0.663           0.255  
I03  20626465.258        -886.422         -16.820           0.255  
I04  21950047.692        -348.094          -4.149           0.255  
I05  23740619.872        9906.331         218.622           0.255  
I06  22336979.566        1659.686          39.168           0.255  
I07  23673327.067        -673.698         -10.525           0.255  
> 2019 05 08 04 25 50.8688020  0  6                     
I02  20905871.320         245.684          11.897           0.255  
I03  20626467.662        -886.575         -15.278           0.255  
I04  21950049.091        -348.126          -3.248           0.255  
I05  23740618.087        9908.609         227.764           0.255  
I06  22336979.472        1660.120          43.407           0.255  
I07  23673328.553        -673.787          -8.886           0.255  
> 2019 05 08 04 25 50.8788020  0  6                     
I02  20905872.857         245.757           7.347           0.255  
I03  20626470.590        -886.782         -20.731           0.255  
I04  21950053.311        -348.185          -5.863           0.255  
I05  23740617.290        9910.837         222.797           0.255  
I06  22336978.767        1660.512          39.135           0.255  
I07  23673332.455        -673.891         -10.383           0.255  
> 2019 05 08 04 25 50.8888020  0  6                     
I02  20905873.494         245.813           5.614           0.255  
I03  20626462.199        -887.002         -21.964           0.255  
I04  21950057.638        -348.308         -12.325           0.255  
I05  23740616.493        9913.000         216.281           0.255  
I06  22336979.790        1660.845          33.333           0.255  
I07  23673335.026        -674.114         -22.316           0.255  
> 2019 05 08 04 25 50.8988020  0  6                     
I02  20905873.226         245.858           4.487           0.255  
I03  20626463.519        -887.192         -19.012           0.255  
I04  21950048.495        -348.422         -11.437           0.255  
I05  23740615.770        9915.146         214.628           0.255  
I06  22336980.037        1661.199          35.447           0.255  
I07  23673336.910        -674.356         -24.254           0.255  
> 2019 05 08 04 25 50.9088020  0  6                     
I02  20905873.423         245.917           5.898           0.255  
I03  20626466.696        -887.355         -16.293           0.255  
I04  21950052.492        -348.508          -8.564           0.255  
I05  23740615.363        9917.366         221.978           0.255  
I06  22336979.507        1661.568          36.807           0.255  
I07  23673325.927        -674.611         -25.420           0.255  
> 2019 05 08 04 25 50.9188020  0  6                     
I02  20905873.817         245.962           4.420           0.255  
I03  20626469.579        -887.541         -18.614           0.255  
I04  21950057.036        -348.566          -5.797           0.255  
I05  23740614.615        9919.597         223.105           0.255  
I06  22336979.117        1661.985          41.783           0.255  
I07  23673326.734        -674.781         -17.085           0.255  
> 2019 05 08 04 25 50.9288020  0  6                     
I02  20905874.081         246.025           6.352           0.255  
I03  20626471.811        -887.742         -20.107           0.255  
I04  21950047.284        -348.635          -6.866           0.255  
I05  23740614.276        9921.805         220.790           0.255  
I06  22336979.501        1662.377          39.143           0.255  
I07  23673330.016        -674.866          -8.424           0.255  
> 2019 05 08 04 25 50.9388020  0  6                     
I02  20905874.050         245.635          17.061           0.255  
I03  20626463.032        -887.954         -21.121           0.255  
I04  21950049.209        -349.580        -117.542           0.255  
I05  23740614.937        9923.976         217.099           0.255  
I06  22336980.419        1663.030         122.254           0.255  
I07  23673331.795        -675.002         -13.609           0.255  
> 2019 05 08 04 25 50.9488020  0  6                     
I02  20905874.833         246.185           7.240           0.255  
I03  20626464.072        -888.140         -18.644           0.255  
I04  21950053.101        -348.789          -6.495           0.255  
I05  23740615.495        9926.182         220.616           0.255  
I06  22336979.995        1663.117          36.008           0.255  
I07  23673334.268        -675.191         -18.883           0.255  
> 2019 05 08 04 25 50.9588020  0  6                     
I02  20905875.050         246.233           4.756           0.255  
I03  20626467.153        -888.344         -20.394           0.255  
I04  21950057.875        -348.880          -9.105           0.255  
I05  23740614.476        9928.384         220.187           0.255  
I06  22336979.959        1663.467          35.008           0.255  
I07  23673336.865        -675.380         -18.994           0.255  
> 2019 05 08 04 25 50.9688020  0  6                     
I02  20905874.973         246.267           3.383           0.255  
I03  20626469.856        -888.530         -18.550           0.255  
I04  21950048.402        -349.011         -13.122           0.255  
I05  23740614.458        9930.585         220.093           0.255  
I06  22336979.375        1663.854          38.651           0.255  
I07  23673326.419        -675.538         -15.729           0.255  
> 2019 05 08 04 25 50.9788020  0  6                     
I02  20905875.384         246.346           7.906           0.255  
I03  20626472.741        -888.721         -19.152           0.255  
I04  21950051.985        -349.106          -9.473           0.255  
I05  23740612.783        9932.790         220.522           0.255  
I06  22336980.744        1664.252          39.777           0.255  
I07  23673327.303        -675.725         -18.721           0.255  
> 2019 05 08 04 25 50.9888020  0  6                     
I02  20905874.540         245.653          -6.463           0.255  
I03  20626465.534        -888.884         -16.340           0.255  
I04  21950056.954        -349.171          -6.535           0.255  
I05  23740611.949        9935.008         221.771           0.255  
I06  22336982.229        1664.056          -4.922           0.255  
I07  23673330.816        -675.879         -15.362           0.255  
> 2019 05 08 04 25 50.9988020  0  6                     
I02  20905874.044         246.492           5.804           0.255  
I03  20626467.329        -889.101         -21.632           0.255  
I04  21950047.939        -349.205          -3.430           0.255  
I05  23740611.526        9937.182         217.466           0.255  
I06  22336982.969        1664.995          35.596           0.255  
I07  23673334.780        -676.018         -13.907           0.255  
> 2019 05 08 04 25 51.0088020  0  6                     
I02  20905873.276         246.516           2.453           0.255  
I03  20626470.424        -889.319         -21.852           0.255  
I04  21950053.568        -350.048           0.796           0.255  
I05  23740612.550        9939.365         218.228           0.255  
I06  22336980.596        1666.057          94.588           0.255  
I07  23673337.511        -676.230         -21.274           0.255  
> 2019 05 08 04 25 51.0188020  0  6                     
I02  20905872.730         246.543           2.651           0.255  
I03  20626461.784        -889.505         -18.552           0.255  
I04  21950044.174        -349.347          -8.522           0.255  
I05  23740611.042        9941.560         219.539           0.255  
I06  22336981.105        1665.720          37.974           0.255  
I07  23673327.291        -676.460         -22.922           0.255  
> 2019 05 08 04 25 51.0288020  0  6                     
I02  20905873.372         246.615           7.259           0.255  
I03  20626462.573        -889.652         -14.748           0.255  
I04  21950047.615        -349.456         -10.892           0.255  
I05  23740610.547        9943.794         223.354           0.255  
I06  22336980.733        1666.114          39.421           0.255  
I07  23673328.840        -676.568         -10.835           0.255  
> 2019 05 08 04 25 51.0388020  0  6                     
I02  20905873.516         246.719          10.349           0.255  
I03  20626465.759        -889.866         -21.349           0.255  
I04  21950053.231        -349.594         -13.860           0.255  
I05  23740610.722        9945.994         220.086           0.255  
I06  22336981.204        1666.506          39.133           0.255  
I07  23673332.640        -676.730         -16.205           0.255  
> 2019 05 08 04 25 51.0488020  0  6                     
I02  20905871.787         246.796           7.680           0.255  
I03  20626469.103        -890.084         -21.784           0.255  
I04  21950058.716        -349.701         -10.677           0.255  
I05  23740609.707        9948.170         217.581           0.255  
I06  22336981.207        1666.896          39.060           0.255  
I07  23673333.868        -676.911         -18.057           0.255  
> 2019 05 08 04 25 51.0588020  0  6                     
I02  20905870.420         246.828           3.187           0.255  
I03  20626471.944        -890.274         -19.083           0.255  
I04  21950049.336        -349.740          -3.885           0.255  
I05  23740608.077        9950.349         217.869           0.255  
I06  22336981.699        1667.262          36.582           0.255  
I07  23673335.773        -677.125         -21.468           0.255  
> 2019 05 08 04 25 51.0688020  0  6                     
I02  20905870.317         247.822          66.321           0.255  
I03  20626463.401        -890.438         -16.306           0.255  
I04  21950052.805        -349.788          -4.796           0.255  
I05  23740606.947        9952.582         223.350           0.255  
I06  22336981.844        1668.682          97.666           0.255  
I07  23673336.723        -677.245         -11.938           0.255  
> 2019 05 08 04 25 51.0788020  0  6                     
I02  20905869.634         246.933           5.227           0.255  
I03  20626465.053        -890.617         -17.930           0.255  
I04  21950058.118        -349.876          -8.822           0.255  
I05  23740606.504        9954.777         219.460           0.255  
I06  22336982.910        1667.992          37.816           0.255  
I07  23673325.843        -677.449         -20.442           0.255  
> 2019 05 08 04 25 51.0888020  0  6                     
I02  20905870.798         246.995           6.190           0.255  
I03  20626468.340        -890.824         -20.752           0.255  
I04  21950048.860        -349.957          -8.051           0.255  
I05  23740606.917        9956.995         221.759           0.255  
I06  22336981.808        1668.369          37.750           0.255  
I07  23673325.425        -677.655         -20.548           0.255  
> 2019 05 08 04 25 51.0988020  0  6                     
I02  20905871.799         247.068           7.323           0.255  
I03  20626471.694        -891.062         -23.795           0.255  
I04  21950051.719        -350.030          -7.380           0.255  
I05  23740606.185        9959.171         217.606           0.255  
I06  22336981.021        1668.772          40.268           0.255  
I07  23673328.968        -677.775         -12.085           0.255  
> 2019 05 08 04 25 51.1088020  0  6                     
I02  20905871.678         247.147           7.969           0.255  
I03  20626463.182        -891.241         -17.867           0.255  
I04  21950055.194        -350.106          -7.524           0.255  
I05  23740605.127        9961.381         220.999           0.255  
I06  22336979.798        1669.164          39.192           0.255  
I07  23673331.626        -677.890         -11.471           0.255  
> 2019 05 08 04 25 51.1188020  0  6                     
I02  20905872.079         247.170           2.289           0.255  
I03  20626465.092        -891.395         -15.397           0.255  
I04  21950045.937        -350.244         -13.856           0.255  
I05  23740604.543        9963.574         219.356           0.255  
I06  22336980.288        1669.514          34.980           0.255  
I07  23673334.307        -678.146         -25.572           0.255  
> 2019 05 08 04 25 51.1288020  0  6                     
I02  20905872.621         247.203           3.310           0.255  
I03  20626467.550        -891.567         -17.156           0.255  
I04  21950049.105        -350.307          -6.251           0.255  
I05  23740604.402        9965.772         219.758           0.255  
I06  22336980.259        1669.855          34.102           0.255  
I07  23673337.301        -678.370         -22.428           0.255  
> 2019 05 08 04 25 51.1388020  0  6                     
I02  20905872.399         247.291           8.806           0.255  
I03  20626470.251        -891.805         -23.892           0.255  
I04  21950054.121        -350.357          -5.041           0.255  
I05  23740602.958        9967.979         220.696           0.255  
I06  22336980.592        1669.786          36.930           0.255  
I07  23673327.189        -678.465          -9.495           0.255  
> 2019 05 08 04 25 51.1488020  0  6                     
I02  20905872.071         247.407          11.543           0.255  
I03  20626472.844        -892.003         -19.801           0.255  
I04  21950043.968        -350.441          -8.375           0.255  
I05  23740601.680        9970.202         222.364           0.255  
I06  22336980.666        1670.651          40.855           0.255  
I07  23673327.749        -678.549          -8.345           0.255  
> 2019 05 08 04 25 51.1588020  0  6                     
I02  20905871.290         247.470           6.313           0.255  
I03  20626463.845        -892.192         -18.882           0.255  
I04  21950047.838        -350.548         -10.746           0.255  
I05  23740601.598        9972.392         218.951           0.255  
I06  22336980.922        1671.021          36.987           0.255  
I07  23673331.119        -678.791         -24.244           0.255  
> 2019 05 08 04 25 51.1688020  0  6                     
I02  20905870.115         247.481           1.051           0.255  
I03  20626465.760        -892.369         -17.656           0.255  
I04  21950053.014        -350.648          -9.986           0.255  
I05  23740601.133        9974.547         215.501           0.255  
I06  22336981.757        1671.384          36.309           0.255  
I07  23673333.719        -679.039         -24.774           0.255  
> 2019 05 08 04 25 51.1788020  0  6                     
I02  20905868.739         247.488           0.699           0.255  
I03  20626469.157        -892.575         -20.615           0.255  
I04  21950059.109        -350.725          -7.687           0.255  
I05  23740600.112        9976.743         219.651           0.255  
I06  22336982.115        1671.757          37.324           0.255  
I07  23673337.527        -679.199         -15.995           0.255  
> 2019 05 08 04 25 51.1888020  0  6                     
I02  20905867.782         247.597          10.965           0.255  
I03  20626472.502        -892.744         -16.895           0.255  
I04  21950049.582        -350.805          -7.977           0.255  
I05  23740600.012        9978.994         225.093           0.255  
I06  22336982.787        1672.150          39.277           0.255  
I07  23673328.103        -679.289          -9.055           0.255  
> 2019 05 08 04 25 51.1988020  0  6                     
I02  20905867.773         247.700          10.280           0.255  
I03  20626464.325        -892.960         -21.621           0.255  
I04  21950051.641        -350.881          -7.616           0.255  
I05  23740598.407        9981.204         220.949           0.255  
I06  22336980.858        1672.536          38.571           0.255  
I07  23673328.376        -679.435         -14.599           0.255  
> 2019 05 08 04 25 51.2088020  0  6                     
I02  20905869.532         247.736           3.581           0.255  
I03  20626465.382        -893.163         -20.241           0.255  
I04  21950057.534        -350.943          -6.152           0.255  
I05  23740597.824        9983.358         215.449           0.255  
I06  22336979.441        1672.890          35.477           0.255  
I07  23673331.761        -679.650         -21.514           0.255  
> 2019 05 08 04 25 51.2188020  0  6                     
I02  20905869.531         247.767           3.168           0.255  
I03  20626468.461        -893.362         -19.936           0.255  
I04  21950047.774        -351.070         -12.728           0.255  
I05  23740597.374        9985.539         218.053           0.255  
I06  22336978.986        1673.247          35.631           0.255  
I07  23673334.841        -679.884         -23.403           0.255  
> 2019 05 08 04 25 51.2288020  0  6                     
I02  20905869.240         247.841           7.391           0.255  
I03  20626471.873        -893.517         -15.467           0.255  
I04  21950052.050        -351.116          -4.572           0.255  
I05  23740596.943        9987.777         223.859           0.255  
I06  22336977.633        1673.619          37.218           0.255  
I07  23673337.312        -680.036         -15.187           0.255  
> 2019 05 08 04 25 51.2388020  0  6                     
I02  20905869.560         247.898           5.629           0.255  
I03  20626463.080        -893.696         -17.907           0.255  
I04  21950057.280        -351.187          -7.166           0.255  
I05  23740595.835        9989.994         221.628           0.255  
I06  22336977.847        1674.040          42.159           0.255  
I07  23673326.407        -680.185         -14.919           0.255  
> 2019 05 08 04 25 51.2488020  0  6                     
I02  20905870.236         247.959           6.100           0.255  
I03  20626463.992        -893.919         -22.317           0.255  
I04  21950047.286        -351.304         -11.684           0.255  
I05  23740596.139        9992.158         216.435           0.255  
I06  22336979.337        1674.419          37.887           0.255  
I07  23673327.418        -680.342         -15.653           0.255  
> 2019 05 08 04 25 51.2588020  0  6                     
I02  20905869.558         248.012           5.326           0.255  
I03  20626467.058        -894.128         -20.908           0.255  
I04  21950049.624        -351.418         -11.344           0.255  
I05  23740596.041        9994.320         216.156           0.255  
I06  22336979.912        1674.754          33.493           0.255  
I07  23673331.265        -680.559         -21.671           0.255  
> 2019 05 08 04 25 51.2688020  0  6                     
I02  20905869.962         248.092           8.039           0.255  
I03  20626469.540        -894.302         -17.398           0.255  
I04  21950055.436        -351.453          -3.566           0.255  
I05  23740595.919        9996.568         224.824           0.255  
I06  22336979.667        1675.115          36.040           0.255  
I07  23673334.375        -680.739         -18.046           0.255  
> 2019 05 08 04 25 51.2788020  0  6                     
I02  20905869.706         248.152           5.961           0.255  
I03  20626472.701        -894.495         -19.345           0.255  
I04  21950045.787        -351.472          -1.872           0.255  
I05  23740596.183        9998.802         223.414           0.255  
I06  22336980.268        1675.525          41.038           0.255  
I07  23673337.902        -680.904         -16.488           0.255  
> 2019 05 08 04 25 51.2888020  0  6                     
I02  20905869.520         248.193           4.092           0.255  
I03  20626465.207        -894.690         -19.511           0.255  
I04  21950050.281        -351.601         -12.912           0.255  
I05  23740594.361       10000.984         218.213           0.255  
I06  22336980.047        1675.921          39.600           0.255  
I07  23673328.022        -681.026         -12.185           0.255  
> 2019 05 08 04 25 51.2988020  0  6                     
I02  20905869.017         248.228           3.518           0.255  
I03  20626467.171        -894.897         -20.639           0.255  
I04  21950056.367        -351.773         -17.228           0.255  
I05  23740594.301       10003.135         215.040           0.255  
I06  22336980.852        1676.273          35.194           0.255  
I07  23673330.449        -681.194         -16.795           0.255  
> 2019 05 08 04 25 51.3088020  0  6                     
I02  20905868.626         248.297           6.938           0.255  
I03  20626470.574        -895.077         -17.990           0.255  
I04  21950047.263        -351.814          -4.046           0.255  
I05  23740594.672       10005.336         220.110           0.255  
I06  22336982.305        1676.640          36.671           0.255  
I07  23673332.418        -681.377         -18.284           0.255  
> 2019 05 08 04 25 51.3188020  0  6                     
I02  20905867.969         248.404          10.638           0.255  
I03  20626462.929        -895.283         -20.598           0.255  
I04  21950050.758        -351.828          -1.390           0.255  
I05  23740594.727       10007.565         222.961           0.255  
I06  22336982.448        1677.017          37.698           0.255  
I07  23673335.781        -681.569         -19.271           0.255  
> 2019 05 08 04 25 51.3288020  0  6                     
I02  20905868.504         248.466           6.182           0.255  
I03  20626464.465        -895.477         -19.416           0.255  
I04  21950057.402        -351.907          -7.973           0.255  
I05  23740594.115       10009.772         220.718           0.255  
I06  22336981.017        1677.375          35.873           0.255  
I07  23673337.518        -681.735         -16.594           0.255  
> 2019 05 08 04 25 51.3388020  0  6                     
I02  20905868.998         248.466           0.079           0.255  
I03  20626468.426        -895.700         -22.292           0.255  
I04  21950048.010        -352.107         -19.967           0.255  
I05  23740594.851       10011.934         216.201           0.255  
I06  22336981.500        1677.728          35.294           0.255  
I07  23673326.509        -681.919         -18.340           0.255  
> 2019 05 08 04 25 51.3488020  0  6                     
I02  20905868.364         248.458          -0.869           0.255  
I03  20626472.296        -895.900         -20.056           0.255  
I04  21950049.348        -352.216         -10.871           0.255  
I05  23740594.571       10014.097         216.209           0.255  
I06  22336981.851        1678.096          36.738           0.255  
I07  23673327.613        -682.183         -26.437           0.255  
> 2019 05 08 04 25 51.3588020  0  6                     
I02  20905869.087         248.536           7.868           0.255  
I03  20626463.423        -896.107         -20.673           0.255  
I04  21950053.084        -352.246          -3.023           0.255  
I05  23740593.731       10016.291         219.483           0.255  
I06  22336980.377        1678.502          40.623           0.255  
I07  23673331.796        -682.324         -14.069           0.255  
> 2019 05 08 04 25 51.3688020  0  6                     
I02  20905869.831         248.677          14.077           0.255  
I03  20626465.049        -896.242         -13.448           0.255  
I04  21950057.654        -352.237           0.885           0.255  
I05  23740592.505       10018.547         225.559           0.255  
I06  22336979.871        1678.909          40.736           0.255  
I07  23673334.455        -682.475         -15.122           0.255  
> 2019 05 08 04 25 51.3788020  0  6                     
I02  20905869.709         248.759           8.178           0.255  
I03  20626468.297        -896.393         -15.139           0.255  
I04  21950048.143        -352.336          -9.908           0.255  
I05  23740591.488       10020.759         221.196           0.255  
I06  22336980.761        1679.280          37.044           0.255  
I07  23673336.428        -682.662         -18.720           0.255  
> 2019 05 08 04 25 51.3888020  0  6                     
I02  20905868.958         248.791           3.200           0.255  
I03  20626471.912        -896.620         -22.665           0.255  
I04  21950051.913        -352.491         -15.431           0.255  
I05  23740590.758       10022.952         219.354           0.255  
I06  22336979.540        1679.623          34.321           0.255  
I07  23673325.928        -682.794         -13.211           0.255  
> 2019 05 08 04 25 51.3988020  0  6                     
I02  20905868.929         248.821           2.991           0.255  
I03  20626463.496        -896.867         -24.785           0.255  
I04  21950059.176        -352.612         -12.139           0.255  
I05  23740590.566       10025.134         218.138           0.255  
I06  22336979.481        1679.998          37.499           0.255  
I07  23673328.695        -683.001         -20.690           0.255  
> 2019 05 08 04 25 51.4088020  0  6                     
I02  20905869.023         248.906           8.483           0.255  
I03  20626465.036        -897.047         -17.922           0.255  
I04  21950050.265        -352.667          -5.493           0.255  
I05  23740588.782       10027.311         217.752           0.255  
I06  22336979.802        1680.385          38.669           0.255  
I07  23673332.996        -683.182         -18.071           0.255  
> 2019 05 08 04 25 51.4188020  0  6                     
I02  20905869.186         248.960           5.462           0.255  
I03  20626468.253        -897.194         -14.698           0.255  
I04  21950052.496        -352.717          -5.004           0.255  
I05  23740588.480       10029.527         221.514           0.255  
I06  22336980.465        1680.753          36.811           0.255  
I07  23673336.152        -683.341         -15.927           0.255  
> 2019 05 08 04 25 51.4288020  0  6                     
I02  20905869.033         249.023           6.314           0.255  
I03  20626471.776        -897.386         -19.192           0.255  
I04  21950055.722        -352.759          -4.221           0.255  
I05  23740586.879       10031.745         221.862           0.255  
I06  22336980.228        1681.144          39.150           0.255  
I07  23673325.839        -683.465         -12.334           0.255  
> 2019 05 08 04 25 51.4388020  0  6                     
I02  20905869.129         249.081           5.746           0.255  
I03  20626464.436        -897.619         -23.376           0.255  
I04  21950046.522        -352.833          -7.395           0.255  
I05  23740585.896       10033.930         218.529           0.255  
I06  22336980.295        1681.514          36.991           0.255  
I07  23673326.474        -683.658         -19.331           0.255  
> 2019 05 08 04 25 51.4488020  0  6                     
I02  20905869.014         249.145           6.373           0.255  
I03  20626465.796        -897.824         -20.430           0.255  
I04  21950049.279        -352.959         -12.607           0.255  
I05  23740586.132       10036.104         217.402           0.255  
I06  22336980.119        1681.900          38.621           0.255  
I07  23673330.640        -683.853         -19.558           0.255  
> 2019 05 08 04 25 51.4588020  0  6                     
I02  20905869.633         249.178           3.303           0.255  
I03  20626469.245        -897.996         -17.208           0.255  
I04  21950054.884        -353.102         -14.310           0.255  
I05  23740585.987       10038.315         221.078           0.255  
I06  22336978.937        1682.249          34.841           0.255  
I07  23673334.038        -684.063         -20.974           0.255  
> 2019 05 08 04 25 51.4688020  0  6                     
I02  20905869.409         249.229           5.082           0.255  
I03  20626472.520        -898.188         -19.272           0.255  
I04  21950044.868        -353.204         -10.149           0.255  
I05  23740586.167       10040.514         219.876           0.255  
I06  22336980.011        1682.610          36.135           0.255  
I07  23673336.011        -684.218         -15.441           0.255  
> 2019 05 08 04 25 51.4788020  0  6                     
I02  20905869.099         249.313           8.442           0.255  
I03  20626464.357        -898.404         -21.600           0.255  
I04  21950046.959        -353.245          -4.112           0.255  
I05  23740585.503       10042.703         218.875           0.255  
I06  22336979.673        1682.984          37.355           0.255  
I07  23673338.408        -684.377         -15.964           0.255  
> 2019 05 08 04 25 51.4888020  0  6                     
I02  20905869.731         249.392           7.934           0.255  
I03  20626466.056        -898.592         -18.789           0.255  
I04  21950053.392        -353.293          -4.772           0.255  
I05  23740585.276       10044.912         220.900           0.255  
I06  22336980.567        1683.393          40.885           0.255  
I07  23673327.833        -684.531         -15.345           0.255  
> 2019 05 08 04 25 51.4988020  0  6                     
I02  20905869.257         249.414           2.151           0.255  
I03  20626468.913        -898.765         -17.239           0.255  
I04  21950059.951        -353.368          -7.494           0.255  
I05  23740584.033       10047.098         218.666           0.255  
I06  22336980.938        1683.773          38.046           0.255  
I07  23673329.098        -684.695         -16.427           0.255  
> 2019 05 08 04 25 51.5088020  0  6                     
I02  20905868.591         249.465           5.114           0.255  
I03  20626471.901        -898.957         -19.231           0.255  
I04  21950050.770        -353.429          -6.128           0.255  
I05  23740583.357       10049.317         221.859           0.255  
I06  22336980.780        1684.141          36.762           0.255  
I07  23673330.732        -684.864         -16.938           0.255  
> 2019 05 08 04 25 51.5188020  0  6                     
I02  20905869.606         249.543           7.797           0.255  
I03  20626462.942        -899.163         -20.603           0.255  
I04  21950053.197        -353.530         -10.151           0.255  
I05  23740583.039       10051.520         220.325           0.255  
I06  22336980.540        1684.493          35.236           0.255  
I07  23673334.302        -685.057         -19.302           0.255  
> 2019 05 08 04 25 51.5288020  0  6                     
I02  20905869.877         249.600        -168.247           0.255  
I03  20626465.364        -899.343         -17.984           0.255  
I04  21950056.497        -353.655         -12.466           0.255  
I05  23740582.382       10053.710         218.985           0.255  
I06  22336981.687        1684.865          37.229           0.255  
I07  23673337.970        -685.255         -19.792           0.255  
> 2019 05 08 04 25 51.5388020  0  6                     
I02  20905870.058         249.681           4.110           0.255  
I03  20626469.120        -899.537         -19.408           0.255  
I04  21950047.196        -353.792         -13.747           0.255  
I05  23740583.266       10055.889         217.885           0.255  
I06  22336980.848        1685.254          38.925           0.255  
I07  23673327.357        -685.382         -12.683           0.255  
> 2019 05 08 04 25 51.5488020  0  6                     
I02  20905871.439         249.751           7.008           0.255  
I03  20626471.530        -899.733         -19.634           0.255  
I04  21950049.185        -353.803          -1.039           0.255  
I05  23740581.668       10058.127         223.824           0.255  
I06  22336979.095        1685.676          42.111           0.255  
I07  23673330.141        -685.514         -13.161           0.255  
> 2019 05 08 04 25 51.5588020  0  6                     
I02  20905871.466         249.820           6.851           0.255  
I03  20626463.178        -899.921         -18.742           0.255  
I04  21950054.397        -353.837          -3.392           0.255  
I05  23740581.911       10060.350         222.304           0.255  
I06  22336976.686        1686.055          37.929           0.255  
I07  23673333.384        -685.688         -17.451           0.255  
> 2019 05 08 04 25 51.5688020  0  6                     
I02  20905870.971         249.845           2.532           0.255  
I03  20626465.917        -900.112         -19.108           0.255  
I04  21950044.702        -353.930          -9.319           0.255  
I05  23740580.381       10062.526         217.608           0.255  
I06  22336974.574        1686.401          34.609           0.255  
I07  23673337.491        -685.959         -27.108           0.255  
> 2019 05 08 04 25 51.5788020  0  6                     
I02  20905870.009         249.848           0.282           0.255  
I03  20626469.711        -900.295         -18.360           0.255  
I04  21950048.448        -354.034         -10.375           0.255  
I05  23740578.911       10064.690         216.401           0.255  
I06  22336974.612        1686.226          53.517           0.255  
I07  23673327.140        -686.177         -21.754           0.255  
> 2019 05 08 04 25 51.5888020  0  6                     
I02  20905870.662         249.949          10.071           0.255  
I03  20626472.614        -900.500         -20.473           0.255  
I04  21950053.703        -354.157         -12.360           0.255  
I05  23740579.084       10066.892         220.121           0.255  
I06  22336974.877        1687.138          39.073           0.255  
I07  23673328.853        -686.319         -14.177           0.255  
> 2019 05 08 04 25 51.5988020  0  6                     
I02  20905870.777         248.835         -10.802           0.255  
I03  20626465.780        -900.679         -17.890           0.255  
I04  21950058.314        -354.231          -7.402           0.255  
I05  23740577.896       10069.120         222.830           0.255  
I06  22336974.963        1687.537          39.956           0.255  
I07  23673330.789        -686.440         -12.100           0.255  
> 2019 05 08 04 25 51.6088020  0  6                     
I02  20905870.089         250.137           7.257           0.255  
I03  20626467.831        -900.893         -21.350           0.255  
I04  21950048.423        -354.281          -4.943           0.255  
I05  23740578.261       10071.328         220.823           0.255  
I06  22336973.624        1687.898          36.101           0.255  
I07  23673334.122        -686.603         -16.303           0.255  
> 2019 05 08 04 25 51.6188020  0  6                     
I02  20905870.721         250.133          -0.316           0.255  
I03  20626471.229        -901.134         -24.182           0.255  
I04  21950051.255        -354.357          -7.637           0.255  
I05  23740576.881       10073.506         217.794           0.255  
I06  22336974.498        1688.233          33.452           0.255  
I07  23673336.953        -686.763         -16.009           0.255  
> 2019 05 08 04 25 51.6288020  0  6                     
I02  20905870.883         250.121          -1.249           0.255  
I03  20626463.399        -901.305         -17.110           0.255  
I04  21950055.496        -354.460         -10.291           0.255  
I05  23740575.050       10075.673         216.652           0.255  
I06  22336973.602        1688.617          38.395           0.255  
I07  23673326.708        -687.024         -26.169           0.255  
> 2019 05 08 04 25 51.6388020  0  6                     
I02  20905871.853         250.188           6.690           0.255  
I03  20626464.383        -901.462         -15.612           0.255  
I04  21950045.899        -354.621         -16.125           0.255  
I05  23740573.916       10077.862         218.960           0.255  
I06  22336974.116        1689.001          38.376           0.255  
I07  23673328.762        -687.256         -23.126           0.255  
> 2019 05 08 04 25 51.6488020  0  6                     
I02  20905872.844         250.314          12.601           0.255  
I03  20626467.835        -901.711         -24.958           0.255  
I04  21950049.629        -354.696          -7.463           0.255  
I05  23740573.035       10080.061         219.884           0.255  
I06  22336973.208        1689.347          34.672           0.255  
I07  23673332.241        -687.340          -8.452           0.255  
> 2019 05 08 04 25 51.6588020  0  6                     
I02  20905872.174         250.397           8.274           0.255  
I03  20626471.237        -901.946         -23.494           0.255  
I04  21950053.720        -354.734          -3.851           0.255  
I05  23740572.668       10082.257         219.609           0.255  
I06  22336974.114        1689.693          34.602           0.255  
I07  23673335.899        -687.444         -10.347           0.255  
> 2019 05 08 04 25 51.6688020  0  6                     
I02  20905871.511         250.409           1.209           0.255  
I03  20626462.826        -902.109         -16.323           0.255  
I04  21950057.324        -354.834          -9.951           0.255  
I05  23740573.100       10084.436         217.872           0.255  
I06  22336972.988        1690.085          39.142           0.255  
I07  23673338.368        -687.678         -23.404           0.255  
> 2019 05 08 04 25 51.6788020  0  6                     
I02  20905872.932         251.189          73.233           0.255  
I03  20626464.541        -902.261         -15.159           0.255  
I04  21950047.347        -354.844         -39.476           0.255  
I05  23740571.898       10086.640         220.463           0.255  
I06  22336972.404        1690.498          41.358           0.255  
I07  23673327.684        -687.955         -27.712           0.255  
> 2019 05 08 04 25 51.6888020  0  6                     
I02  20905873.503         250.501           8.162           0.255  
I03  20626467.668        -902.480         -21.858           0.255  
I04  21950049.891        -355.057          -9.753           0.255  
I05  23740571.942       10088.839         219.886           0.255  
I06  22336972.713        1690.874          37.560           0.255  
I07  23673329.373        -688.102         -14.725           0.255  
> 2019 05 08 04 25 51.6988020  0  6                     
I02  20905872.185         250.583           8.234           0.255  
I03  20626470.991        -902.713         -23.349           0.255  
I04  21950055.491        -355.124          -6.721           0.255  
I05  23740571.415       10091.037         219.737           0.255  
I06  22336973.931        1691.205          33.140           0.255  
I07  23673333.804        -688.221         -11.922           0.255  
> 2019 05 08 04 25 51.7088020  0  6                     
I02  20905871.848         250.649           6.570           0.255  
I03  20626463.152        -902.927         -21.351           0.255  
I04  21950045.736        -355.194          -6.960           0.255  
I05  23740570.875       10093.214         217.708           0.255  
I06  22336973.739        1691.548          34.233           0.255  
I07  23673336.429        -688.388         -16.664           0.255  
> 2019 05 08 04 25 51.7188020  0  6                     
I02  20905872.360         250.699           5.079           0.255  
I03  20626464.845        -903.096         -16.969           0.255  
I04  21950049.880        -355.293          -9.959           0.255  
I05  23740570.750       10095.417         220.365           0.255  
I06  22336974.507        1691.952          40.441           0.255  
I07  23673326.278        -688.560         -17.201           0.255  
> 2019 05 08 04 25 51.7288020  0  6                     
I02  20905872.596         250.734           3.451           0.255  
I03  20626468.540        -903.257         -16.071           0.255  
I04  21950054.086        -355.387          -9.381           0.255  
I05  23740572.092       10097.618         220.052           0.255  
I06  22336975.043        1692.337          38.518           0.255  
I07  23673329.754        -688.767         -20.715           0.255  
> 2019 05 08 04 25 51.7388020  0  6                     
I02  20905872.112         250.765           3.067           0.255  
I03  20626472.256        -903.461         -20.394           0.255  
I04  21950044.217        -355.457          -7.005           0.255  
I05  23740572.229       10099.804         218.599           0.255  
I06  22336974.155        1692.699          36.181           0.255  
I07  23673334.985        -688.975         -20.767           0.255  
> 2019 05 08 04 25 51.7488020  0  6                     
I02  20905872.289         250.837           7.189           0.255  
I03  20626463.435        -903.698         -23.663           0.255  
I04  21950049.480        -355.506          -4.853           0.255  
I05  23740571.775       10101.997         219.271           0.255  
I06  22336973.443        1693.060          36.103           0.255  
I07  23673338.612        -689.134         -15.889           0.255  
> 2019 05 08 04 25 51.7588020  0  6                     
I02  20905870.845         250.935           9.859           0.255  
I03  20626465.416        -903.906         -20.840           0.255  
I04  21950054.350        -355.579          -7.337           0.255  
I05  23740571.096       10104.222         222.494           0.255  
I06  22336974.443        1693.446          38.585           0.255  
I07  23673328.235        -689.272         -13.786           0.255  
> 2019 05 08 04 25 51.7688020  0  6                     
I02  20905870.656         251.000           6.455           0.255  
I03  20626468.795        -904.079         -17.312           0.255  
I04  21950044.651        -355.702         -12.277           0.255  
I05  23740570.778       10106.417         219.512           0.255  
I06  22336972.481        1693.835          38.935           0.255  
I07  23673329.038        -689.427         -15.514           0.255  
> 2019 05 08 04 25 51.7788020  0  6                     
I02  20905869.840         251.014           1.478           0.255  
I03  20626473.059        -904.252         -17.322           0.255  
I04  21950047.991        -355.841         -13.915           0.255  
I05  23740570.276       10108.575         215.802           0.255  
I06  22336970.706        1694.191          35.526           0.255  
I07  23673332.720        -689.666         -23.972           0.255  
> 2019 05 08 04 25 51.7888020  0  6                     
I02  20905869.471         251.033           1.815           0.255  
I03  20626464.891        -904.467         -21.466           0.255  
I04  21950053.941        -355.955         -11.434           0.255  
I05  23740569.550       10110.758         218.319           0.255  
I06  22336970.168        1694.524          33.391           0.255  
I07  23673336.309        -689.897         -23.094           0.255  
> 2019 05 08 04 25 51.7988020  0  6                     
I02  20905869.965         251.131           9.811           0.255  
I03  20626465.908        -904.678         -21.078           0.255  
I04  21950044.838        -355.967          -1.128           0.255  
I05  23740568.252       10113.000         224.264           0.255  
I06  22336972.047        1694.903          37.829           0.255  
I07  23673326.143        -690.050         -15.230           0.255  
> 2019 05 08 04 25 51.8088020  0  6                     
I02  20905868.794         251.245          11.395           0.255  
I03  20626469.801        -904.867         -18.906           0.255  
I04  21950049.547        -355.339         -60.406           0.255  
I05  23740566.896       10115.216         221.576           0.255  
I06  22336972.060        1695.307          40.397           0.255  
I07  23673328.965        -690.150         -10.005           0.255  
> 2019 05 08 04 25 51.8188020  0  6                     
I02  20905869.213         251.276           3.164           0.255  
I03  20626472.658        -905.074         -20.765           0.255  
I04  21950056.218        -356.166         -14.945           0.255  
I05  23740565.419       10117.365         214.852           0.255  
I06  22336972.326        1695.692          38.533           0.255  
I07  23673334.562        -690.347         -19.769           0.255  
> 2019 05 08 04 25 51.8288020  0  6                     
I02  20905868.835         251.271          -0.542           0.255  
I03  20626463.826        -905.298         -22.400           0.255  
I04  21950046.353        -356.296         -12.977           0.255  
I05  23740564.201       10119.523         215.836           0.255  
I06  22336972.744        1696.040          34.762           0.255  
I07  23673339.760        -690.522         -17.513           0.255  
> 2019 05 08 04 25 51.8388020  0  6                     
I02  20905868.856         251.296           2.498           0.255  
I03  20626465.083        -905.489         -19.048           0.255  
I04  21950048.536        -356.348          -5.227           0.255  
I05  23740563.559       10121.748         222.468           0.255  
I06  22336973.231        1696.365          32.557           0.255  
I07  23673329.738        -690.688         -16.594           0.255  
> 2019 05 08 04 25 51.8488020  0  6                     
I02  20905869.536         251.360           6.439           0.255  
I03  20626468.186        -905.669         -18.013           0.255  
I04  21950051.820        -356.432          -8.384           0.255  
I05  23740563.736       10123.948         219.981           0.255  
I06  22336973.925        1696.702          33.707           0.255  
I07  23673331.504        -690.956         -26.796           0.255  
> 2019 05 08 04 25 51.8588020  0  6                     
I02  20905869.330         251.433           7.323           0.255  
I03  20626471.648        -905.875         -20.614           0.255  
I04  21950055.422        -356.570         -13.764           0.255  
I05  23740563.668       10126.098         215.021           0.255  
I06  22336974.957        1697.101          39.888           0.255  
I07  23673334.897        -691.191         -23.418           0.255  
> 2019 05 08 04 25 51.8688020  0  6                     
I02  20905869.447         251.499           6.586           0.255  
I03  20626464.602        -906.091         -21.559           0.255  
I04  21950046.397        -356.668          -9.869           0.255  
I05  23740561.758       10128.277         217.885           0.255  
I06  22336974.805        1697.506          40.517           0.255  
I07  23673338.115        -691.283          -9.212           0.255  
> 2019 05 08 04 25 51.8788020  0  6                     
I02  20905869.976         251.564           6.466           0.255  
I03  20626466.401        -906.299         -20.793           0.255  
I04  21950048.947        -356.703          -3.495           0.255  
I05  23740562.195       10130.490         221.354           0.255  
I06  22336974.050        1697.880          37.390           0.255  
I07  23673327.180        -691.442         -15.893           0.255  
> 2019 05 08 04 25 51.8888020  0  6                     
I02  20905870.548         251.609           4.476           0.255  
I03  20626469.592        -906.466         -16.752           0.255  
I04  21950055.740        -356.776          -7.285           0.255  
I05  23740562.430       10132.718         222.763           0.255  
I06  22336973.082        1698.229          34.922           0.255  
I07  23673330.897        -691.642         -20.049           0.255  
> 2019 05 08 04 25 51.8988020  0  6                     
I02  20905869.355         251.641           3.199           0.255  
I03  20626473.519        -906.668         -20.149           0.255  
I04  21950046.975        -356.900         -12.402           0.255  
I05  23740562.194       10134.897         217.893           0.255  
I06  22336973.898        1698.581          35.191           0.255  
I07  23673337.480        -691.797         -15.487           0.255  
> 2019 05 08 04 25 51.9088020  0  6                     
I02  20905869.048         251.711           7.015           0.255  
I03  20626466.457        -906.898         -22.988           0.255  
I04  21950049.498        -357.023         -12.288           0.255  
I05  23740561.594       10137.068         217.069           0.255  
I06  22336973.927        1698.964          38.302           0.255  
I07  23673326.657        -691.945         -14.848           0.255  
> 2019 05 08 04 25 51.9188020  0  6                     
I02  20905869.413         251.779           6.840           0.255  
I03  20626468.360        -907.099         -20.117           0.255  
I04  21950053.121        -357.060          -3.663           0.255  
I05  23740561.469       10139.268         220.074           0.255  
I06  22336974.617        1699.359          39.481           0.255  
I07  23673328.984        -692.174         -22.856           0.255  
> 2019 05 08 04 25 51.9288020  0  6                     
I02  20905870.586         251.831           5.172           0.255  
I03  20626471.478        -907.261         -16.227           0.255  
I04  21950057.495        -357.094          -3.417           0.255  
I05  23740561.387       10141.498         222.962           0.255  
I06  22336973.108        1699.749          38.987           0.255  
I07  23673330.395        -692.333         -15.943           0.255  
> 2019 05 08 04 25 51.9388020  0  6                     
I02  20905871.006         252.221          72.262           0.255  
I03  20626463.813        -907.436         -17.497           0.255  
I04  21950048.505        -357.175          -8.174           0.255  
I05  23740560.099       10143.696         219.822           0.255  
I06  22336971.786        1699.480        -156.572           0.255  
I07  23673333.537        -692.494         -16.056           0.255  
> 2019 05 08 04 25 51.9488020  0  6                     
I02  20905871.058         251.966           9.286           0.255  
I03  20626466.048        -907.642         -20.616           0.255  
I04  21950050.846        -357.316         -14.065           0.255  
I05  23740559.361       10145.882         218.575           0.255  
I06  22336972.341        1700.446          34.637           0.255  
I07  23673337.836        -692.700         -20.598           0.255  
> 2019 05 08 04 25 51.9588020  0  6                     
I02  20905870.666         252.016           4.941           0.255  
I03  20626470.203        -907.870         -22.754           0.255  
I04  21950055.005        -357.460         -14.426           0.255  
I05  23740558.601       10148.077         219.549           0.255  
I06  22336972.673        1700.974          76.963           0.255  
I07  23673327.039        -692.900         -20.042           0.255  
> 2019 05 08 04 25 51.9688020  0  6                     
I02  20905870.059         252.073           5.714           0.255  
I03  20626463.048        -908.041         -17.108           0.255  
I04  21950046.260        -357.539          -7.883           0.255  
I05  23740558.405       10150.271         219.392           0.255  
I06  22336973.027        1701.231          40.350           0.255  
I07  23673328.325        -693.050         -14.971           0.255  
> 2019 05 08 04 25 51.9788020  0  6                     
I02  20905870.090         252.121           4.779           0.255  
I03  20626465.195        -908.223         -18.200           0.255  
I04  21950049.939        -357.540          -0.042           0.255  
I05  23740557.399       10152.458         218.701           0.255  
I06  22336972.894        1701.613          38.190           0.255  
I07  23673332.283        -693.186         -13.552           0.255  
> 2019 05 08 04 25 51.9888020  0  6                     
I02  20905870.012         252.187           6.660           0.255  
I03  20626468.968        -908.446         -22.351           0.255  
I04  21950054.042        -357.556          24.025           0.255  
I05  23740557.327       10154.660         220.164           0.255  
I06  22336972.903        1701.951          33.769           0.255  
I07  23673334.945        -693.355         -16.891           0.255  
> 2019 05 08 04 25 51.9988020  0  6                     
I02  20905870.254         252.234           4.712           0.255  
I03  20626472.813        -908.658         -21.167           0.255  
I04  21950045.027        -357.721         -10.689           0.255  
I05  23740556.544       10156.857         219.668           0.255  
I06  22336972.396        1702.331          38.033           0.255  
I07  23673336.965        -693.553         -19.806           0.255  
> 2019 05 08 04 25 52.0088020  0  6                     
I02  20905870.504         252.300           6.540           0.255  
I03  20626465.336        -908.833         -17.468           0.255  
I04  21950047.036        -357.851         -12.980           0.255  
I05  23740555.453       10159.089         223.273           0.255  
I06  22336972.746        1702.700          74.448           0.255  
I07  23673326.409        -693.761         -20.834           0.255  
> 2019 05 08 04 25 52.0188020  0  6                     
I02  20905870.495         252.557          80.997           0.255  
I03  20626467.497        -909.018         -18.569           0.255  
I04  21950051.550        -357.929          -7.855           0.255  
I05  23740555.219       10161.262         217.240           0.255  
I06  22336973.185        1703.598          89.801           0.255  
I07  23673327.236        -693.902         -14.101           0.255  
> 2019 05 08 04 25 52.0288020  0  6                     
I02  20905869.229         252.429           7.105           0.255  
I03  20626471.621        -909.231         -21.305           0.255  
I04  21950058.453        -358.007          -7.765           0.255  
I05  23740554.661       10163.423         216.158           0.255  
I06  22336973.179        1703.424          35.061           0.255  
I07  23673330.620        -694.052         -14.992           0.255  
> 2019 05 08 04 25 52.0388020  0  6                     
I02  20905869.383         252.467           3.843           0.255  
I03  20626463.184        -909.437         -20.585           0.255  
I04  21950049.351        -358.083          -7.648           0.255  
I05  23740555.133       10165.616         219.257           0.255  
I06  22336972.165        1703.816          39.225           0.255  
I07  23673334.637        -694.229         -17.671           0.255  
> 2019 05 08 04 25 52.0488020  0  6                     
I02  20905869.823         252.518           5.037           0.255  
I03  20626464.903        -909.628         -19.106           0.255  
I04  21950053.109        -358.169          -8.564           0.255  
I05  23740555.377       10167.852         223.603           0.255  
I06  22336971.931        1704.202          38.573           0.255  
I07  23673338.879        -694.410         -18.169           0.255  
> 2019 05 08 04 25 52.0588020  0  6                     
I02  20905869.106         252.569           5.155           0.255  
I03  20626467.993        -909.824         -19.598           0.255  
I04  21950057.925        -358.246          -7.726           0.255  
I05  23740554.602       10170.066         221.414           0.255  
I06  22336971.487        1704.582          38.005           0.255  
I07  23673328.079        -694.601         -19.073           0.255  
> 2019 05 08 04 25 52.0688020  0  6                     
I02  20905869.339         252.645           7.609           0.255  
I03  20626471.829        -910.009         -18.494           0.255  
I04  21950048.930        -358.378         -13.151           0.255  
I05  23740553.865       10172.245         217.858           0.255  
I06  22336971.190        1704.186         -36.287           0.255  
I07  23673329.745        -694.857         -25.640           0.255  
> 2019 05 08 04 25 52.0788020  0  6                     
I02  20905868.474         252.691           4.620           0.255  
I03  20626465.300        -910.200         -19.092           0.255  
I04  21950051.674        -358.458          -7.993           0.255  
I05  23740553.258       10174.409         216.419           0.255  
I06  22336971.218        1705.298          35.086           0.255  
I07  23673334.431        -695.054         -19.632           0.255  
> 2019 05 08 04 25 52.0888020  0  6                     
I02  20905868.099         252.748           5.636           0.255  
I03  20626467.518        -910.388         -18.828           0.255  
I04  21950058.171        -358.521          -6.327           0.255  
I05  23740552.681       10176.614         220.494           0.255  
I06  22336969.962        1705.662          36.436           0.255  
I07  23673339.865        -695.087          -3.279           0.255  
> 2019 05 08 04 25 52.0988020  0  6                     
I02  20905867.567         252.809           6.072           0.255  
I03  20626472.276        -910.611         -22.255           0.255  
I04  21950048.737        -358.613          -9.222           0.255  
I05  23740552.118       10178.833         221.948           0.255  
I06  22336969.010        1706.060          39.823           0.255  
I07  23673330.075        -695.222         -13.535           0.255  
> 2019 05 08 04 25 52.1088020  0  6                     
I02  20905868.099         252.841           3.210           0.255  
I03  20626464.898        -910.811         -19.984           0.255  
I04  21950050.992        -358.681          -6.839           0.255  
I05  23740551.547       10181.027         219.338           0.255  
I06  22336968.981        1706.425          36.467           0.255  
I07  23673330.653        -695.533         -31.112           0.255  
> 2019 05 08 04 25 52.1188020  0  6                     
I02  20905868.136         252.877           3.618           0.255  
I03  20626466.347        -911.016         -20.565           0.255  
I04  21950056.248        -358.753          -7.159           0.255  
I05  23740550.468       10183.201         217.419           0.255  
I06  22336969.153        1706.173          34.312           0.255  
I07  23673335.448        -695.739         -20.631           0.255  
> 2019 05 08 04 25 52.1288020  0  6                     
I02  20905868.494         252.999          12.240           0.255  
I03  20626469.910        -911.184         -16.725           0.255  
I04  21950047.167        -358.831          -7.742           0.255  
I05  23740549.783       10185.405         220.432           0.255  
I06  22336970.181        1707.187          38.934           0.255  
I07  23673339.728        -695.906         -16.657           0.255  
> 2019 05 08 04 25 52.1388020  0  6                     
I02  20905868.834         253.045           4.621           0.255  
I03  20626473.033        -911.389         -20.481           0.255  
I04  21950051.062        -358.942         -11.195           0.255  
I05  23740549.155       10187.604         219.853           0.255  
I06  22336970.580        1707.545          35.863           0.255  
I07  23673329.267        -696.017         -11.130           0.255  
> 2019 05 08 04 25 52.1488020  0  6                     
I02  20905868.835         253.083           3.794           0.255  
I03  20626465.450        -911.594         -20.505           0.255  
I04  21950057.063        -359.057         -11.477           0.255  
I05  23740548.144       10189.798         219.440           0.255  
I06  22336970.097        1707.890          34.503           0.255  
I07  23673330.969        -696.147         -13.029           0.255  
> 2019 05 08 04 25 52.1588020  0  6                     
I02  20905868.409         253.112           2.906           0.255  
I03  20626466.911        -911.799         -20.525           0.255  
I04  21950047.713        -359.153          -9.534           0.255  
I05  23740548.332       10191.983         218.471           0.255  
I06  22336969.520        1708.269          37.872           0.255  
I07  23673335.266        -696.394         -24.616           0.255  
> 2019 05 08 04 25 52.1688020  0  6                     
I02  20905868.652         253.182           6.932           0.255  
I03  20626470.663        -911.974         -17.542           0.255  
I04  21950052.734        -359.188          -3.586           0.255  
I05  23740547.677       10194.203         222.064           0.255  
I06  22336968.962        1708.667          39.765           0.255  
I07  23673338.197        -696.597         -20.346           0.255  
> 2019 05 08 04 25 52.1788020  0  6                     
I02  20905870.165         253.240           5.837           0.255  
I03  20626463.248        -912.166         -19.166           0.255  
I04  21950057.470        -359.249          -6.062           0.255  
I05  23740546.510       10196.379         217.515           0.255  
I06  22336968.893        1709.049          38.237           0.255  
I07  23673328.332        -696.786         -18.871           0.255  
> 2019 05 08 04 25 52.1888020  0  6                     
I02  20905870.065         253.296           5.567           0.255  
I03  20626465.877        -912.373         -20.737           0.255  
I04  21950047.819        -359.379         -13.020           0.255  
I05  23740546.079       10198.568         218.905           0.255  
I06  22336968.804        1709.385          33.545           0.255  
I07  23673330.578        -696.927         -14.094           0.255  
> 2019 05 08 04 25 52.1988020  0  6                     
I02  20905870.201         253.361           6.538           0.255  
I03  20626469.875        -912.598         -22.423           0.255  
I04  21950051.009        -359.530         -15.059           0.255  
I05  23740544.958       10200.746         217.812           0.255  
I06  22336969.133        1709.766          38.177           0.255  
I07  23673335.300        -697.067         -14.028           0.255  
> 2019 05 08 04 25 52.2088020  0  6                     
I02  20905870.291         253.421           5.972           0.255  
I03  20626472.942        -912.782         -18.461           0.255  
I04  21950055.285        -359.564          -3.412           0.255  
I05  23740544.750       10202.971         222.526           0.255  
I06  22336970.205        1710.154          38.744           0.255  
I07  23673338.627        -697.238         -17.068           0.255  
> 2019 05 08 04 25 52.2188020  0  6                     
I02  20905870.434         253.469           4.851           0.255  
I03  20626464.544        -912.971         -18.913           0.255  
I04  21950045.932        -359.594          -2.969           0.255  
I05  23740544.374       10205.160         218.863           0.255  
I06  22336970.330        1710.519          36.479           0.255  
I07  23673327.526        -697.452         -21.420           0.255  
> 2019 05 08 04 25 52.2288020  0  6                     
I02  20905870.044         253.507           3.713           0.255  
I03  20626466.411        -913.162         -19.040           0.255  
I04  21950050.949        -359.716         -12.216           0.255  
I05  23740544.044       10207.351         219.172           0.255  
I06  22336969.650        1710.868          34.917           0.255  
I07  23673328.255        -697.643         -19.070           0.255  
> 2019 05 08 04 25 52.2388020  0  6                     
I02  20905870.641         253.584           7.745           0.255  
I03  20626469.420        -913.372         -21.028           0.255  
I04  21950057.191        -359.888         -17.269           0.255  
I05  23740544.211       10209.526         217.424           0.255  
I06  22336968.790        1711.248          38.075           0.255  
I07  23673332.538        -697.827         -18.466           0.255  
> 2019 05 08 04 25 52.2488020  0  6                     
I02  20905870.737         253.675           9.070           0.255  
I03  20626472.842        -913.570         -19.781           0.255  
I04  21950048.368        -359.981          -9.242           0.255  
I05  23740544.324       10211.749         222.391           0.255  
I06  22336967.813        1711.651          40.297           0.255  
I07  23673336.263        -697.969         -14.210           0.255  
> 2019 05 08 04 25 52.2588020  0  6                     
I02  20905871.438         253.721           4.645           0.255  
I03  20626463.779        -913.766         -19.609           0.255  
I04  21950051.522        -359.997          -1.597           0.255  
I05  23740542.800       10213.956         220.700           0.255  
I06  22336966.484        1712.042          39.084           0.255  
I07  23673325.914        -698.111         -14.197           0.255  
> 2019 05 08 04 25 52.2688020  0  6                     
I02  20905872.033         253.726           0.520           0.255  
I03  20626465.571        -913.953         -18.749           0.255  
I04  21950058.634        -360.033          -3.581           0.255  
I05  23740541.754       10216.132         217.556           0.255  
I06  22336966.913        1712.374          33.153           0.255  
I07  23673328.119        -698.339         -22.731           0.255  
> 2019 05 08 04 25 52.2788020  0  6                     
I02  20905872.467         253.775           4.857           0.255  
I03  20626469.933        -914.158         -20.424           0.255  
I04  21950049.226        -360.114          -8.092           0.255  
I05  23740541.013       10218.291         215.868           0.255  
I06  22336967.500        1712.706          33.242           0.255  
I07  23673333.254        -698.576         -23.778           0.255  
> 2019 05 08 04 25 52.2888020  0  6                     
I02  20905872.349         253.875           9.962           0.255  
I03  20626473.996        -914.352         -19.403           0.255  
I04  21950053.553        -360.234         -12.042           0.255  
I05  23740539.360       10220.522         223.089           0.255  
I06  22336967.309        1713.102          39.571           0.255  
I07  23673336.364        -698.672          -9.518           0.255  
> 2019 05 08 04 25 52.2988020  0  6                     
I02  20905871.446         253.976          10.120           0.255  
I03  20626466.172        -914.526         -17.469           0.255  
I04  21950058.912        -360.343         -10.867           0.255  
I05  23740538.372       10222.741         221.974           0.255  
I06  22336966.513        1713.504          40.233           0.255  
I07  23673325.871        -698.838         -16.603           0.255  
> 2019 05 08 04 25 52.3088020  0  6                     
I02  20905870.913         254.003           2.759           0.255  
I03  20626468.289        -914.715         -18.858           0.255  
I04  21950049.241        -360.474         -13.130           0.255  
I05  23740538.791       10224.933         219.133           0.255  
I06  22336964.881        1713.876          37.222           0.255  
I07  23673328.299        -699.061         -22.313           0.255  
> 2019 05 08 04 25 52.3188020  0  6                     
I02  20905870.072         254.051           4.806           0.255  
I03  20626472.388        -914.950         -23.526           0.255  
I04  21950051.607        -360.547          -7.313           0.255  
I05  23740538.234       10227.104         217.159           0.255  
I06  22336965.385        1714.226          34.987           0.255  
I07  23673331.768        -699.269         -20.868           0.255  
> 2019 05 08 04 25 52.3288020  0  6                     
I02  20905869.091         254.090           3.899           0.255  
I03  20626465.236        -915.149         -19.925           0.255  
I04  21950057.461        -360.570          -2.242           0.255  
I05  23740538.367       10229.312         220.804           0.255  
I06  22336966.723        1714.588          36.127           0.255  
I07  23673334.607        -699.345          -7.528           0.255  
> 2019 05 08 04 25 52.3388020  0  6                     
I02  20905868.910         254.133           4.267           0.255  
I03  20626467.446        -915.348         -19.912           0.255  
I04  21950048.193        -360.655          -8.551           0.255  
I05  23740537.426       10231.500         218.745           0.255  
I06  22336966.799        1714.961          37.353           0.255  
I07  23673336.923        -699.480         -13.547           0.255  
> 2019 05 08 04 25 52.3488020  0  6                     
I02  20905869.238         254.177           4.420           0.255  
I03  20626470.474        -915.563         -21.430           0.255  
I04  21950051.525        -360.808         -15.270           0.255  
I05  23740537.045       10233.647         214.714           0.255  
I06  22336966.371        1715.298          33.666           0.255  
I07  23673326.726        -699.818         -33.810           0.255  
> 2019 05 08 04 25 52.3588020  0  6                     
I02  20905869.519         254.197           1.973           0.255  
I03  20626461.904        -915.772         -20.966           0.255  
I04  21950057.201        -360.937         -12.963           0.255  
I05  23740535.676       10235.807         215.967           0.255  
I06  22336967.381        1715.646          34.786           0.255  
I07  23673328.519        -700.114         -29.537           0.255  
> 2019 05 08 04 25 52.3688020  0  6                     
I02  20905868.869         254.296           9.871           0.255  
I03  20626464.790        -915.966         -19.347           0.255  
I04  21950048.647        -360.995          -5.757           0.255  
I05  23740533.968       10238.045         223.827           0.255  
I06  22336968.340        1716.044          39.820           0.255  
I07  23673333.245        -700.232         -11.801           0.255  
> 2019 05 08 04 25 52.3788020  0  6                     
I02  20905868.283         254.380           8.384           0.255  
I03  20626469.030        -916.157         -19.139           0.255  
I04  21950050.573        -361.066          -7.116           0.255  
I05  23740533.714       10240.277         223.185           0.255  
I06  22336969.711        1716.442          39.782           0.255  
I07  23673337.257        -700.281          -4.882           0.255  
> 2019 05 08 04 25 52.3888020  0  6                     
I02  20905868.676         254.392           1.220           0.255  
I03  20626472.221        -916.355         -19.766           0.255  
I04  21950055.514        -361.145          -7.908           0.255  
I05  23740533.685       10242.460         218.315           0.255  
I06  22336970.813        1716.797          35.581           0.255  
I07  23673326.564        -700.459         -17.893           0.255  
> 2019 05 08 04 25 52.3988020  0  6                     
I02  20905869.473         254.387          -0.438           0.255  
I03  20626464.306        -916.585         -23.028           0.255  
I04  21950046.118        -361.250         -99.393           0.255  
I05  23740532.452       10244.592         213.239           0.255  
I06  22336971.410        1717.115          31.738           0.255  
I07  23673329.767        -700.673         -21.335           0.255  
> 2019 05 08 04 25 52.4088020  0  6                     
I02  20905869.432         254.430           4.222           0.255  
I03  20626465.987        -916.786         -20.082           0.255  
I04  21950048.029        -361.359          -9.323           0.255  
I05  23740531.696       10246.765         217.261           0.255  
I06  22336970.738        1717.491          37.648           0.255  
I07  23673333.844        -700.857         -18.382           0.255  
> 2019 05 08 04 25 52.4188020  0  6                     
I02  20905870.508         254.570          14.046           0.255  
I03  20626469.958        -916.964         -17.774           0.255  
I04  21950052.533        -361.409          -5.047           0.255  
I05  23740530.993       10249.018         225.345           0.255  
I06  22336970.736        1717.909          41.723           0.255  
I07  23673337.377        -701.026         -16.965           0.255  
> 2019 05 08 04 25 52.4288020  0  6                     
I02  20905870.211         254.667           9.689           0.255  
I03  20626473.554        -917.169         -20.522           0.255  
I04  21950057.980        -361.506          -9.713           0.255  
I05  23740529.237       10251.241         222.277           0.255  
I06  22336971.249        1718.300          39.097           0.255  
I07  23673327.307        -701.214         -18.816           0.255  
> 2019 05 08 04 25 52.4388020  0  6                     
I02  20905870.497         254.660          -0.688           0.255  
I03  20626465.850        -917.369         -20.015           0.255  
I04  21950048.749        -361.625         -11.915           0.255  
I05  23740528.381       10253.382         214.094           0.255  
I06  22336971.039        1718.623          32.354           0.255  
I07  23673331.010        -701.436         -22.133           0.255  
> 2019 05 08 04 25 52.4488020  0  6                     
I02  20905870.694         254.672           1.237           0.255  
I03  20626467.175        -917.568         -19.888           0.255  
I04  21950052.430        -361.751         -12.537           0.255  
I05  23740527.970       10255.528         214.639           0.255  
I06  22336970.722        1718.977          35.374           0.255  
I07  23673335.080        -701.602         -16.621           0.255  
> 2019 05 08 04 25 52.4588020  0  6                     
I02  20905870.571         254.768           9.518           0.255  
I03  20626471.355        -917.780         -21.232           0.255  
I04  21950057.350        -361.836          -8.508           0.255  
I05  23740527.280       10257.764         223.532           0.255  
I06  22336969.834        1719.339          36.178           0.255  
I07  23673337.739        -701.774         -17.162           0.255  
> 2019 05 08 04 25 52.4688020  0  6                     
I02  20905870.890         254.821           5.376           0.255  
I03  20626463.876        -918.000         -21.948           0.255  
I04  21950047.653        -361.903          -6.711           0.255  
I05  23740527.274       10259.991         222.679           0.255  
I06  22336968.153        1719.700          36.137           0.255  
I07  23673327.576        -701.964         -19.021           0.255  
> 2019 05 08 04 25 52.4788020  0  6                     
I02  20905872.544         254.857           3.561           0.255  
I03  20626465.680        -918.205         -20.535           0.255  
I04  21950049.563        -361.974          -7.126           0.255  
I05  23740526.558       10262.164         217.328           0.255  
I06  22336968.577        1720.053          35.314           0.255  
I07  23673329.342        -702.151         -18.683           0.255  
> 2019 05 08 04 25 52.4888020  0  6                     
I02  20905873.205         254.874           1.665           0.255  
I03  20626468.982        -918.398         -19.250           0.255  
I04  21950053.538        -362.057          -8.313           0.255  
I05  23740526.441       10264.310         214.631           0.255  
I06  22336967.767        1720.433          38.028           0.255  
I07  23673333.323        -702.340         -18.960           0.255  
> 2019 05 08 04 25 52.4988020  0  6                     
I02  20905872.792         254.993          11.959           0.255  
I03  20626472.652        -918.584         -18.601           0.255  
I04  21950057.746        -362.156          -9.828           0.255  
I05  23740524.927       10266.514         220.377           0.255  
I06  22336968.292        1720.837          40.408           0.255  
I07  23673337.557        -702.507         -16.642           0.255  
> 2019 05 08 04 25 52.5088020  0  6                     
I02  20905872.871         255.053           5.962           0.255  
I03  20626463.870        -918.778         -19.442           0.255  
I04  21950048.595        -362.289         -13.361           0.255  
I05  23740524.913       10268.729         221.504           0.255  
I06  22336967.996        1721.212          37.493           0.255  
I07  23673327.058        -702.644         -13.734           0.255  
> 2019 05 08 04 25 52.5188020  0  6                     
I02  20905874.115         255.077           2.394           0.255  
I03  20626465.690        -919.015         -23.682           0.255  
I04  21950051.777        -362.427         -13.735           0.255  
I05  23740523.646       10270.915         218.606           0.255  
I06  22336967.973        1721.545          33.219           0.255  
I07  23673329.729        -702.830         -18.607           0.255  
> 2019 05 08 04 25 52.5288020  0  6                     
I02  20905873.515         255.077          -0.012           0.255  
I03  20626469.707        -919.232         -21.734           0.255  
I04  21950056.977        -362.492          -6.582           0.255  
I05  23740522.361       10273.066         215.138           0.255  
I06  22336966.030        1721.881          33.608           0.255  
I07  23673334.963        -703.095         -26.459           0.255  
> 2019 05 08 04 25 52.5388020  0  6                     
I02  20905873.137         255.132           5.576           0.255  
I03  20626474.213        -919.402         -16.945           0.255  
I04  21950048.271        -362.526          -3.361           0.255  
I05  23740520.927       10275.273         220.704           0.255  
I06  22336966.332        1722.280          39.955           0.255  
I07  23673340.432        -703.239         -14.472           0.255  
> 2019 05 08 04 25 52.5488020  0  6                     
I02  20905871.942         255.229           9.656           0.255  
I03  20626466.987        -919.556         -15.422           0.255  
I04  21950053.325        -362.566          -4.004           0.255  
I05  23740520.832       10277.508         223.483           0.255  
I06  22336964.838        1722.684          40.383           0.255  
I07  23673330.335        -703.396         -15.685           0.255  
> 2019 05 08 04 25 52.5588020  0  6                     
I02  20905870.945         255.307           7.758           0.255  
I03  20626469.592        -919.769         -21.273           0.255  
I04  21950059.853        -362.641          -7.483           0.255  
I05  23740520.649       10279.695         218.725           0.255  
I06  22336965.764        1723.046          36.171           0.255  
I07  23673331.740        -703.554         -15.772           0.255  
> 2019 05 08 04 25 52.5688020  0  6                     
I02  20905870.202         255.365           5.888           0.255  
I03  20626474.327        -919.977         -20.865           0.255  
I04  21950050.879        -362.784         -14.332           0.255  
I05  23740520.489       10281.890         219.410           0.255  
I06  22336965.783        1723.393          34.743           0.255  
I07  23673335.704        -703.782         -22.776           0.255  
> 2019 05 08 04 25 52.5788020  0  6                     
I02  20905870.020         255.434           6.905           0.255  
I03  20626467.632        -920.162         -18.429           0.255  
I04  21950053.845        -362.913         -12.921           0.255  
I05  23740520.387       10284.097         220.697           0.255  
I06  22336965.440        1723.794          40.112           0.255  
I07  23673339.212        -703.962         -17.984           0.255  
> 2019 05 08 04 25 52.5888020  0  6                     
I02  20905869.676         255.477           4.204           0.255  
I03  20626471.164        -920.357         -19.521           0.255  
I04  21950057.915        -362.979          -6.594           0.255  
I05  23740520.150       10286.286         218.932           0.255  
I06  22336966.107        1724.177          38.223           0.255  
I07  23673329.607        -704.045          -8.305           0.255  
> 2019 05 08 04 25 52.5988020  0  6                     
I02  20905869.112         255.470          -0.635           0.255  
I03  20626462.863        -920.574         -21.694           0.255  
I04  21950048.359        -363.027          -4.746           0.255  
I05  23740519.755       10288.466         218.043           0.255  
I06  22336966.801        1724.522          34.540           0.255  
I07  23673330.842        -704.175         -13.060           0.255  
> 2019 05 08 04 25 52.6088020  0  6                     
I02  20905868.368         255.550           7.949           0.255  
I03  20626465.839        -920.781         -20.715           0.255  
I04  21950050.050        -363.086          -5.913           0.255  
I05  23740519.706       10290.644         217.731           0.255  
I06  22336966.544        1724.881          35.884           0.255  
I07  23673336.330        -704.409         -23.375           0.255  
> 2019 05 08 04 25 52.6188020  0  6                     
I02  20905868.804         255.659          10.973           0.255  
I03  20626469.936        -920.953         -17.233           0.255  
I04  21950053.418        -363.223         -13.713           0.255  
I05  23740519.218       10292.853         220.961           0.255  
I06  22336966.459        1725.292          41.084           0.255  
I07  23673326.241        -704.687         -27.782           0.255  
> 2019 05 08 04 25 52.6288020  0  6                     
I02  20905869.921         255.742           8.248           0.255  
I03  20626472.688        -921.142         -18.861           0.255  
I04  21950058.801        -363.358         -13.466           0.255  
I05  23740519.470       10295.087         223.333           0.255  
I06  22336966.092        1725.685          39.343           0.255  
I07  23673328.494        -704.835         -14.789           0.255  
> 2019 05 08 04 25 52.6388020  0  6                     
I02  20905870.611         255.735          -0.688           0.255  
I03  20626463.704        -921.356         -21.407           0.255  
I04  21950049.635        -363.451          -9.284           0.255  
I05  23740519.443       10297.246         215.965           0.255  
I06  22336966.245        1726.003          31.819           0.255  
I07  23673334.443        -705.012         -17.758           0.255  
> 2019 05 08 04 25 52.6488020  0  6                     
I02  20905870.968         255.749           1.426           0.255  
I03  20626465.840        -921.579         -22.300           0.255  
I04  21950051.710        -363.508          -5.759           0.255  
I05  23740518.711       10299.400         215.419           0.255  
I06  22336966.443        1726.337          33.326           0.255  
I07  23673339.470        -705.208         -19.561           0.255  
> 2019 05 08 04 25 52.6588020  0  6                     
I02  20905871.019         255.837           8.822           0.255  
I03  20626469.630        -921.779         -20.003           0.255  
I04  21950055.288        -363.518          -1.010           0.255  
I05  23740516.914       10301.614         221.342           0.255  
I06  22336966.037        1726.724          38.749           0.255  
I07  23673329.358        -705.334         -12.644           0.255  
> 2019 05 08 04 25 52.6688020  0  6                     
I02  20905871.551         255.918           8.047           0.255  
I03  20626472.439        -921.955         -17.579           0.255  
I04  21950045.795        -363.605          -8.656           0.255  
I05  23740515.444       10303.848         223.438           0.255  
I06  22336964.613        1727.110          38.615           0.255  
I07  23673333.029        -705.525         -19.023           0.255  
> 2019 05 08 04 25 52.6788020  0  6                     
I02  20905872.222         255.936           1.833           0.255  
I03  20626465.417        -922.165         -21.042           0.255  
I04  21950048.473        -363.784         -17.959           0.255  
I05  23740515.083       10306.044         219.571           0.255  
I06  22336964.765        1727.494          38.378           0.255  
I07  23673336.416        -705.737         -21.209           0.255  
> 2019 05 08 04 25 52.6888020  0  6                     
I02  20905871.667         255.990           5.391           0.255  
I03  20626467.715        -922.367         -20.151           0.255  
I04  21950052.723        -363.941         -15.649           0.255  
I05  23740513.444       10308.197         215.319           0.255  
I06  22336966.305        1727.834          34.038           0.255  
I07  23673326.214        -705.915         -17.867           0.255  
> 2019 05 08 04 25 52.6988020  0  6                     
I02  20905871.287         256.076           8.609           0.255  
I03  20626471.879        -922.563         -19.620           0.255  
I04  21950056.683        -363.982          -4.143           0.255  
I05  23740512.063       10310.363         216.629           0.255  
I06  22336966.303        1728.210          37.612           0.255  
I07  23673328.749        -706.050         -13.498           0.255  
> 2019 05 08 04 25 52.7088020  0  6                     
I02  20905870.731         256.145           6.838           0.255  
I03  20626463.704        -922.757         -19.427           0.255  
I04  21950046.684        -364.003          -2.056           0.255  
I05  23740512.651       10312.582         221.913           0.255  
I06  22336964.254        1728.601          39.095           0.255  
I07  23673332.221        -706.228         -17.723           0.255  
> 2019 05 08 04 25 52.7188020  0  6                     
I02  20905871.235         256.167           2.284           0.255  
I03  20626465.682        -922.977         -21.942           0.255  
I04  21950049.971        -364.054          -5.101           0.255  
I05  23740512.161       10314.787         220.428           0.255  
I06  22336964.887        1728.963          36.133           0.255  
I07  23673338.644        -706.442         -21.442           0.255  
> 2019 05 08 04 25 52.7288020  0  6                     
I02  20905871.884         256.196           2.860           0.255  
I03  20626468.919        -923.173         -19.669           0.255  
I04  21950054.289        -364.217         -16.324           0.255  
I05  23740511.653       10316.993         220.648           0.255  
I06  22336963.958        1729.308          34.525           0.255  
I07  23673328.358        -706.631         -18.879           0.255  
> 2019 05 08 04 25 52.7388020  0  6                     
I02  20905871.658         256.289           9.298           0.255  
I03  20626473.021        -923.354         -18.034           0.255  
I04  21950044.967        -364.347         -13.033           0.255  
I05  23740511.809       10319.172         217.874           0.255  
I06  22336964.808        1729.671          36.349           0.255  
I07  23673328.800        -706.770         -13.891           0.255  
> 2019 05 08 04 25 52.7488020  0  6                     
I02  20905871.763         256.362           7.291           0.255  
I03  20626465.769        -923.533         -17.936           0.255  
I04  21950047.572        -364.410          -6.297           0.255  
I05  23740511.524       10321.382         220.986           0.255  
I06  22336965.107        1730.070          39.821           0.255  
I07  23673333.825        -706.934         -16.462           0.255  
> 2019 05 08 04 25 52.7588020  0  6                     
I02  20905871.932         256.375           1.310           0.255  
I03  20626468.457        -923.742         -20.929           0.255  
I04  21950051.782        -364.407           0.323           0.255  
I05  23740512.042       10323.580         219.796           0.255  
I06  22336964.771        1730.443          37.313           0.255  
I07  23673337.253        -707.156         -22.141           0.255  
> 2019 05 08 04 25 52.7688020  0  6                     
I02  20905872.536         256.453           7.761           0.255  
I03  20626471.973        -923.962         -21.984           0.255  
I04  21950056.504        -364.523         -11.610           0.255  
I05  23740512.027       10325.766         218.610           0.255  
I06  22336964.214        1730.807          36.373           0.255  
I07  23673326.249        -707.307         -15.142           0.255  
> 2019 05 08 04 25 52.7788020  0  6                     
I02  20905872.657         256.501           4.829           0.255  
I03  20626464.763        -924.156         -19.427           0.255  
I04  21950047.265        -364.685         -16.159           0.255  
I05  23740511.670       10327.964         219.801           0.255  
I06  22336962.049        1731.207          40.087           0.255  
I07  23673329.035        -707.500         -19.312           0.255  
> 2019 05 08 04 25 52.7888020  0  6                     
I02  20905873.031         256.578           7.658           0.255  
I03  20626467.414        -924.332         -17.518           0.255  
I04  21950052.101        -364.763          -7.791           0.255  
I05  23740510.844       10330.173         220.908           0.255  
I06  22336960.745        1731.584          37.693           0.255  
I07  23673333.956        -707.645         -14.501           0.255  
> 2019 05 08 04 25 52.7988020  0  6                     
I02  20905873.149         256.613           3.546           0.255  
I03  20626471.969        -924.546         -21.464           0.255  
I04  21950058.160        -364.787          -2.445           0.255  
I05  23740510.027       10332.334         216.063           0.255  
I06  22336959.406        1731.938          35.412           0.255  
I07  23673338.832        -707.761         -11.570           0.255  
> 2019 05 08 04 25 52.8088020  0  6                     
I02  20905872.042         256.657           4.432           0.255  
I03  20626465.259        -924.772         -22.542           0.255  
I04  21950049.220        -364.885          -9.783           0.255  
I05  23740510.402       10334.523         218.964           0.255  
I06  22336960.001        1732.269          33.096           0.255  
I07  23673328.238        -707.971         -20.968           0.255  
> 2019 05 08 04 25 52.8188020  0  6                     
I02  20905872.279         256.719           6.134           0.255  
I03  20626468.025        -924.964         -19.257           0.255  
I04  21950051.066        -364.996         -11.115           0.255  
I05  23740509.936       10336.738         221.521           0.255  
I06  22336959.308        1732.652          38.215           0.255  
I07  23673330.638        -708.203         -23.291           0.255  
> 2019 05 08 04 25 52.8288020  0  6                     
I02  20905872.998         256.792           7.309           0.255  
I03  20626471.173        -925.098         -13.417           0.255  
I04  21950055.150        -365.070          -7.339           0.255  
I05  23740509.015       10338.965         222.651           0.255  
I06  22336959.990        1733.057          40.508           0.255  
I07  23673335.787        -708.416         -21.243           0.255  
> 2019 05 08 04 25 52.8388020  0  6                     
I02  20905872.023         256.829           3.772           0.255  
I03  20626463.118        -925.299         -20.076           0.255  
I04  21950045.937        -365.161          -9.114           0.255  
I05  23740508.993       10341.140         217.492           0.255  
I06  22336960.561        1733.410          35.379           0.255  
I07  23673325.118        -708.645         -22.890           0.255  
> 2019 05 08 04 25 52.8488020  0  6                     
I02  20905870.499         256.853           2.366           0.255  
I03  20626465.564        -925.566         -26.684           0.255  
I04  21950051.210        -365.285         -12.396           0.255  
I05  23740507.840       10343.285         214.464           0.255  
I06  22336959.935        1733.732          32.181           0.255  
I07  23673328.267        -708.833         -18.857           0.255  
> 2019 05 08 04 25 52.8588020  0  6                     
I02  20905869.743         256.905           5.235           0.255  
I03  20626469.319        -925.798         -23.231           0.255  
I04  21950057.957        -365.362          -7.703           0.255  
I05  23740507.189       10345.464         217.941           0.255  
I06  22336959.824        1734.102          36.940           0.255  
I07  23673332.552        -708.972         -13.818           0.255  
> 2019 05 08 04 25 52.8688020  0  6                     
I02  20905869.439         256.998           9.294           0.255  
I03  20626472.787        -925.939         -14.069           0.255  
I04  21950048.659        -365.443          -8.139           0.255  
I05  23740507.368       10347.701         223.682           0.255  
I06  22336960.682        1734.500          39.819           0.255  
I07  23673336.907        -709.014          -4.231           0.255  
> 2019 05 08 04 25 52.8788020  0  6                     
I02  20905869.025         257.062           6.342           0.255  
I03  20626465.556        -926.087         -14.828           0.255  
I04  21950051.554        -365.530          -8.729           0.255  
I05  23740507.044       10349.912         221.137           0.255  
I06  22336962.043        1734.908          40.835           0.255  
I07  23673327.005        -709.248         -23.392           0.255  
> 2019 05 08 04 25 52.8888020  0  6                     
I02  20905868.501         257.112           5.031           0.255  
I03  20626467.687        -926.294         -20.713           0.255  
I04  21950055.747        -365.628          -9.715           0.255  
I05  23740506.638       10352.120         220.834           0.255  
I06  22336963.048        1735.283          37.454           0.255  
I07  23673329.479        -709.541         -29.322           0.255  
> 2019 05 08 04 25 52.8988020  0  6                     
I02  20905868.174         257.141           2.922           0.255  
I03  20626471.966        -926.556         -26.138           0.255  
I04  21950046.550        -365.679          -5.169           0.255  
I05  23740506.652       10354.284         216.319           0.255  
I06  22336962.857        1735.617          33.388           0.255  
I07  23673332.888        -709.726         -18.452           0.255  
> 2019 05 08 04 25 52.9088020  0  6                     
I02  20905869.490         257.215           7.394           0.255  
I03  20626463.249        -926.733         -17.763           0.255  
I04  21950050.013        -365.732          -5.295           0.255  
I05  23740505.002       10356.498         221.413           0.255  
I06  22336962.459        1735.992          37.536           0.255  
I07  23673338.871        -709.786          -6.061           0.255  
> 2019 05 08 04 25 52.9188020  0  6                     
I02  20905869.943         257.264           4.847           0.255  
I03  20626465.864        -926.899         -16.529           0.255  
I04  21950055.023        -365.824          -9.156           0.255  
I05  23740503.919       10358.696         219.797           0.255  
I06  22336961.240        1736.393          40.141           0.255  
I07  23673329.701        -709.905         -11.932           0.255  
> 2019 05 08 04 25 52.9288020  0  6                     
I02  20905868.755         257.351           8.729           0.255  
I03  20626470.076        -927.103         -20.380           0.255  
I04  21950045.460        -365.985         -16.133           0.255  
I05  23740503.406       10360.891         219.509           0.255  
I06  22336962.301        1736.790          39.665           0.255  
I07  23673331.657        -710.107         -20.171           0.255  
> 2019 05 08 04 25 52.9388020  0  6                     
I02  20905867.567         257.415           6.420           0.255  
I03  20626474.226        -927.320         -21.794           0.255  
I04  21950049.422        -366.089         -10.371           0.255  
I05  23740503.062       10363.070         217.886           0.255  
I06  22336962.424        1737.133          34.256           0.255  
I07  23673336.611        -710.363         -25.625           0.255  
> 2019 05 08 04 25 52.9488020  0  6                     
I02  20905867.289         257.451           3.542           0.255  
I03  20626466.112        -927.495         -17.482           0.255  
I04  21950054.582        -366.135          -4.613           0.255  
I05  23740502.328       10365.276         220.659           0.255  
I06  22336962.345        1737.483          35.006           0.255  
I07  23673326.395        -710.533         -16.961           0.255  
> 2019 05 08 04 25 52.9588020  0  6                     
I02  20905867.583         257.468           1.727           0.255  
I03  20626468.254        -927.676         -18.064           0.255  
I04  21950045.215        -366.171          -3.625           0.255  
I05  23740501.323       10367.484         220.796           0.255  
I06  22336961.685        1737.864          38.138           0.255  
I07  23673328.102        -710.690         -15.657           0.255  
> 2019 05 08 04 25 52.9688020  0  6                     
I02  20905868.115         257.532           6.435           0.255  
I03  20626471.499        -927.881         -20.517           0.255  
I04  21950047.243        -366.251          -8.006           0.255  
I05  23740499.861       10369.694         220.982           0.255  
I06  22336962.552        1738.245          38.060           0.255  
I07  23673333.318        -710.824         -13.413           0.255  
> 2019 05 08 04 25 52.9788020  0  6                     
I02  20905868.623         257.625           9.292           0.255  
I03  20626464.737        -928.104         -22.251           0.255  
I04  21950052.002        -366.365         -11.346           0.255  
I05  23740499.285       10371.874         217.958           0.255  
I06  22336962.562        1738.621          37.593           0.255  
I07  23673337.115        -710.989         -16.524           0.255  
> 2019 05 08 04 25 52.9888020  0  6                     
I02  20905868.382         257.718           9.229           0.255  
I03  20626468.031        -928.270         -16.637           0.255  
I04  21950055.714        -366.459          -9.430           0.255  
I05  23740498.586       10374.077         220.293           0.255  
I06  22336963.439        1738.999          37.885           0.255  
I07  23673327.224        -711.183         -19.362           0.255  
> 2019 05 08 04 25 52.9988020  0  6                     
I02  20905868.835         257.738           2.017           0.255  
I03  20626472.070        -928.452         -18.211           0.255  
I04  21950045.938        -366.559          -9.990           0.255  
I05  23740498.820       10376.270         219.360           0.255  
I06  22336963.515        1739.369          36.956           0.255  
I07  23673329.765        -711.368         -18.497           0.255  
> 2019 05 08 04 25 53.0088020  0  6                     
I02  20905868.163         257.776           3.823           0.255  
I03  20626463.954        -928.670         -21.786           0.255  
I04  21950050.345        -366.675         -11.588           0.255  
I05  23740497.771       10378.458         218.829           0.255  
I06  22336964.129        1739.746          37.728           0.255  
I07  23673334.696        -711.572         -20.439           0.255  
> 2019 05 08 04 25 53.0188020  0  6                     
I02  20905868.219         257.834           5.799           0.255  
I03  20626466.462        -928.901         -23.084           0.255  
I04  21950055.873        -366.737          -6.178           0.255  
I05  23740497.888       10380.643         218.420           0.255  
I06  22336964.401        1740.118          37.200           0.255  
I07  23673338.436        -711.709         -13.688           0.255  
> 2019 05 08 04 25 53.0288020  0  6                     
I02  20905869.196         257.933           9.902           0.255  
I03  20626469.939        -929.084         -18.339           0.255  
I04  21950046.854        -366.753          -1.664           0.255  
I05  23740497.378       10382.866         222.312           0.255  
I06  22336963.100        1740.471          35.298           0.255  
I07  23673328.677        -711.822         -11.337           0.255  
> 2019 05 08 04 25 53.0388020  0  6                     
I02  20905867.631         257.982           4.885           0.255  
I03  20626474.571        -929.256         -17.179           0.255  
I04  21950051.450        -366.819          -6.543           0.255  
I05  23740497.034       10385.083         221.764           0.255  
I06  22336963.225        1740.837          36.604           0.255  
I07  23673330.552        -712.034         -21.146           0.255  
> 2019 05 08 04 25 53.0488020  0  6                     
I02  20905868.306         258.010           2.860           0.255  
I03  20626466.836        -929.425         -16.938           0.255  
I04  21950057.483        -367.000         -18.177           0.255  
I05  23740496.984       10387.274         219.093           0.255  
I06  22336962.963        1741.224          38.720           0.255  
I07  23673335.869        -712.306         -27.263           0.255  
> 2019 05 08 04 25 53.0588020  0  6                     
I02  20905869.096         258.047           3.686           0.255  
I03  20626469.408        -929.640         -21.436           0.255  
I04  21950047.739        -367.127         -12.669           0.255  
I05  23740496.456       10389.421         214.658           0.255  
I06  22336961.680        1741.584          35.911           0.255  
I07  23673324.934        -712.456         -14.951           0.255  
> 2019 05 08 04 25 53.0688020  0  6                     
I02  20905868.215         258.124           7.720           0.255  
I03  20626473.740        -929.839         -19.960           0.255  
I04  21950052.359        -367.162          -3.496           0.255  
I05  23740497.210       10391.635         221.439           0.255  
I06  22336959.766        1741.962          37.855           0.255  
I07  23673326.760        -712.607         -15.158           0.255  
> 2019 05 08 04 25 53.0788020  0  6                     
I02  20905868.068         258.210           8.578           0.255  
I03  20626465.647        -930.052         -21.250           0.255  
I04  21950059.101        -367.209          -4.705           0.255  
I05  23740496.333       10393.863         222.808           0.255  
I06  22336959.913        1742.361          39.887           0.255  
I07  23673329.996        -712.707          -9.926           0.255  
> 2019 05 08 04 25 53.0888020  0  6                     
I02  20905868.371         258.261           5.125           0.255  
I03  20626467.646        -930.262         -21.028           0.255  
I04  21950050.318        -367.264          -5.463           0.255  
I05  23740495.038       10396.070         220.621           0.255  
I06  22336959.428        1742.734          37.336           0.255  
I07  23673332.344        -712.886         -17.945           0.255  
> 2019 05 08 04 25 53.0988020  0  6                     
I02  20905867.914         258.294           3.215           0.255  
I03  20626472.551        -930.464         -20.180           0.255  
I04  21950054.887        -367.374         -11.028           0.255  
I05  23740493.984       10398.220         215.048           0.255  
I06  22336959.823        1743.099          36.516           0.255  
I07  23673336.708        -713.115         -22.876           0.255  
> 2019 05 08 04 25 53.1088020  0  6                     
I02  20905867.994         258.360           6.632           0.255  
I03  20626465.603        -930.628         -16.402           0.255  
I04  21950045.828        -367.510         -13.595           0.255  
I05  23740493.625       10400.404         218.389           0.255  
I06  22336959.669        1743.471          37.139           0.255  
I07  23673325.864        -713.315         -19.985           0.255  
> 2019 05 08 04 25 53.1188020  0  6                     
I02  20905867.541         258.435           7.520           0.255  
I03  20626469.083        -930.794         -16.597           0.255  
I04  21950050.416        -367.591          -8.102           0.255  
I05  23740492.578       10402.631         222.749           0.255  
I06  22336959.202        1743.829          35.829           0.255  
I07  23673328.975        -713.465         -15.041           0.255  
> 2019 05 08 04 25 53.1288020  0  6                     
I02  20905867.683         258.481           4.637           0.255  
I03  20626473.648        -930.997         -20.338           0.255  
I04  21950054.930        -367.660          -6.929           0.255  
I05  23740491.919       10404.866         223.449           0.255  
I06  22336957.457        1744.201          37.189           0.255  
I07  23673332.605        -713.696         -23.122           0.255  
> 2019 05 08 04 25 53.1388020  0  6                     
I02  20905869.325         258.498           1.622           0.255  
I03  20626466.798        -931.222         -22.499           0.255  
I04  21950045.466        -367.732          -7.149           0.255  
I05  23740492.058       10407.038         217.207           0.255  
I06  22336957.138        1744.590          38.877           0.255  
I07  23673337.005        -713.932         -23.532           0.255  
> 2019 05 08 04 25 53.1488020  0  6                     
I02  20905870.520         258.603          10.506           0.255  
I03  20626469.366        -931.432         -20.996           0.255  
I04  21950048.042        -367.794          -6.198           0.255  
I05  23740491.545       10409.213         217.522           0.255  
I06  22336957.641        1744.986          39.647           0.255  
I07  23673327.406        -714.017          -8.495           0.255  
> 2019 05 08 04 25 53.1588020  0  6                     
I02  20905869.995         258.672           6.944           0.255  
I03  20626473.673        -931.607         -17.441           0.255  
I04  21950053.402        -367.863          -6.975           0.255  
I05  23740490.952       10411.402         218.881           0.255  
I06  22336958.925        1745.356          36.999           0.255  
I07  23673330.498        -714.132         -11.503           0.255  
> 2019 05 08 04 25 53.1688020  0  6                     
I02  20905870.246         258.723           5.093           0.255  
I03  20626466.964        -931.784         -17.763           0.255  
I04  21950057.658        -367.966         -10.245           0.255  
I05  23740490.826       10413.623         222.133           0.255  
I06  22336959.546        1745.700          34.359           0.255  
I07  23673335.344        -714.296         -16.437           0.255  
> 2019 05 08 04 25 53.1788020  0  6                     
I02  20905870.762         258.758           3.491           0.255  
I03  20626468.577        -931.992         -20.748           0.255  
I04  21950048.990        -368.116         -14.994           0.255  
I05  23740489.899       10415.807         218.339           0.255  
I06  22336959.625        1746.079          37.870           0.255  
I07  23673339.019        -714.558         -26.161           0.255  
> 2019 05 08 04 25 53.1888020  0  6                     
I02  20905870.971         258.811           5.245           0.255  
I03  20626472.416        -932.200         -20.835           0.255  
I04  21950051.592        -368.214          -9.798           0.255  
I05  23740488.378       10418.012         220.501           0.255  
I06  22336960.539        1746.463          38.434           0.255  
I07  23673329.356        -714.761         -20.314           0.255  
> 2019 05 08 04 25 53.1988020  0  6                     
I02  20905870.898         258.886           7.514           0.255  
I03  20626464.834        -932.393         -19.257           0.255  
I04  21950057.417        -368.244          -3.037           0.255  
I05  23740488.542       10420.212         220.024           0.255  
I06  22336959.373        1746.835          37.230           0.255  
I07  23673332.942        -714.876         -11.509           0.255  
> 2019 05 08 04 25 53.2088020  0  6                     
I02  20905871.038         258.956           7.067           0.255  
I03  20626467.981        -932.587         -19.448           0.255  
I04  21950047.706        -368.306          -6.220           0.255  
I05  23740487.896       10422.419         220.666           0.255  
I06  22336959.773        1747.199          36.418           0.255  
I07  23673337.405        -715.030         -15.419           0.255  
> 2019 05 08 04 25 53.2188020  0  6                     
I02  20905869.351         258.979           2.241           0.255  
I03  20626472.590        -932.791         -20.416           0.255  
I04  21950052.204        -368.400          -9.365           0.255  
I05  23740486.535       10424.608         218.883           0.255  
I06  22336960.806        1747.561          36.191           0.255  
I07  23673327.019        -715.229         -19.918           0.255  
> 2019 05 08 04 25 53.2288020  0  6                     
I02  20905868.795         259.019           4.016           0.255  
I03  20626465.169        -932.977         -18.601           0.255  
I04  21950058.358        -368.532         -13.145           0.255  
I05  23740485.616       10426.797         218.898           0.255  
I06  22336961.343        1747.955          39.352           0.255  
I07  23673329.662        -715.427         -19.789           0.255  
> 2019 05 08 04 25 53.2388020  0  6                     
I02  20905869.141         259.098           7.879           0.255  
I03  20626467.315        -933.149         -17.143           0.255  
I04  21950048.973        -368.624          -9.236           0.255  
I05  23740484.657       10428.993         219.678           0.255  
I06  22336961.783        1748.342          38.705           0.255  
I07  23673334.314        -715.604         -17.705           0.255  
> 2019 05 08 04 25 53.2488020  0  6                     
I02  20905870.127         259.182           8.444           0.255  
I03  20626470.960        -933.365         -21.673           0.255  
I04  21950051.044        -370.389        -150.400           0.255  
I05  23740485.140       10431.188         219.443           0.255  
I06  22336960.928        1748.523        -128.560           0.255  
I07  23673339.922        -715.784         -17.948           0.255  
> 2019 05 08 04 25 53.2588020  0  6                     
I02  20905870.171         259.224           4.166           0.255  
I03  20626462.802        -933.593         -22.793           0.255  
I04  21950056.162        -368.710          -5.954           0.255  
I05  23740483.584       10433.379         219.190           0.255  
I06  22336960.219        1749.016          33.655           0.255  
I07  23673330.232        -715.973         -18.889           0.255  
> 2019 05 08 04 25 53.2688020  0  6                     
I02  20905870.736         259.239           1.573           0.255  
I03  20626465.169        -933.800         -20.637           0.255  
I04  21950047.734        -368.800          -9.007           0.255  
I05  23740482.582       10435.566         218.638           0.255  
I06  22336959.859        1749.419          40.223           0.255  
I07  23673333.629        -716.093         -12.049           0.255  
> 2019 05 08 04 25 53.2788020  0  6                     
I02  20905871.314         259.333           9.378           0.255  
I03  20626469.698        -933.953         -15.295           0.255  
I04  21950050.565        -368.967         -16.730           0.255  
I05  23740481.508       10437.781         221.543           0.255  
I06  22336959.488        1749.833          41.470           0.255  
I07  23673338.560        -716.265         -17.182           0.255  
> 2019 05 08 04 25 53.2888020  0  6                     
I02  20905870.768         259.409           7.561           0.255  
I03  20626474.270        -934.117         -16.467           0.255  
I04  21950057.135        -369.116         -14.901           0.255  
I05  23740480.861       10439.998         221.731           0.255  
I06  22336960.115        1750.192          35.863           0.255  
I07  23673329.294        -716.495         -23.002           0.255  
> 2019 05 08 04 25 53.2988020  0  6                     
I02  20905869.738         259.436           2.757           0.255  
I03  20626467.213        -934.343         -22.592           0.255  
I04  21950048.550        -369.155          -3.863           0.255  
I05  23740479.984       10442.174         217.554           0.255  
I06  22336960.063        1750.520          32.806           0.255  
I07  23673332.530        -716.652         -15.738           0.255  
> 2019 05 08 04 25 53.3088020  0  6                     
I02  20905869.342         259.497           6.085           0.255  
I03  20626470.386        -934.586         -24.271           0.255  
I04  21950053.537        -369.152           0.334           0.255  
I05  23740478.552       10444.350         217.655           0.255  
I06  22336958.732        1750.906          38.586           0.255  
I07  23673337.224        -716.781         -12.914           0.255  
> 2019 05 08 04 25 53.3188020  0  6                     
I02  20905869.097         259.569           7.186           0.255  
I03  20626462.162        -934.761         -17.469           0.255  
I04  21950060.686        -369.201          -4.917           0.255  
I05  23740477.685       10446.570         221.978           0.255  
I06  22336958.827        1751.805         179.536           0.255  
I07  23673327.044        -716.994         -21.242           0.255  
> 2019 05 08 04 25 53.3288020  0  6                     
I02  20905868.889         259.645           7.584           0.255  
I03  20626465.176        -934.920         -15.939           0.255  
I04  21950051.380        -369.361         -16.046           0.255  
I05  23740475.970       10448.780         220.956           0.255  
I06  22336957.996        1751.696          36.727           0.255  
I07  23673329.302        -717.200         -20.656           0.255  
> 2019 05 08 04 25 53.3388020  0  6                     
I02  20905868.778         259.659           1.431           0.255  
I03  20626468.972        -935.144         -22.366           0.255  
I04  21950054.716        -369.534         -17.285           0.255  
I05  23740475.257       10450.965         218.532           0.255  
I06  22336958.676        1752.011          31.453           0.255  
I07  23673333.505        -717.346         -14.589           0.255  
> 2019 05 08 04 25 53.3488020  0  6                     
I02  20905867.555         259.651          -0.820           0.255  
I03  20626473.235        -935.407         -26.303           0.255  
I04  21950045.060        -369.629          -9.489           0.255  
I05  23740475.421       10453.103         213.784           0.255  
I06  22336958.601        1752.348          33.755           0.255  
I07  23673338.162        -717.494         -14.789           0.255  
> 2019 05 08 04 25 53.3588020  0  6                     
I02  20905867.002         259.730           7.900           0.255  
I03  20626464.810        -935.605         -19.856           0.255  
I04  21950048.633        -369.664          -3.463           0.255  
I05  23740475.124       10455.293         219.048           0.255  
I06  22336958.793        1752.739          39.032           0.255  
I07  23673327.838        -717.683         -18.841           0.255  
> 2019 05 08 04 25 53.3688020  0  6                     
I02  20905867.407         259.818           8.746           0.255  
I03  20626467.467        -935.748         -14.291           0.255  
I04  21950053.915        -369.722          -5.846           0.255  
I05  23740474.272       10457.518         222.477           0.255  
I06  22336960.229        1753.140          40.163           0.255  
I07  23673330.451        -717.890         -20.777           0.255  
> 2019 05 08 04 25 53.3788020  0  6                     
I02  20905867.876         259.883           6.519           0.255  
I03  20626471.739        -935.924         -17.581           0.255  
I04  21950044.304        -369.802          -7.955           0.255  
I05  23740474.446       10459.730         221.166           0.255  
I06  22336959.620        1753.501          36.032           0.255  
I07  23673334.060        -718.093         -20.227           0.255  
> 2019 05 08 04 25 53.3888020  0  6                     
I02  20905868.372         259.905           2.207           0.255  
I03  20626463.357        -936.145         -22.096           0.255  
I04  21950046.033        -369.909         -10.693           0.255  
I05  23740474.288       10461.914         218.450           0.255  
I06  22336959.047        1753.865          36.451           0.255  
I07  23673339.905        -718.348         -25.556           0.255  
> 2019 05 08 04 25 53.3988020  0  6                     
I02  20905868.287         259.922           1.740           0.255  
I03  20626466.251        -936.349         -20.407           0.255  
I04  21950051.505        -369.984          -7.582           0.255  
I05  23740474.121       10464.104         218.989           0.255  
I06  22336958.126        1754.233          36.835           0.255  
I07  23673331.040        -718.510         -16.189           0.255  
> 2019 05 08 04 25 53.4088020  0  6                     
I02  20905867.491         260.002           7.983           0.255  
I03  20626470.497        -936.560         -21.080           0.255  
I04  21950057.695        -370.070          -8.507           0.255  
I05  23740472.963       10466.298         219.381           0.255  
I06  22336958.314        1754.591          35.798           0.255  
I07  23673333.563        -718.583          -7.242           0.255  
> 2019 05 08 04 25 53.4188020  0  6                     
I02  20905866.866         260.100           9.754           0.255  
I03  20626462.645        -936.761         -20.074           0.255  
I04  21950048.476        -370.200         -13.047           0.255  
I05  23740472.723       10468.469         217.071           0.255  
I06  22336957.309        1754.975          38.328           0.255  
I07  23673336.734        -718.734         -15.108           0.255  
> 2019 05 08 04 25 53.4288020  0  6                     
I02  20905866.842         259.692          16.543           0.255  
I03  20626466.033        -936.960         -19.895           0.255  
I04  21950050.851        -370.335         -13.532           0.255  
I05  23740472.426       10470.663         219.464           0.255  
I06  22336956.521        1755.355          38.005           0.255  
I07  23673326.521        -718.967         -23.361           0.255  
> 2019 05 08 04 25 53.4388020  0  6                     
I02  20905867.844         260.214           5.629           0.255  
I03  20626469.749        -937.129         -16.966           0.255  
I04  21950056.381        -370.382          -4.710           0.255  
I05  23740472.699       10472.883         221.955           0.255  
I06  22336956.688        1755.729          37.433           0.255  
I07  23673328.963        -719.182         -21.502           0.255  
> 2019 05 08 04 25 53.4488020  0  6                     
I02  20905867.239         260.265           5.087           0.255  
I03  20626474.078        -937.324         -19.504           0.255  
I04  21950047.246        -370.404          -2.174           0.255  
I05  23740473.208       10475.112         222.943           0.255  
I06  22336957.007        1756.337         146.884           0.255  
I07  23673332.440        -719.349         -16.714           0.255  
> 2019 05 08 04 25 53.4588020  0  6                     
I02  20905866.290         260.302           3.723           0.255  
I03  20626466.144        -937.552         -22.799           0.255  
I04  21950052.798        -370.486          -8.145           0.255  
I05  23740472.735       10477.290         217.742           0.255  
I06  22336956.850        1756.461          36.652           0.255  
I07  23673338.852        -719.515         -16.520           0.255  
> 2019 05 08 04 25 53.4688020  0  6                     
I02  20905866.672         260.343           4.083           0.255  
I03  20626469.199        -937.780         -22.722           0.255  
I04  21950057.271        -370.605         -11.923           0.255  
I05  23740471.513       10479.426         213.637           0.255  
I06  22336956.149        1756.834          37.260           0.255  
I07  23673328.696        -719.692         -17.770           0.255  
> 2019 05 08 04 25 53.4788020  0  6                     
I02  20905867.665         260.430           8.725           0.255  
I03  20626472.770        -937.927         -14.701           0.255  
I04  21950047.587        -370.704          -9.872           0.255  
I05  23740470.474       10481.639         221.298           0.255  
I06  22336956.856        1757.222          38.840           0.255  
I07  23673332.049        -719.829         -13.718           0.255  
> 2019 05 08 04 25 53.4888020  0  6                     
I02  20905867.196         260.491           6.056           0.255  
I03  20626464.379        -938.081         -15.422           0.255  
I04  21950051.761        -370.796          -9.194           0.255  
I05  23740470.483       10483.872         223.289           0.255  
I06  22336957.073        1757.574          35.116           0.255  
I07  23673336.616        -720.010         -18.050           0.255  
> 2019 05 08 04 25 53.4988020  0  6                     
I02  20905867.985         259.824        -158.427           0.255  
I03  20626466.370        -938.312         -23.150           0.255  
I04  21950059.114        -371.241         -43.979           0.255  
I05  23740470.089       10486.079         220.719           0.255  
I06  22336957.874        1757.960          38.609           0.255  
I07  23673326.398        -720.243         -23.264           0.255  
> 2019 05 08 04 25 53.5088020  0  6                     
I02  20905867.592         260.551           2.827           0.255  
I03  20626470.836        -938.551         -23.868           0.255  
I04  21950050.279        -370.927          -5.136           0.255  
I05  23740469.855       10488.251         217.152           0.255  
I06  22336958.703        1758.331          37.165           0.255  
I07  23673327.541        -720.393         -14.993           0.255  
> 2019 05 08 04 25 53.5188020  0  6                     
I02  20905867.681         260.654          10.323           0.255  
I03  20626462.814        -938.733         -18.225           0.255  
I04  21950054.078        -371.016          -8.931           0.255  
I05  23740469.238       10490.446         219.531           0.255  
I06  22336956.807        1758.698          36.674           0.255  
I07  23673331.457        -720.512         -11.994           0.255  
> 2019 05 08 04 25 53.5288020  0  6                     
I02  20905867.892         260.706           5.181           0.255  
I03  20626465.965        -938.910         -17.704           0.255  
I04  21950045.030        -371.141         -12.456           0.255  
I05  23740468.155       10492.631         218.456           0.255  
I06  22336956.412        1759.065          36.725           0.255  
I07  23673335.139        -720.745         -23.290           0.255  
> 2019 05 08 04 25 53.5388020  0  6                     
I02  20905868.668         260.739           3.336           0.255  
I03  20626469.470        -939.111         -20.066           0.255  
I04  21950048.333        -371.209          -6.779           0.255  
I05  23740467.691       10494.836         220.558           0.255  
I06  22336956.294        1759.422          35.697           0.255  
I07  23673338.311        -720.923         -17.720           0.255  
> 2019 05 08 04 25 53.5488020  0  6                     
I02  20905869.072         260.792           5.287           0.255  
I03  20626473.742        -939.297         -18.596           0.255  
I04  21950053.351        -371.279          -7.037           0.255  
I05  23740467.169       10497.049         221.287           0.255  
I06  22336954.785        1759.808          38.575           0.255  
I07  23673328.183        -721.132         -20.940           0.255  
> 2019 05 08 04 25 53.5588020  0  6                     
I02  20905868.935         260.907          11.464           0.255  
I03  20626466.614        -939.480         -18.271           0.255  
I04  21950058.526        -371.349          -7.036           0.255  
I05  23740466.213       10499.264         221.535           0.255  
I06  22336954.104        1760.226          41.749           0.255  
I07  23673330.900        -721.215          -8.283           0.255  
> 2019 05 08 04 25 53.5688020  0  6                     
I02  20905868.381         260.993           8.608           0.255  
I03  20626469.197        -939.690         -21.074           0.255  
I04  21950049.302        -371.437          -8.787           0.255  
I05  23740464.814       10501.465         220.102           0.255  
I06  22336954.840        1760.582          35.650           0.255  
I07  23673333.088        -721.408         -19.361           0.255  
> 2019 05 08 04 25 53.5788020  0  6                     
I02  20905868.115         262.084          45.055           0.255  
I03  20626473.265        -939.889         -19.901           0.255  
I04  21950052.302        -372.051         -40.265           0.255  
I05  23740463.517       10503.633         216.797           0.255  
I06  22336955.484        1760.990          -3.465           0.255  
I07  23673340.050        -721.665         -25.628           0.255  
> 2019 05 08 04 25 53.5888020  0  6                     
I02  20905868.488         261.016           0.584           0.255  
I03  20626465.810        -940.078         -18.906           0.255  
I04  21950056.597        -371.628         -10.889           0.255  
I05  23740463.257       10505.808         217.485           0.255  
I06  22336957.165        1761.293          37.546           0.255  
I07  23673330.585        -721.785         -11.999           0.255  
> 2019 05 08 04 25 53.5988020  0  6                     
I02  20905867.317         261.064           4.727           0.255  
I03  20626468.551        -940.271         -19.247           0.255  
I04  21950047.704        -371.713          -8.429           0.255  
I05  23740462.836       10508.040         223.167           0.255  
I06  22336957.676        1761.710          41.620           0.255  
I07  23673333.156        -721.891         -10.644           0.255  
> 2019 05 08 04 25 53.6088020  0  6                     
I02  20905867.132         261.200          13.681           0.255  
I03  20626473.569        -940.482         -21.074           0.255  
I04  21950051.092        -371.818         -10.547           0.255  
I05  23740463.318       10510.259         221.944           0.255  
I06  22336958.715        1762.078          36.842           0.255  
I07  23673337.271        -722.063         -17.231           0.255  
> 2019 05 08 04 25 53.6188020  0  6                     
I02  20905866.410         261.271           7.021           0.255  
I03  20626467.013        -940.699         -21.737           0.255  
I04  21950056.154        -371.917          -9.926           0.255  
I05  23740463.586       10512.444         218.504           0.255  
I06  22336959.787        1762.443          36.502           0.255  
I07  23673327.066        -722.304         -24.103           0.255  
> 2019 05 08 04 25 53.6288020  0  6                     
I02  20905866.262         261.270          -0.031           0.255  
I03  20626469.240        -940.871         -17.208           0.255  
I04  21950046.110        -371.997          -7.989           0.255  
I05  23740463.289       10514.601         215.619           0.255  
I06  22336961.082        1762.626           2.557           0.255  
I07  23673329.578        -722.595         -29.038           0.255  
> 2019 05 08 04 25 53.6388020  0  6                     
I02  20905865.028         261.296           2.602           0.255  
I03  20626473.754        -941.037         -16.629           0.255  
I04  21950050.766        -372.076          -7.916           0.255  
I05  23740463.181       10516.797         219.614           0.255  
I06  22336959.310        1763.174          37.160           0.255  
I07  23673334.797        -722.751         -15.628           0.255  
> 2019 05 08 04 25 53.6488020  0  6                     
I02  20905865.545         261.385           8.862           0.255  
I03  20626467.169        -941.258         -22.080           0.255  
I04  21950056.405        -372.187         -11.103           0.255  
I05  23740462.876       10519.019         222.204           0.255  
I06  22336958.348        1763.562          38.743           0.255  
I07  23673339.954        -722.852         -10.136           0.255  
> 2019 05 08 04 25 53.6588020  0  6                     
I02  20905866.033         261.010        -190.569           0.255  
I03  20626469.609        -941.498         -23.951           0.255  
I04  21950046.888        -372.743        -140.326           0.255  
I05  23740461.969       10521.227         220.809           0.255  
I06  22336958.394        1763.916          35.442           0.255  
I07  23673330.691        -722.951          -9.818           0.255  
> 2019 05 08 04 25 53.6688020  0  6                     
I02  20905866.929         261.519           5.625           0.255  
I03  20626473.795        -941.696         -19.875           0.255  
I04  21950048.235        -372.352          -9.400           0.255  
I05  23740462.021       10523.390         216.345           0.255  
I06  22336957.830        1764.275          35.910           0.255  
I07  23673333.210        -723.194         -24.371           0.255  
> 2019 05 08 04 25 53.6788020  0  6                     
I02  20905868.208         261.573           5.422           0.255  
I03  20626465.339        -941.845         -14.808           0.255  
I04  21950052.583        -372.426          -7.467           0.255  
I05  23740461.926       10525.576         218.529           0.255  
I06  22336957.607        1764.645          36.951           0.255  
I07  23673337.543        -723.428         -23.383           0.255  
> 2019 05 08 04 25 53.6888020  0  6                     
I02  20905867.818         261.640           6.758           0.255  
I03  20626467.607        -942.022         -17.769           0.255  
I04  21950058.075        -372.482          -5.542           0.255  
I05  23740461.811       10527.804         222.835           0.255  
I06  22336957.309        1765.025          38.053           0.255  
I07  23673326.598        -723.558         -12.973           0.255  
> 2019 05 08 04 25 53.6988020  0  6                     
I02  20905868.105         261.673           3.245           0.255  
I03  20626472.169        -942.238         -21.567           0.255  
I04  21950049.427        -372.564          -8.249           0.255  
I05  23740461.425       10529.995         219.101           0.255  
I06  22336956.303        1765.405          38.034           0.255  
I07  23673329.620        -723.700         -14.256           0.255  
> 2019 05 08 04 25 53.7088020  0  6                     
I02  20905868.944         261.685           1.228           0.255  
I03  20626464.482        -942.462         -22.421           0.255  
I04  21950051.727        -372.670         -10.635           0.255  
I05  23740460.424       10532.181         218.648           0.255  
I06  22336955.545        1765.776          37.009           0.255  
I07  23673335.602        -723.900         -19.940           0.255  
> 2019 05 08 04 25 53.7188020  0  6                     
I02  20905869.722         261.785           9.982           0.255  
I03  20626466.821        -942.656         -19.376           0.255  
I04  21950056.953        -372.740          -6.956           0.255  
I05  23740460.258       10534.388         220.703           0.255  
I06  22336955.020        1766.174          39.822           0.255  
I07  23673340.474        -724.103         -20.317           0.255  
> 2019 05 08 04 25 53.7288020  0  6                     
I02  20905869.531         261.871           8.589           0.255  
I03  20626471.280        -942.821         -16.517           0.255  
I04  21950047.649        -372.818          -7.841           0.255  
I05  23740459.731       10536.599         221.083           0.255  
I06  22336954.288        1766.537          36.276           0.255  
I07  23673330.279        -724.262         -15.942           0.255  
> 2019 05 08 04 25 53.7388020  0  6                     
I02  20905871.011         261.918           4.763           0.255  
I03  20626463.779        -943.015         -19.418           0.255  
I04  21950049.699        -372.918          -9.937           0.255  
I05  23740458.618       10538.780         218.121           0.255  
I06  22336953.715        1766.892          35.501           0.255  
I07  23673332.103        -724.441         -17.825           0.255  
> 2019 05 08 04 25 53.7488020  0  6                     
I02  20905870.062         261.910          -0.836           0.255  
I03  20626466.659        -943.234         -21.886           0.255  
I04  21950056.586        -373.074         -15.655           0.255  
I05  23740456.449       10540.960         217.908           0.255  
I06  22336952.767        1767.239          34.770           0.255  
I07  23673336.011        -724.592         -15.155           0.255  
> 2019 05 08 04 25 53.7588020  0  6                     
I02  20905869.573         261.972           6.209           0.255  
I03  20626471.053        -943.464         -22.948           0.255  
I04  21950047.638        -373.152          -7.747           0.255  
I05  23740454.962       10543.162         220.251           0.255  
I06  22336953.202        1767.616          37.651           0.255  
I07  23673325.236        -724.760         -16.787           0.255  
> 2019 05 08 04 25 53.7688020  0  6                     
I02  20905869.651         262.060           8.813           0.255  
I03  20626464.284        -943.628         -16.486           0.255  
I04  21950049.496        -373.179          -2.758           0.255  
I05  23740454.760       10545.387         222.536           0.255  
I06  22336953.213        1768.019          40.343           0.255  
I07  23673327.676        -724.992         -23.196           0.255  
> 2019 05 08 04 25 53.7788020  0  6                     
I02  20905870.060         262.138           7.715           0.255  
I03  20626467.522        -943.798         -16.913           0.255  
I04  21950054.588        -373.237          -5.808           0.255  
I05  23740454.508       10547.577         218.932           0.255  
I06  22336953.745        1768.396          37.719           0.255  
I07  23673331.479        -725.206         -21.357           0.255  
> 2019 05 08 04 25 53.7888020  0  6                     
I02  20905869.952         262.175           3.710           0.255  
I03  20626471.801        -943.995         -19.749           0.255  
I04  21950045.669        -373.359         -12.186           0.255  
I05  23740453.374       10549.751         217.384           0.255  
I06  22336954.021        1768.739          34.275           0.255  
I07  23673336.183        -725.369         -16.302           0.255  
> 2019 05 08 04 25 53.7988020  0  6                     
I02  20905869.673         262.225           5.080           0.255  
I03  20626463.223        -944.235         -24.021           0.255  
I04  21950049.594        -373.473         -11.336           0.255  
I05  23740451.749       10551.942         219.137           0.255  
I06  22336953.306        1769.105          36.575           0.255  
I07  23673326.624        -725.434          -6.485           0.255  
> 2019 05 08 04 25 53.8088020  0  6                     
I02  20905868.934         262.282           5.630           0.255  
I03  20626466.114        -944.426         -19.081           0.255  
I04  21950057.845        -373.566          -9.378           0.255  
I05  23740451.416       10554.168         222.597           0.255  
I06  22336953.612        1769.488          38.315           0.255  
I07  23673329.376        -725.552         -11.825           0.255  
> 2019 05 08 04 25 53.8188020  0  6                     
I02  20905867.935         262.354           7.222           0.255  
I03  20626470.733        -944.622         -19.611           0.255  
I04  21950049.068        -373.642          -7.514           0.255  
I05  23740451.746       10556.375         220.750           0.255  
I06  22336955.133        1769.874          38.588           0.255  
I07  23673335.370        -725.794         -24.208           0.255  
> 2019 05 08 04 25 53.8288020  0  6                     
I02  20905867.293         262.404           5.013           0.255  
I03  20626463.587        -944.782         -16.006           0.255  
I04  21950051.977        -373.718          -7.684           0.255  
I05  23740450.311       10558.562         218.644           0.255  
I06  22336956.360        1770.236          36.178           0.255  
I07  23673339.421        -726.112         -31.853           0.255  
> 2019 05 08 04 25 53.8388020  0  6                     
I02  20905866.783         262.435           3.075           0.255  
I03  20626466.371        -945.011         -22.899           0.255  
I04  21950056.604        -373.799          -8.012           0.255  
I05  23740450.256       10560.708         214.605           0.255  
I06  22336956.516        1770.580          34.467           0.255  
I07  23673329.471        -726.276         -16.314           0.255  
> 2019 05 08 04 25 53.8488020  0  6                     
I02  20905866.757         262.487           5.247           0.255  
I03  20626471.332        -945.228         -21.634           0.255  
I04  21950047.567        -373.902         -10.350           0.255  
I05  23740450.064       10562.893         218.537           0.255  
I06  22336956.687        1770.943          36.214           0.255  
I07  23673331.604        -726.368          -9.239           0.255  
> 2019 05 08 04 25 53.8588020  0  6                     
I02  20905866.956         262.541           5.352           0.255  
I03  20626463.637        -945.422         -19.462           0.255  
I04  21950051.375        -374.012         -11.026           0.255  
I05  23740449.666       10565.119         222.555           0.255  
I06  22336956.862        1771.309         -13.120           0.255  
I07  23673337.251        -726.557         -18.851           0.255  
> 2019 05 08 04 25 53.8688020  0  6                     
I02  20905867.031         262.618           7.700           0.255  
I03  20626466.235        -945.607         -18.459           0.255  
I04  21950055.112        -374.058          -4.562           0.255  
I05  23740448.606       10567.347         222.849           0.255  
I06  22336956.748        1771.715          38.641           0.255  
I07  23673326.559        -726.733         -17.633           0.255  
> 2019 05 08 04 25 53.8788020  0  6                     
I02  20905867.623         262.672           5.417           0.255  
I03  20626470.481        -945.794         -18.775           0.255  
I04  21950045.959        -374.144          -8.587           0.255  
I05  23740448.099       10569.534         218.644           0.255  
I06  22336956.243        1772.103          38.757           0.255  
I07  23673329.654        -726.963         -23.046           0.255  
> 2019 05 08 04 25 53.8888020  0  6                     
I02  20905867.937         262.743           7.086           0.255  
I03  20626463.855        -945.994         -19.959           0.255  
I04  21950048.494        -374.264         -11.986           0.255  
I05  23740447.932       10571.716         218.207           0.255  
I06  22336956.038        1772.484          38.111           0.255  
I07  23673335.535        -727.088         -12.493           0.255  
> 2019 05 08 04 25 53.8988020  0  6                     
I02  20905867.736         262.775           3.253           0.255  
I03  20626467.039        -946.199         -20.466           0.255  
I04  21950053.427        -374.334          -6.995           0.255  
I05  23740447.938       10573.896         218.019           0.255  
I06  22336957.027        1772.831          34.716           0.255  
I07  23673339.934        -727.221         -13.315           0.255  
> 2019 05 08 04 25 53.9088020  0  6                     
I02  20905868.100         262.799           2.390           0.255  
I03  20626471.567        -946.384         -18.560           0.255  
I04  21950057.888        -374.411          -7.768           0.255  
I05  23740446.775       10576.112         221.612           0.255  
I06  22336957.345        1773.182          35.161           0.255  
I07  23673329.724        -727.394         -17.266           0.255  
> 2019 05 08 04 25 53.9188020  0  6                     
I02  20905868.113         262.890           9.119           0.255  
I03  20626463.975        -946.592         -20.751           0.255  
I04  21950048.448        -374.496          -8.501           0.255  
I05  23740446.734       10578.308         219.633           0.255  
I06  22336956.904        1773.561          37.804           0.255  
I07  23673332.048        -727.645         -25.070           0.255  
> 2019 05 08 04 25 53.9288020  0  6                     
I02  20905867.580         262.979           8.814           0.255  
I03  20626467.541        -946.766         -17.438           0.255  
I04  21950051.516        -374.571          -7.470           0.255  
I05  23740446.522       10580.523         221.486           0.255  
I06  22336957.605        1773.951          39.052           0.255  
I07  23673336.049        -727.825         -18.047           0.255  
> 2019 05 08 04 25 53.9388020  0  6                     
I02  20905867.340         263.011           3.202           0.255  
I03  20626472.632        -946.969         -20.318           0.255  
I04  21950057.453        -374.667          -9.564           0.255  
I05  23740445.815       10582.701         217.729           0.255  
I06  22336954.999        1774.335          38.382           0.255  
I07  23673326.188        -727.966         -14.090           0.255  
> 2019 05 08 04 25 53.9488020  0  6                     
I02  20905867.239         263.062           5.115           0.255  
I03  20626464.381        -947.185         -21.544           0.255  
I04  21950048.258        -374.767         -10.055           0.255  
I05  23740444.599       10584.881         218.078           0.255  
I06  22336953.689        1774.704          36.922           0.255  
I07  23673329.591        -728.125         -15.908           0.255  
> 2019 05 08 04 25 53.9588020  0  6                     
I02  20905867.191         263.093           3.120           0.255  
I03  20626467.256        -947.383         -19.799           0.255  
I04  21950051.029        -374.824          -5.632           0.255  
I05  23740444.211       10587.096         221.418           0.255  
I06  22336952.685        1775.061          35.662           0.255  
I07  23673333.722        -728.314         -18.867           0.255  
> 2019 05 08 04 25 53.9688020  0  6                     
I02  20905867.075         263.142           4.890           0.255  
I03  20626472.137        -947.539         -15.656           0.255  
I04  21950056.213        -374.901          -7.766           0.255  
I05  23740443.817       10589.328         223.265           0.255  
I06  22336952.569        1775.437          37.648           0.255  
I07  23673339.021        -728.492         -17.833           0.255  
> 2019 05 08 04 25 53.9788020  0  6                     
I02  20905867.217         263.234           9.231           0.255  
I03  20626464.269        -947.749         -20.938           0.255  
I04  21950046.462        -374.993          -9.210           0.255  
I05  23740443.006       10591.514         218.561           0.255  
I06  22336953.277        1775.823          38.553           0.255  
I07  23673329.192        -728.660         -16.760           0.255  
> 2019 05 08 04 25 53.9888020  0  6                     
I02  20905868.336         263.322           8.811           0.255  
I03  20626466.655        -947.972         -22.319           0.255  
I04  21950049.168        -375.070          -7.670           0.255  
I05  23740442.133       10593.680         216.661           0.255  
I06  22336952.867        1776.182          35.895           0.255  
I07  23673333.385        -728.811         -15.162           0.255  
> 2019 05 08 04 25 53.9988020  0  6                     
I02  20905869.062         263.341           1.902           0.255  
I03  20626470.748        -948.166         -19.412           0.255  
I04  21950053.779        -375.148          -7.847           0.255  
I05  23740440.611       10595.870         218.967           0.255  
I06  22336950.789        1776.549          36.695           0.255  
I07  23673338.163        -729.045         -23.330           0.255  
> 2019 05 08 04 25 54.0088020  0  6                     
I02  20905870.221         263.367           2.589           0.255  
I03  20626462.665        -948.327         -16.074           0.255  
I04  21950057.464        -375.260         -11.116           0.255  
I05  23740439.328       10598.098         222.782           0.255  
I06  22336949.910        1776.952          40.363           0.255  
I07  23673328.561        -729.233         -18.856           0.255  
> 2019 05 08 04 25 54.0188020  0  6                     
I02  20905870.704         263.457           8.996           0.255  
I03  20626464.974        -948.527         -20.019           0.255  
I04  21950048.137        -375.344          -8.413           0.255  
I05  23740439.239       10600.293         219.539           0.255  
I06  22336949.842        1777.332          37.997           0.255  
I07  23673330.295        -729.338         -10.462           0.255  
> 2019 05 08 04 25 54.0288020  0  6                     
I02  20905870.359         263.557          10.022           0.255  
I03  20626469.544        -948.733         -20.571           0.255  
I04  21950052.167        -375.429          -8.531           0.255  
I05  23740438.028       10602.486         219.284           0.255  
I06  22336950.554        1777.656          32.380           0.255  
I07  23673334.197        -729.544         -20.609           0.255  
> 2019 05 08 04 25 54.0388020  0  6                     
I02  20905869.549         263.957         106.568           0.255  
I03  20626474.641        -948.945         -21.237           0.255  
I04  21950057.804        -376.129         -50.188           0.255  
I05  23740437.637       10604.686         220.014           0.255  
I06  22336951.036        1777.768          12.016           0.255  
I07  23673340.026        -729.784         -24.037           0.255  
> 2019 05 08 04 25 54.0488020  0  6                     
I02  20905868.709         263.613           2.178           0.255  
I03  20626466.537        -949.109         -16.430           0.255  
I04  21950048.571        -375.571          -5.574           0.255  
I05  23740436.795       10606.900         221.384           0.255  
I06  22336952.415        1778.450          41.374           0.255  
I07  23673330.203        -729.948         -16.327           0.255  
> 2019 05 08 04 25 54.0588020  0  6                     
I02  20905866.801         263.686           7.266           0.255  
I03  20626469.629        -949.309         -19.908           0.255  
I04  21950053.120        -375.651          -8.073           0.255  
I05  23740436.399       10609.078         217.787           0.255  
I06  22336953.211        1778.833          38.298           0.255  
I07  23673332.840        -730.032          -8.421           0.255  
> 2019 05 08 04 25 54.0688020  0  6                     
I02  20905866.140         263.768           8.197           0.255  
I03  20626474.848        -949.517         -20.864           0.255  
I04  21950059.288        -375.774         -12.259           0.255  
I05  23740436.030       10611.256         217.793           0.255  
I06  22336954.222        1779.174          34.145           0.255  
I07  23673337.865        -730.147         -11.470           0.255  
> 2019 05 08 04 25 54.0788020  0  6                     
I02  20905865.501         263.829           6.141           0.255  
I03  20626468.633        -949.724         -20.671           0.255  
I04  21950050.573        -375.888         -11.401           0.255  
I05  23740435.696       10613.469         221.339           0.255  
I06  22336953.735        1779.525          35.061           0.255  
I07  23673328.861        -730.379         -23.281           0.255  
> 2019 05 08 04 25 54.0888020  0  6                     
I02  20905864.775         263.899           7.008           0.255  
I03  20626472.243        -949.899         -17.469           0.255  
I04  21950055.604        -375.948          -6.005           0.255  
I05  23740434.425       10615.687         221.742           0.255  
I06  22336952.579        1780.363          74.451           0.255  
I07  23673332.089        -730.675         -29.534           0.255  
> 2019 05 08 04 25 54.0988020  0  6                     
I02  20905865.127         263.930           3.077           0.255  
I03  20626464.289        -950.076         -17.755           0.255  
I04  21950046.028        -375.992          -4.413           0.255  
I05  23740434.809       10617.876         218.897           0.255  
I06  22336953.808        1780.292          38.943           0.255  
I07  23673337.003        -730.892         -21.760           0.255  
> 2019 05 08 04 25 54.1088020  0  6                     
I02  20905864.609         263.975           4.551           0.255  
I03  20626467.810        -950.291         -21.449           0.255  
I04  21950049.710        -376.049          -5.742           0.255  
I05  23740434.360       10620.059         218.305           0.255  
I06  22336954.021        1780.675          38.331           0.255  
I07  23673327.540        -730.977          -8.463           0.255  
> 2019 05 08 04 25 54.1188020  0  6                     
I02  20905864.546         264.011           3.583           0.255  
I03  20626473.261        -950.514         -22.347           0.255  
I04  21950055.590        -375.596          69.891           0.255  
I05  23740433.691       10622.246         218.741           0.255  
I06  22336954.147        1781.045          36.955           0.255  
I07  23673330.744        -731.074          -9.729           0.255  
> 2019 05 08 04 25 54.1288020  0  6                     
I02  20905864.071         264.122          11.109           0.255  
I03  20626465.468        -950.695         -18.112           0.255  
I04  21950046.239        -376.326         -14.367           0.255  
I05  23740433.283       10624.464         221.751           0.255  
I06  22336953.811        1781.428          38.333           0.255  
I07  23673336.921        -731.258         -18.377           0.255  
> 2019 05 08 04 25 54.1388020  0  6                     
I02  20905864.995         264.206           8.419           0.255  
I03  20626468.866        -950.855         -15.948           0.255  
I04  21950048.474        -376.387          -6.032           0.255  
I05  23740432.753       10626.682         221.859           0.255  
I06  22336953.288        1781.797          36.903           0.255  
I07  23673326.897        -731.470         -21.163           0.255  
> 2019 05 08 04 25 54.1488020  0  6                     
I02  20905865.159         264.237           3.062           0.255  
I03  20626473.086        -951.066         -21.125           0.255  
I04  21950054.097        -376.401          -1.486           0.255  
I05  23740432.260       10628.875         219.241           0.255  
I06  22336952.832        1782.155          35.754           0.255  
I07  23673330.900        -731.666         -19.592           0.255  
> 2019 05 08 04 25 54.1588020  0  6                     
I02  20905864.805         264.249           1.225           0.255  
I03  20626465.677        -951.292         -22.581           0.255  
I04  21950045.011        -376.493          -9.147           0.255  
I05  23740431.904       10631.056         218.091           0.255  
I06  22336951.963        1782.528          37.286           0.255  
I07  23673336.506        -731.840         -17.393           0.255  
> 2019 05 08 04 25 54.1688020  0  6                     
I02  20905864.380         264.364          11.438           0.255  
I03  20626468.769        -951.479         -18.676           0.255  
I04  21950047.224        -376.584          -9.082           0.255  
I05  23740431.704       10633.267         221.186           0.255  
I06  22336951.790        1782.915          38.709           0.255  
I07  23673325.827        -731.978         -13.846           0.255  
> 2019 05 08 04 25 54.1788020  0  6                     
I02  20905865.122         264.432           6.840           0.255  
I03  20626473.992        -951.634         -15.581           0.255  
I04  21950053.039        -376.686         -10.239           0.255  
I05  23740431.141       10635.476         220.872           0.255  
I06  22336949.171        1783.299          38.453           0.255  
I07  23673328.151        -732.121         -14.316           0.255  
> 2019 05 08 04 25 54.1888020  0  6                     
I02  20905865.097         264.471           3.934           0.255  
I03  20626467.510        -951.825         -19.096           0.255  
I04  21950058.811        -376.765          -7.940           0.255  
I05  23740430.226       10637.670         219.397           0.255  
I06  22336948.424        1783.658          35.912           0.255  
I07  23673332.760        -732.321         -19.968           0.255  
> 2019 05 08 04 25 54.1988020  0  6                     
I02  20905864.933         264.474           0.293           0.255  
I03  20626471.385        -952.044         -21.857           0.255  
I04  21950049.329        -376.848          -8.255           0.255  
I05  23740429.432       10639.845         217.450           0.255  
I06  22336948.025        1783.561           3.019           0.255  
I07  23673336.569        -732.558         -23.753           0.255  
> 2019 05 08 04 25 54.2088020  0  6                     
I02  20905864.816         264.546           7.176           0.255  
I03  20626463.701        -952.252         -20.836           0.255  
I04  21950052.813        -376.903          -5.534           0.255  
I05  23740428.353       10642.071         222.616           0.255  
I06  22336949.062        1784.425          40.150           0.255  
I07  23673326.249        -732.678         -11.961           0.255  
> 2019 05 08 04 25 54.2188020  0  6                     
I02  20905864.279         264.688          14.227           0.255  
I03  20626467.651        -952.432         -18.002           0.255  
I04  21950056.942        -376.997          -9.348           0.255  
I05  23740427.621       10644.286         221.518           0.255  
I06  22336948.876        1784.817          39.170           0.255  
I07  23673329.065        -732.807         -12.937           0.255  
> 2019 05 08 04 25 54.2288020  0  6                     
I02  20905864.089         264.761           7.255           0.255  
I03  20626472.384        -952.618         -18.602           0.255  
I04  21950047.464        -377.098         -10.126           0.255  
I05  23740427.111       10646.472         218.555           0.255  
I06  22336949.718        1785.159          34.247           0.255  
I07  23673334.372        -732.986         -17.852           0.255  
> 2019 05 08 04 25 54.2388020  0  6                     
I02  20905863.452         264.741          -2.039           0.255  
I03  20626464.487        -952.807         -18.877           0.255  
I04  21950052.013        -377.194          -9.588           0.255  
I05  23740427.031       10648.632         216.013           0.255  
I06  22336949.600        1785.512          35.321           0.255  
I07  23673338.164        -733.227         -24.086           0.255  
> 2019 05 08 04 25 54.2488020  0  6                     
I02  20905864.395         264.767           2.662           0.255  
I03  20626467.133        -953.002         -19.489           0.255  
I04  21950057.282        -377.253          -5.908           0.255  
I05  23740426.077       10650.829         219.710           0.255  
I06  22336950.010        1785.899          38.702           0.255  
I07  23673328.235        -733.449         -22.180           0.255  
> 2019 05 08 04 25 54.2588020  0  6                     
I02  20905864.453         264.859           9.216           0.255  
I03  20626471.779        -953.204         -20.169           0.255  
I04  21950047.536        -377.308          -5.452           0.255  
I05  23740426.139       10653.072         224.338           0.255  
I06  22336951.433        1786.298          39.907           0.255  
I07  23673331.748        -733.527          -7.862           0.255  
> 2019 05 08 04 25 54.2688020  0  6                     
I02  20905863.782         264.979          11.940           0.255  
I03  20626464.344        -953.419         -21.499           0.255  
I04  21950052.351        -377.435         -12.753           0.255  
I05  23740425.328       10655.290         221.806           0.255  
I06  22336950.855        1786.687          38.830           0.255  
I07  23673336.924        -733.609          -8.212           0.255  
> 2019 05 08 04 25 54.2788020  0  6                     
I02  20905864.592         265.035           5.625           0.255  
I03  20626467.471        -953.607         -18.873           0.255  
I04  21950057.768        -377.573         -13.804           0.255  
I05  23740425.153       10657.463         217.263           0.255  
I06  22336950.115        1787.031          34.404           0.255  
I07  23673326.238        -733.844         -23.447           0.255  
> 2019 05 08 04 25 54.2888020  0  6                     
I02  20905865.452         265.058           2.283           0.255  
I03  20626472.034        -953.779         -17.181           0.255  
I04  21950048.136        -377.631          -5.732           0.255  
I05  23740424.356       10659.642         217.929           0.255  
I06  22336950.271        1787.389          35.795           0.255  
I07  23673331.866        -734.179         -33.538           0.255  
> 2019 05 08 04 25 54.2988020  0  6                     
I02  20905865.166         265.126           6.851           0.255  
I03  20626463.748        -953.956         -17.658           0.255  
I04  21950051.479        -377.653          -2.237           0.255  
I05  23740423.936       10661.852         220.960           0.255  
I06  22336950.459        1787.783          39.397           0.255  
I07  23673336.251        -734.295         -11.550           0.255  
> 2019 05 08 04 25 54.3088020  0  6                     
I02  20905864.853         265.176           4.948           0.255  
I03  20626467.426        -954.153         -19.766           0.255  
I04  21950056.216        -377.704          -5.120           0.255  
I05  23740424.032       10664.083         223.138           0.255  
I06  22336949.129        1788.173          39.083           0.255  
I07  23673325.864        -734.411         -11.617           0.255  
> 2019 05 08 04 25 54.3188020  0  6                     
I02  20905864.952         265.226           5.000           0.255  
I03  20626472.348        -954.385         -23.170           0.255  
I04  21950046.817        -378.620          -2.064           0.255  
I05  23740424.449       10666.280         219.694           0.255  
I06  22336949.060        1787.624         -20.828           0.255  
I07  23673328.673        -734.602         -19.165           0.255  
> 2019 05 08 04 25 54.3288020  0  6                     
I02  20905865.069         265.291           6.516           0.255  
I03  20626465.194        -954.579         -19.370           0.255  
I04  21950052.496        -377.956         -15.500           0.255  
I05  23740424.196       10668.451         217.121           0.255  
I06  22336949.536        1788.928          37.551           0.255  
I07  23673334.350        -734.821         -21.813           0.255  
> 2019 05 08 04 25 54.3388020  0  6                     
I02  20905865.899         265.356           6.525           0.255  
I03  20626468.317        -954.745         -16.625           0.255  
I04  21950059.022        -378.097         -14.158           0.255  
I05  23740423.408       10670.640         218.864           0.255  
I06  22336949.965        1789.274          34.631           0.255  
I07  23673339.138        -735.000         -17.986           0.255  
> 2019 05 08 04 25 54.3488020  0  6                     
I02  20905865.492         265.405           4.911           0.255  
I03  20626472.897        -954.952         -20.676           0.255  
I04  21950049.571        -378.199         -10.204           0.255  
I05  23740422.727       10672.801         216.078           0.255  
I06  22336951.690        1789.624          35.034           0.255  
I07  23673328.717        -735.184         -18.330           0.255  
> 2019 05 08 04 25 54.3588020  0  6                     
I02  20905865.188         265.439           3.323           0.255  
I03  20626466.334        -955.198         -24.575           0.255  
I04  21950052.300        -378.219          -1.988           0.255  
I05  23740422.653       10674.993         219.237           0.255  
I06  22336951.874        1789.993          36.892           0.255  
I07  23673331.503        -735.371         -18.773           0.255  
> 2019 05 08 04 25 54.3688020  0  6                     
I02  20905866.034         265.496           5.739           0.255  
I03  20626469.393        -955.419         -22.149           0.255  
I04  21950055.516        -378.255          -3.599           0.255  
I05  23740422.125       10677.198         220.452           0.255  
I06  22336950.723        1790.385          39.169           0.255  
I07  23673336.866        -735.460          -8.831           0.255  
> 2019 05 08 04 25 54.3788020  0  6                     
I02  20905866.954         265.540           4.407           0.255  
I03  20626474.233        -955.560         -14.141           0.255  
I04  21950046.567        -378.328          -7.310           0.255  
I05  23740421.081       10679.437         223.972           0.255  
I06  22336949.475        1790.781          39.626           0.255  
I07  23673327.352        -735.642         -18.193           0.255  
> 2019 05 08 04 25 54.3888020  0  6                     
I02  20905867.170         265.606           6.637           0.255  
I03  20626467.492        -955.733         -17.209           0.255  
I04  21950051.183        -378.453         -12.479           0.255  
I05  23740420.375       10681.647         221.013           0.255  
I06  22336950.540        1791.138          35.670           0.255  
I07  23673329.595        -735.847         -20.556           0.255  
> 2019 05 08 04 25 54.3988020  0  6                     
I02  20905866.428         265.318         -69.447           0.255  
I03  20626470.558        -955.965         -23.255           0.255  
I04  21950057.674        -377.671         162.113           0.255  
I05  23740420.230       10683.816         216.880           0.255  
I06  22336951.003        1791.464          32.586           0.255  
I07  23673334.226        -736.072         -22.458           0.255  
