     3.03           OBSERVATION DATA    M: Mixed            RINEX VERSION / TYPE
GNSS-SDRLIB v1.1                        20230710 134433 UTC PGM / RUN BY / DATE 
                                                            MARKER NAME         
                                                            MARKER NUMBER       
                                                            MARKER TYPE         
                                                            OBSERVER / AGENCY   
GNSS-SDRLIB         GNSS-SDRLIB         1.1                 REC # / TYPE / VERS 
                                                            ANT # / TYPE        
        0.0000        0.0000        0.0000                  APPROX POSITION XYZ 
        0.0000        0.0000        0.0000                  ANTENNA: DELTA H/E/N
G    4 C1C L1C D1C S1C                                      SYS / # / OBS TYPES 
R    4 C1C L1C D1C S1C                                      SYS / # / OBS TYPES 
E    4 C1C L1C D1C S1C                                      SYS / # / OBS TYPES 
J    4 C1C L1C D1C S1C                                      SYS / # / OBS TYPES 
S    4 C1C L1C D1C S1C                                      SYS / # / OBS TYPES 
C    4 C1C L1C D1C S1C                                      SYS / # / OBS TYPES 
I    4 C1C L1C D1C S1C                                      SYS / # / OBS TYPES 
  1970    01    01    00    00   00.0000000     GPS         TIME OF FIRST OBS   
  1970    01    01    00    00   00.0000000     GPS         TIME OF LAST OBS    
G L1C                                                       SYS / PHASE SHIFT   
R L1C                                                       SYS / PHASE SHIFT   
E L1C  0.00000                                              SYS / PHASE SHIFT   
J L1C                                                       SYS / PHASE SHIFT   
S L1C                                                       SYS / PHASE SHIFT   
C L1C  0.00000                                              SYS / PHASE SHIFT   
I L1C  0.00000                                              SYS / PHASE SHIFT   
  0                                                         GLONASS SLOT / FRQ #
 C1C    0.000 C1P    0.000 C2C    0.000 C2P    0.000        GLONASS COD/PHS/BIS 
                                                            END OF HEADER       
> 2023 05 18 00 00 36.0688020  0  1                     
G06  20635712.477      -66390.168       -3039.277           0.181  
> 2023 05 18 00 00 36.0688020  0  2                     
G03  22283565.644      -73676.212       -3085.625           0.169  
G06  20635712.477      -66390.168       -3039.277           0.181  
> 2023 05 18 00 00 36.0688020  0  3                     
G03  22283565.644      -73676.212       -3085.625           0.169  
G06  20635712.477      -66390.168       -3039.277           0.181  
G09  23014918.171      -85141.063       -4105.929           0.158  
> 2023 05 18 00 00 36.0688020  0  7                     
G02  24437331.990        8025.968         278.225           0.147  
G03  22283565.644      -73676.212       -3085.625           0.169  
G04  23769375.225      -98819.206       -4802.161           0.152  
G05  22541506.585      -14317.422        -642.216           0.164  
G06  20635712.477      -66390.168       -3039.277           0.181  
G07  23539001.273      -87070.468       -4015.393           0.154  
G09  23014918.171      -85141.063       -4105.929           0.158  
> 2023 05 18 00 00 36.1688020  0  7                     
G02  24437330.419        8053.398         266.192           0.145  
G03  22283642.750      -73985.239       -3095.256           0.169  
G04  23769495.349      -99299.877       -4811.738           0.150  
G05  22541525.146      -14382.042        -652.163           0.164  
G06  20635786.897      -66694.619       -3049.299           0.182  
G07  23539105.771      -87472.474       -4028.482           0.154  
G09  23015025.888      -85551.664       -4112.014           0.157  
> 2023 05 18 00 00 36.2688020  0  7                     
G02  24437317.739        8081.022         277.334           0.147  
G03  22283721.984      -74294.170       -3085.743           0.170  
G04  23769616.352      -99780.540       -4803.845           0.154  
G05  22541542.028      -14446.645        -643.959           0.166  
G06  20635866.146      -66998.934       -3040.919           0.182  
G07  23539206.994      -87874.410       -4016.431           0.153  
G09  23015130.747      -85962.185       -4098.177           0.159  
> 2023 05 18 00 00 36.3688020  0  7                     
G02  24437318.172        8109.019         283.909           0.148  
G03  22283800.508      -74602.721       -3084.895           0.169  
G04  23769738.232     -100260.780       -4804.985           0.152  
G05  22541551.933      -14510.207        -541.965           0.166  
G06  20635944.469      -67302.883       -3038.300           0.183  
G07  23539307.980      -88276.556       -4148.430           0.157  
G09  23015235.498      -86372.291       -4097.003           0.158  
> 2023 05 18 00 00 36.4688020  0  7                     
G02  24437304.661        8136.958         280.133           0.146  
G03  22283876.627      -74911.273       -3086.545           0.170  
G04  23769859.036     -100741.020       -4802.078           0.152  
G05  22541570.073      -14574.992        -643.249           0.168  
G06  20636023.884      -67606.852       -3040.251           0.183  
G07  23539411.719      -88677.490       -4016.844           0.156  
G09  23015338.002      -86782.490       -4101.397           0.160  
> 2023 05 18 00 00 36.5688020  0  7                     
G02  24437290.299        8165.054         282.896           0.147  
G03  22283958.697      -75219.685       -3081.330           0.170  
G04  23769982.492     -101221.202       -4800.932           0.152  
G05  22541589.388      -14639.068        -638.701           0.165  
G06  20636099.239      -67910.706       -3039.032           0.182  
G07  23539513.596      -89078.894       -4012.022           0.154  
G09  23015439.265      -87192.510       -4101.424           0.159  
> 2023 05 18 00 00 36.6688020  0  7                     
G02  24437283.254        8192.980         278.723           0.145  
G03  22284036.844      -75528.288       -3087.731           0.167  
G04  23770106.874     -101701.460       -4799.107           0.150  
G05  22541607.473      -14703.294        -644.173           0.165  
G06  20636173.670      -68214.671       -3040.654           0.180  
G07  23539614.586      -89480.456       -4013.577           0.152  
G09  23015545.607      -87602.703       -4104.333           0.157  
> 2023 05 18 00 00 36.7688020  0  7                     
G02  24437275.649        8220.968         284.380           0.144  
G03  22284111.982      -75838.199       -3122.898           0.167  
G04  23770225.042     -102181.673       -4798.723           0.150  
G05  22541621.440      -14766.811        -598.349           0.163  
G06  20636254.148      -68518.644       -3037.304           0.180  
G07  23539715.612      -89882.064       -4016.169           0.152  
G09  23015650.514      -88012.793       -4101.705           0.156  
> 2023 05 18 00 00 36.8688020  0  7                     
G02  24437276.420        8249.135         283.126           0.142  
G03  22284189.171      -76145.258       -3083.795           0.166  
G04  23770355.801     -102661.818       -4799.680           0.148  
G05  22541638.777      -14831.484        -643.246           0.164  
G06  20636328.275      -68822.402       -3035.021           0.179  
G07  23539818.678      -90283.473       -4017.521           0.152  
G09  23015756.496      -88422.795       -4100.522           0.155  
> 2023 05 18 00 00 36.9688020  0  7                     
G02  24437259.569        8276.981         278.374           0.145  
G03  22284272.615      -76453.935       -3087.282           0.166  
G04  23770475.188     -103142.178       -4807.737           0.147  
G05  22541654.929      -14895.772        -641.990           0.162  
G06  20636406.374      -69126.475       -3036.641           0.178  
G07  23539917.950      -90685.106       -4017.060           0.150  
G09  23015858.802      -88833.034       -4103.903           0.155  
> 2023 05 18 00 00 37.0688020  0  7                     
G02  24437258.894        8304.882         276.379           0.141  
G03  22284348.200      -76762.574       -3086.182           0.166  
G04  23770592.275     -103622.474       -4807.297           0.148  
G05  22541667.419      -14960.038        -641.667           0.162  
G06  20636480.914      -69430.535       -3041.763           0.179  
G07  23540022.393      -91086.688       -4019.484           0.150  
G09  23015958.852      -89243.238       -4107.122           0.155  
> 2023 05 18 00 00 37.1688020  0  7                     
G02  24437255.222        8332.231         268.712           0.140  
G03  22284422.724      -77071.739       -3096.987           0.164  
G04  23770719.002     -104103.326       -4814.633           0.148  
G05  22541683.091      -15024.844        -653.195           0.162  
G06  20636563.236      -69735.100       -3050.554           0.178  
G07  23540123.249      -91488.901       -4025.985           0.150  
G09  23016066.550      -89653.961       -4111.252           0.154  
> 2023 05 18 00 00 37.2688020  0  7                     
G02  24437246.441        8359.213         272.366           0.142  
G03  22284502.045      -77381.284       -3089.982           0.164  
G04  23770848.814     -104584.524       -4805.146           0.148  
G05  22541701.693      -15090.020        -648.073           0.163  
G06  20636639.472      -70040.076       -3047.939           0.179  
G07  23540231.473      -91891.435       -4018.633           0.152  
G09  23016174.760      -90065.106       -4106.542           0.154  
> 2023 05 18 00 00 37.3688020  0  7                     
G02  24437237.009        8386.843         274.516           0.145  
G03  22284582.575      -77690.325       -3088.496           0.165  
G04  23770964.230     -105065.188       -4804.654           0.148  
G05  22541718.251      -15154.569        -642.985           0.164  
G06  20636719.466      -70344.434       -3041.836           0.179  
G07  23540330.524      -92293.454       -4021.852           0.151  
G09  23016274.183      -90475.640       -4105.146           0.157  
> 2023 05 18 00 00 37.4688020  0  7                     
G02  24437235.983        8414.774         279.915           0.146  
G03  22284665.552      -77998.941       -3088.114           0.168  
G04  23771093.032     -105545.460       -4807.735           0.149  
G05  22541731.939      -15218.835        -643.706           0.165  
G06  20636794.347      -70648.440       -3040.855           0.181  
G07  23540436.520      -92695.006       -4015.809           0.154  
G09  23016379.338      -90885.834       -4102.322           0.158  
> 2023 05 18 00 00 37.5688020  0  7                     
G02  24437233.548        8442.922         280.216           0.145  
G03  22284748.412      -78307.025       -2914.896           0.168  
G04  23771203.262     -106025.532       -4800.925           0.149  
G05  22541750.755      -15283.162        -593.867           0.164  
G06  20636868.608      -70952.286       -3037.820           0.181  
G07  23540533.174      -93098.045       -4301.470           0.153  
G09  23016486.916      -91295.575       -3922.074           0.158  
> 2023 05 18 00 00 37.6688020  0  7                     
G02  24437225.874        8471.021         279.352           0.140  
G03  22284820.906      -78615.824       -3085.416           0.166  
G04  23771327.008     -106505.672       -4801.931           0.150  
G05  22541763.392      -15346.955        -642.734           0.162  
G06  20636946.533      -71256.127       -3039.578           0.179  
G07  23540640.082      -93497.927       -4016.553           0.151  
G09  23016590.801      -91705.820       -4102.230           0.157  
> 2023 05 18 00 00 37.7688020  0  7                     
G02  24437213.704        8498.936         281.548           0.144  
G03  22284898.967      -78924.496       -3084.254           0.166  
G04  23771455.747     -106986.007       -4801.479           0.148  
G05  22541776.997      -15411.279        -641.495           0.162  
G06  20637027.242      -71560.235       -3041.293           0.179  
G07  23540732.707      -93899.573       -4020.065           0.151  
G09  23016692.669      -92116.064       -4098.273           0.156  
> 2023 05 18 00 00 37.8688020  0  7                     
G02  24437205.374        8527.054         281.036           0.141  
G03  22284972.153      -79232.939       -3116.788           0.167  
G04  23771576.779     -107466.157       -4798.409           0.149  
G05  22541795.788      -15474.126        -587.680           0.163  
G06  20637102.577      -71864.143       -3038.791           0.179  
G07  23540836.753      -94301.644       -4144.895           0.152  
G09  23016796.438      -92526.021       -4168.489           0.154  
> 2023 05 18 00 00 37.9688020  0  7                     
G02  24437194.016        8555.000         280.459           0.142  
G03  22285058.554      -79541.621       -3085.953           0.166  
G04  23771700.355     -107946.416       -4802.424           0.147  
G05  22541815.051      -15539.515        -644.507           0.161  
G06  20637181.705      -72168.056       -3038.824           0.177  
G07  23540944.084      -94702.582       -4016.630           0.149  
G09  23016900.413      -92936.227       -4103.134           0.156  
> 2023 05 18 00 00 38.0688020  0  7                     
G02  24437188.691        8583.040         277.339           0.144  
G03  22285135.013      -79850.204       -3089.010           0.165  
G04  23771820.400     -108426.614       -4806.165           0.147  
G05  22541828.100      -15603.656        -639.864           0.163  
G06  20637257.584      -72472.029       -3040.029           0.179  
G07  23541048.366      -95104.119       -4013.619           0.154  
G09  23017001.855      -93346.290       -4098.132           0.157  
> 2023 05 18 00 00 38.1688020  0  7                     
G02  24437178.659        8611.142         281.523           0.144  
G03  22285212.919      -80158.687       -3083.307           0.165  
G04  23771938.014     -108906.766       -4806.414           0.149  
G05  22541841.407      -15667.841        -643.524           0.163  
G06  20637334.141      -72775.922       -3037.875           0.179  
G07  23541142.295      -95505.641       -4014.103           0.152  
G09  23017106.354      -93756.381       -4102.061           0.158  
> 2023 05 18 00 00 38.2688020  0  7                     
G02  24437175.983        8639.247         283.855           0.142  
G03  22285287.961      -80467.174       -3084.570           0.166  
G04  23772063.660     -109386.835       -4803.630           0.147  
G05  22541861.074      -15731.901        -641.742           0.163  
G06  20637409.922      -73079.781       -3037.589           0.179  
G07  23541251.719      -95906.775       -4084.714           0.152  
G09  23017210.507      -94166.355       -4099.874           0.155  
> 2023 05 18 00 00 38.3688020  0  7                     
G02  24437169.536        8667.394         284.762           0.144  
G03  22285366.232      -80775.621       -3083.479           0.166  
G04  23772186.240     -109866.913       -4799.236           0.148  
G05  22541879.029      -15795.942        -642.849           0.163  
G06  20637491.017      -73383.615       -3036.414           0.178  
G07  23541355.680      -96308.492       -4014.836           0.150  
G09  23017314.895      -94576.327       -4098.626           0.156  
> 2023 05 18 00 00 38.4688020  0  7                     
G02  24437157.540        8695.588         281.199           0.146  
G03  22285444.425      -81084.069       -3083.108           0.168  
G04  23772305.320     -110346.943       -4800.881           0.151  
G05  22541896.028      -15859.909        -640.098           0.163  
G06  20637568.606      -73687.403       -3035.851           0.182  
G07  23541457.091      -96709.865       -4010.237           0.153  
G09  23017424.693      -94986.229       -4097.841           0.158  
> 2023 05 18 00 00 38.5688020  0  7                     
G02  24437154.484        8723.596         279.994           0.144  
G03  22285527.280      -81392.733       -3085.949           0.168  
G04  23772428.577     -110827.223       -4802.926           0.149  
G05  22541911.280      -15924.167        -643.152           0.164  
G06  20637642.683      -73991.473       -3040.192           0.182  
G07  23541558.296      -97111.507       -4015.245           0.155  
G09  23017528.061      -95396.456       -4105.145           0.160  
> 2023 05 18 00 00 38.6688020  0  7                     
G02  24437145.640        8751.480         282.515           0.144  
G03  22285606.599      -81701.414       -3085.047           0.169  
G04  23772550.700     -111307.562       -4803.934           0.151  
G05  22541928.996      -15988.471        -643.826           0.165  
G06  20637722.845      -74295.550       -3040.541           0.182  
G07  23541657.074      -97513.163       -4012.100           0.155  
G09  23017629.303      -95806.644       -4102.623           0.161  
> 2023 05 18 00 00 38.7688020  0  7                     
G02  24437135.274        8779.461         282.634           0.146  
G03  22285683.556      -82010.929       -3204.189           0.169  
G04  23772677.576     -111787.770       -4801.866           0.151  
G05  22541944.854      -16052.700        -644.435           0.166  
G06  20637798.136      -74599.575       -3042.798           0.182  
G07  23541756.051      -97914.747       -4012.719           0.153  
G09  23017735.565      -96215.707       -3947.888           0.158  
> 2023 05 18 00 00 38.8688020  0  7                     
G02  24437124.645        8807.587         278.580           0.145  
G03  22285763.649      -82318.539       -3083.193           0.168  
G04  23772793.737     -112267.856       -4798.992           0.151  
G05  22541957.385      -16116.772        -640.876           0.165  
G06  20637878.367      -74903.413       -3037.164           0.181  
G07  23541851.871      -98316.153       -4008.586           0.153  
G09  23017841.081      -96626.744       -4099.021           0.156  
> 2023 05 18 00 00 38.9688020  0  7                     
G02  24437126.903        8835.740         282.707           0.145  
G03  22285837.416      -82627.098       -3085.701           0.168  
G04  23772917.395     -112748.021       -4803.000           0.148  
G05  22541975.615      -16180.876        -640.697           0.165  
G06  20637952.277      -75207.331       -3037.123           0.181  
G07  23541962.253      -98717.682       -4011.329           0.153  
G09  23017941.216      -97036.811       -4099.924           0.157  
> 2023 05 18 00 00 39.0688020  0  7                     
G02  24437118.334        8863.761         283.488           0.143  
G03  22285920.859      -82935.685       -3085.312           0.167  
G04  23773044.702     -113228.231       -4805.570           0.149  
G05  22541990.771      -16244.988        -640.637           0.164  
G06  20638030.999      -75511.251       -3036.425           0.181  
G07  23542068.373      -99119.206       -4011.514           0.152  
G09  23018042.892      -97446.878       -4100.080           0.158  
> 2023 05 18 00 00 39.1688020  0  7                     
G02  24437106.662        8891.788         282.015           0.145  
G03  22285998.958      -83244.288       -3084.531           0.168  
G04  23773162.692     -113708.415       -4802.931           0.150  
G05  22542007.042      -16309.206        -643.439           0.164  
G06  20638103.383      -75815.278       -3039.693           0.182  
G07  23542164.196      -99520.803       -4014.287           0.154  
G09  23018153.963      -97856.980       -4099.338           0.156  
> 2023 05 18 00 00 39.2688020  0  7                     
G02  24437093.755        8919.714         279.585           0.147  
G03  22286075.709      -83553.019       -3088.121           0.168  
G04  23773278.155     -114188.734       -4805.419           0.153  
G05  22542022.719      -16373.466        -643.225           0.167  
G06  20638181.654      -76119.373       -3044.407           0.182  
G07  23542262.230      -99922.481       -4021.038           0.153  
G09  23018257.652      -98267.196       -4103.810           0.159  
> 2023 05 18 00 00 39.3688020  0  7                     
G02  24437095.132        8947.380         265.897           0.144  
G03  22286153.680      -83861.960       -3090.119           0.168  
G04  23773401.409     -114669.256       -4805.558           0.150  
G05  22542045.178      -16438.010        -645.745           0.166  
G06  20638259.186      -76423.671       -3042.260           0.182  
G07  23542367.212     -100324.365       -4020.904           0.154  
G09  23018362.464      -98677.631       -4108.451           0.160  
> 2023 05 18 00 00 39.4688020  0  7                     
G02  24437086.593        8975.060         274.151           0.146  
G03  22286232.782      -84170.996       -3091.868           0.169  
G04  23773534.467     -115149.893       -4804.716           0.150  
G05  22542054.114      -16502.602        -647.022           0.164  
G06  20638339.541      -76728.084       -3041.948           0.182  
G07  23542469.025     -100726.378       -4022.717           0.154  
G09  23018470.955      -99088.149       -4107.290           0.157  
> 2023 05 18 00 00 39.5688020  0  7                     
G02  24437077.028        9002.699         273.105           0.141  
G03  22286313.509      -84480.044       -3090.607           0.168  
G04  23773653.358     -115630.494       -4803.081           0.150  
G05  22542070.793      -16567.182        -644.376           0.164  
G06  20638415.786      -77032.505       -3043.650           0.181  
G07  23542581.580     -101128.329       -4018.791           0.155  
G09  23018570.594      -99498.675       -4105.570           0.157  
> 2023 05 18 00 00 39.6688020  0  7                     
G02  24437072.574        9030.311         276.940           0.144  
G03  22286385.722      -84789.114       -3092.856           0.170  
G04  23773769.480     -116111.136       -4801.003           0.150  
G05  22542090.537      -16631.840        -646.531           0.164  
G06  20638493.542      -77336.939       -3044.364           0.182  
G07  23542683.284     -101530.308       -4016.816           0.154  
G09  23018672.977      -99909.179       -4103.866           0.156  
> 2023 05 18 00 00 39.7688020  0  7                     
G02  24437061.712        9057.954         275.905           0.147  
G03  22286466.325      -85098.123       -3093.183           0.170  
G04  23773897.683     -116591.733       -4802.434           0.152  
G05  22542110.626      -16696.372        -644.237           0.166  
G06  20638571.552      -77641.299       -3043.746           0.184  
G07  23542782.179     -101932.259       -4016.547           0.154  
G09  23018780.003     -100319.648       -4102.294           0.159  
> 2023 05 18 00 00 39.8688020  0  7                     
G02  24437062.056        9085.748         277.614           0.148  
G03  22286547.614      -85407.014       -3089.386           0.170  
G04  23774014.723     -117072.254       -4800.763           0.152  
G05  22542126.120      -16760.839        -645.836           0.166  
G06  20638646.705      -77945.584       -3041.605           0.184  
G07  23542888.354     -102334.117       -4013.947           0.155  
G09  23018890.366     -100730.060       -4102.362           0.160  
> 2023 05 18 00 00 39.9688020  0  7                     
G02  24437059.212        9113.769         279.721           0.148  
G03  22286628.445      -85715.667       -3108.536           0.170  
G04  23774138.785     -117552.418       -4801.334           0.153  
G05  22542134.692      -16824.046        -447.342           0.167  
G06  20638722.990      -78249.533       -3038.939           0.184  
G07  23542988.985     -102735.496       -3879.950           0.155  
G09  23018991.789     -101140.373       -4184.260           0.160  
> 2023 05 18 00 00 40.0688020  0  7                     
G02  24437044.280        9142.100         283.022           0.144  
G03  22286705.367      -86024.016       -3082.575           0.172  
G04  23774263.999     -118032.347       -4800.268           0.154  
G05  22542153.372      -16888.901        -637.938           0.169  
G06  20638802.755      -78553.261       -3037.480           0.185  
G07  23543089.799     -103136.923       -4009.636           0.157  
G09  23019092.629     -101549.968       -4100.129           0.159  
> 2023 05 18 00 00 40.1688020  0  7                     
G02  24437038.023        9170.369         283.241           0.148  
G03  22286783.388      -86332.433       -3083.384           0.172  
G04  23774382.440     -118512.336       -4800.101           0.153  
G05  22542169.279      -16952.928        -640.809           0.170  
G06  20638880.061      -78857.072       -3036.832           0.185  
G07  23543190.187     -103538.350       -4013.950           0.158  
G09  23019190.509     -101959.881       -4101.145           0.164  
> 2023 05 18 00 00 40.2688020  0  7                     
G02  24437029.159        9198.580         281.216           0.151  
G03  22286863.090      -86640.913       -3083.757           0.173  
G04  23774509.780     -118992.370       -4798.273           0.156  
G05  22542185.870      -17016.956        -637.315           0.169  
G06  20638957.077      -79160.920       -3037.984           0.186  
G07  23543293.077     -103939.774       -4016.524           0.159  
G09  23019296.072     -102369.790       -4098.676           0.161  
> 2023 05 18 00 00 40.3688020  0  7                     
G02  24437021.975        9226.874         277.630           0.150  
G03  22286943.567      -86949.311       -3085.656           0.173  
G04  23774633.890     -119472.302       -4795.744           0.154  
G05  22542200.257      -17080.909        -645.414           0.170  
G06  20639036.722      -79464.639       -3036.369           0.186  
G07  23543395.488     -104341.074       -4015.316           0.157  
G09  23019404.338     -102779.624       -4102.497           0.163  
> 2023 05 18 00 00 40.4688020  0  7                     
G02  24437011.186        9255.153         274.806           0.150  
G03  22287019.011      -87257.733       -3081.566           0.171  
G04  23774748.756     -119952.312       -4799.804           0.156  
G05  22542215.711      -17144.851        -639.579           0.170  
G06  20639110.879      -79768.453       -3038.025           0.185  
G07  23543494.120     -104742.421       -4011.041           0.160  
G09  23019509.804     -103189.475       -4099.809           0.162  
> 2023 05 18 00 00 40.5688020  0  7                     
G02  24437009.980        9283.406         282.945           0.150  
G03  22287095.948      -87566.248       -3085.461           0.171  
G04  23774875.867     -120432.337       -4803.463           0.154  
G05  22542234.134      -17208.859        -642.073           0.168  
G06  20639188.673      -80072.313       -3040.216           0.185  
G07  23543597.851     -105143.900       -4019.755           0.158  
G09  23019615.360     -103599.408       -4099.711           0.162  
> 2023 05 18 00 00 40.6688020  0  7                     
G02  24437003.411        9311.617         282.502           0.150  
G03  22287172.805      -87874.751       -3085.242           0.172  
G04  23774998.712     -120912.401       -4800.868           0.155  
G05  22542252.166      -17272.939        -645.021           0.167  
G06  20639264.971      -80376.159       -3037.308           0.185  
G07  23543699.239     -105544.978       -3956.966           0.159  
G09  23019717.916     -104009.375       -4104.117           0.162  
> 2023 05 18 00 00 40.7688020  0  7                     
G02  24436992.868        9339.911         284.854           0.149  
G03  22287252.571      -88183.216       -3086.598           0.171  
G04  23775119.916     -121392.381       -4800.309           0.154  
G05  22542267.335      -17335.927        -658.723           0.167  
G06  20639344.076      -80679.953       -3035.416           0.185  
G07  23543803.852     -105946.657       -4013.992           0.157  
G09  23019822.633     -104418.537       -3962.788           0.161  
> 2023 05 18 00 00 40.8688020  0  7                     
G02  24436983.595        9368.089         283.096           0.149  
G03  22287331.241      -88491.733       -3086.020           0.172  
G04  23775234.630     -121872.475       -4803.282           0.155  
G05  22542282.331      -17400.960        -647.223           0.168  
G06  20639417.848      -80983.855       -3041.769           0.185  
G07  23543901.107     -106348.133       -4017.077           0.157  
G09  23019923.370     -104829.171       -4101.268           0.162  
> 2023 05 18 00 00 40.9688020  0  7                     
G02  24436975.823        9396.137         284.848           0.149  
G03  22287408.106      -88800.380       -3084.375           0.172  
G04  23775361.423     -122352.634       -4799.012           0.156  
G05  22542295.629      -17465.164        -641.860           0.170  
G06  20639495.339      -81287.869       -3040.292           0.186  
G07  23544003.852     -106749.702       -4014.310           0.158  
G09  23020026.923     -105239.282       -4102.471           0.162  
> 2023 05 18 00 00 41.0688020  0  7                     
G02  24436966.143        9424.408         282.615           0.148  
G03  22287490.147      -89109.774       -3203.016           0.172  
G04  23775480.760     -122832.621       -4800.387           0.154  
G05  22542315.886      -17529.196        -644.938           0.169  
G06  20639572.749      -81591.667       -3039.790           0.186  
G07  23544102.226     -107152.698       -4248.694           0.158  
G09  23020130.008     -105649.777       -4143.411           0.162  
> 2023 05 18 00 00 41.1688020  0  7                     
G02  24436960.120        9452.013         271.090           0.149  
G03  22287567.014      -89418.023       -3096.937           0.173  
G04  23775602.212     -123313.348       -4814.764           0.154  
G05  22542336.516      -17593.848        -651.863           0.169  
G06  20639653.093      -81896.175       -3051.560           0.186  
G07  23544210.921     -107553.573       -4241.272           0.158  
G09  23020238.983     -106059.720       -4110.608           0.163  
> 2023 05 18 00 00 41.2688020  0  7                     
G02  24436956.528        9479.390         272.503           0.151  
G03  22287645.576      -89727.319       -3091.860           0.174  
G04  23775728.297     -123794.188       -4812.593           0.155  
G05  22542349.607      -17658.687        -650.696           0.170  
G06  20639728.267      -82200.843       -3049.415           0.186  
G07  23544312.657     -107955.401       -4025.929           0.158  
G09  23020343.769     -106470.457       -4109.546           0.163  
> 2023 05 18 00 00 41.3688020  0  7                     
G02  24436949.532        9506.808         274.338           0.152  
G03  22287722.821      -90036.713       -3093.630           0.174  
G04  23775856.126     -124275.082       -4807.772           0.156  
G05  22542365.437      -17723.555        -647.209           0.171  
G06  20639809.634      -82505.537       -3045.426           0.187  
G07  23544412.261     -108357.699       -4023.119           0.159  
G09  23020443.764     -106881.205       -4106.597           0.164  
> 2023 05 18 00 00 41.4688020  0  7                     
G02  24436940.725        9534.509         280.785           0.151  
G03  22287801.665      -90345.738       -3088.646           0.174  
G04  23775972.979     -124755.654       -4804.261           0.158  
G05  22542383.047      -17787.976        -640.227           0.171  
G06  20639883.203      -82809.933       -3041.274           0.187  
G07  23544514.136     -108760.746       -4240.389           0.160  
G09  23020549.833     -107291.631       -4099.580           0.164  
> 2023 05 18 00 00 41.5688020  0  7                     
G02  24436931.266        9562.637         285.002           0.151  
G03  22287878.312      -90654.346       -3083.373           0.174  
G04  23776096.691     -125235.752       -4798.795           0.157  
G05  22542395.178      -17852.240        -639.482           0.170  
G06  20639964.230      -83113.923       -3040.626           0.187  
G07  23544618.089     -109161.808       -3920.284           0.157  
G09  23020653.387     -107701.657       -4100.557           0.164  
> 2023 05 18 00 00 41.6688020  0  7                     
G02  24436922.404        9590.725         278.771           0.150  
G03  22287956.711      -90962.977       -3086.847           0.174  
G04  23776219.438     -125715.850       -4802.312           0.155  
G05  22542408.842      -17916.378        -641.598           0.170  
G06  20640038.533      -83417.893       -3043.754           0.186  
G07  23544724.408     -109562.665       -4012.214           0.157  
G09  23020753.295     -108111.683       -4104.224           0.164  
> 2023 05 18 00 00 41.7688020  0  7                     
G02  24436917.044        9618.960         283.072           0.151  
G03  22288034.849      -91271.574       -3087.634           0.174  
G04  23776338.013     -126195.998       -4802.066           0.157  
G05  22542429.514      -17980.515        -642.780           0.171  
G06  20640116.102      -83721.796       -3041.149           0.187  
G07  23544823.876     -109964.241       -4016.472           0.160  
G09  23020865.927     -108521.638       -4101.067           0.163  
> 2023 05 18 00 00 41.8688020  0  7                     
G02  24436908.326        9647.194         286.843           0.150  
G03  22288119.057      -91580.116       -3083.147           0.174  
G04  23776463.419     -126676.041       -4801.795           0.156  
G05  22542439.146      -18044.577        -640.875           0.170  
G06  20640191.294      -84025.688       -3037.269           0.186  
G07  23544929.789     -110365.632       -4016.920           0.158  
G09  23020969.112     -108931.609       -4099.521           0.162  
> 2023 05 18 00 00 41.9688020  0  7                     
G02  24436903.499        9675.483         288.173           0.149  
G03  22288195.101      -91888.570       -3082.798           0.174  
G04  23776582.474     -127155.981       -4798.960           0.155  
G05  22542460.125      -18107.927        -593.351           0.170  
G06  20640270.150      -84329.507       -3036.110           0.185  
G07  23545027.214     -110766.993       -4013.286           0.159  
G09  23021067.696     -109341.174       -4169.579           0.162  
> 2023 05 18 00 00 42.0688020  0  7                     
G02  24436902.775        9703.796         280.868           0.150  
G03  22288275.203      -92197.065       -3086.184           0.173  
G04  23776702.297     -127635.895       -4798.930           0.154  
G05  22542473.444      -18172.490        -640.347           0.169  
G06  20640349.146      -84633.295       -3036.808           0.186  
G07  23545129.592     -111168.359       -4014.718           0.159  
G09  23021178.521     -109751.289       -4100.924           0.164  
> 2023 05 18 00 00 42.1688020  0  7                     
G02  24436888.699        9732.088         281.041           0.150  
G03  22288351.973      -92505.506       -3085.470           0.173  
G04  23776828.629     -128115.862       -4797.333           0.154  
G05  22542491.679      -18236.433        -638.098           0.169  
G06  20640421.408      -84937.097       -3036.237           0.186  
G07  23545228.098     -111569.737       -4010.628           0.158  
G09  23021281.193     -110161.121       -4102.025           0.162  
> 2023 05 18 00 00 42.2688020  0  7                     
G02  24436874.704        9760.397         282.302           0.151  
G03  22288427.099      -92813.995       -3088.077           0.174  
G04  23776947.775     -128595.919       -4803.968           0.154  
G05  22542510.422      -18300.457        -642.168           0.170  
G06  20640502.355      -85240.956       -3039.489           0.187  
G07  23545330.412     -111971.162       -4022.238           0.159  
G09  23021385.601     -110570.941       -4098.011           0.163  
> 2023 05 18 00 00 42.3688020  0  7                     
G02  24436871.234        9788.582         281.130           0.152  
G03  22288510.146      -93122.602       -3083.730           0.173  
G04  23777077.019     -129075.974       -4801.808           0.157  
G05  22542526.659      -18364.208        -617.172           0.171  
G06  20640579.500      -85544.878       -3037.603           0.187  
G07  23545433.220     -112372.639       -4016.430           0.158  
G09  23021489.960     -110979.863       -3830.897           0.164  
> 2023 05 18 00 00 42.4688020  0  7                     
G02  24436860.048        9816.891         283.340           0.150  
G03  22288584.510      -93431.154       -3085.984           0.173  
G04  23777190.952     -129555.925       -4799.592           0.156  
G05  22542541.681      -18428.505        -637.000           0.171  
G06  20640656.857      -85848.736       -3039.780           0.186  
G07  23545544.573     -112773.985       -4006.843           0.159  
G09  23021597.001     -111390.816       -4096.098           0.162  
> 2023 05 18 00 00 42.5688020  0  7                     
G02  24436855.226        9845.118         285.750           0.148  
G03  22288665.408      -93739.696       -3084.917           0.173  
G04  23777313.502     -130036.000       -4804.510           0.155  
G05  22542556.333      -18492.600        -639.953           0.170  
G06  20640731.732      -86152.630       -3039.463           0.186  
G07  23545641.526     -113175.462       -4012.746           0.157  
G09  23021698.908     -111800.748       -4097.953           0.163  
> 2023 05 18 00 00 42.6688020  0  7                     
G02  24436848.458        9873.275         276.320           0.149  
G03  22288741.719      -94048.363       -3086.976           0.172  
G04  23777438.480     -130516.136       -4805.967           0.156  
G05  22542570.851      -18556.773        -643.762           0.169  
G06  20640812.037      -86456.627       -3042.073           0.186  
G07  23545741.425     -113577.045       -4013.934           0.157  
G09  23021801.059     -112210.784       -4100.571           0.161  
> 2023 05 18 00 00 42.7688020  0  7                     
G02  24436845.294        9901.300         284.069           0.150  
G03  22288819.388      -94357.111       -3086.697           0.172  
G04  23777556.287     -130996.287       -4802.510           0.154  
G05  22542585.498      -18621.010        -645.212           0.169  
G06  20640888.335      -86760.698       -3042.063           0.186  
G07  23545848.342     -113978.645       -4014.094           0.157  
G09  23021907.131     -112620.860       -4100.438           0.162  
> 2023 05 18 00 00 42.8688020  0  7                     
G02  24436839.573        9929.173         273.904           0.152  
G03  22288895.882      -94666.052       -3090.169           0.173  
G04  23777681.485     -131476.712       -4803.946           0.155  
G05  22542604.421      -18685.413        -644.597           0.169  
G06  20640965.500      -87064.947       -3043.691           0.186  
G07  23545942.740     -114380.522       -4018.036           0.159  
G09  23022012.234     -113031.165       -4103.873           0.163  
> 2023 05 18 00 00 42.9688020  0  7                     
G02  24436826.992        9957.104         276.504           0.150  
G03  22288980.978      -94975.024       -3092.241           0.173  
G04  23777808.215     -131957.135       -4804.880           0.155  
G05  22542618.018      -18749.841        -643.426           0.171  
G06  20641042.506      -87369.202       -3039.968           0.186  
G07  23546044.349     -114782.352       -4021.877           0.159  
G09  23022118.049     -113441.490       -4105.020           0.163  
> 2023 05 18 00 00 43.0688020  0  7                     
G02  24436817.867        9984.941         276.785           0.150  
G03  22289059.606      -95283.984       -3087.580           0.173  
G04  23777925.812     -132437.600       -4806.256           0.155  
G05  22542637.309      -18814.277        -641.766           0.171  
G06  20641118.852      -87673.537       -3042.547           0.187  
G07  23546152.773     -115184.124       -4015.972           0.158  
G09  23022220.211     -113851.790       -4105.147           0.162  
> 2023 05 18 00 00 43.1688020  0  7                     
G02  24436815.543       10012.936         281.123           0.150  
G03  22289137.455      -95592.801       -3085.995           0.173  
G04  23778052.252     -132917.856       -4803.536           0.155  
G05  22542656.825      -18878.607        -641.850           0.170  
G06  20641194.620      -87977.682       -3037.761           0.187  
G07  23546256.768     -115585.877       -4016.840           0.159  
G09  23022322.265     -114261.936       -4100.083           0.164  
> 2023 05 18 00 00 43.2688020  0  7                     
G02  24436805.577       10041.204         285.007           0.152  
G03  22289210.725      -95901.427       -3088.686           0.173  
G04  23778169.223     -133397.898       -4801.375           0.154  
G05  22542672.310      -18942.672        -641.640           0.171  
G06  20641274.364      -88281.623       -3038.996           0.187  
G07  23546357.702     -115987.398       -4016.954           0.160  
G09  23022428.978     -114671.886       -4099.482           0.164  
> 2023 05 18 00 00 43.3688020  0  7                     
G02  24436791.350       10069.147         278.683           0.151  
G03  22289292.652      -96210.294       -3092.781           0.174  
G04  23778290.399     -133878.178       -4800.526           0.156  
G05  22542685.014      -19007.005        -643.737           0.170  
G06  20641350.564      -88585.791       -3039.206           0.186  
G07  23546456.284     -116389.105       -4015.987           0.158  
G09  23022530.708     -115082.037       -4099.282           0.163  
> 2023 05 18 00 00 43.4688020  0  7                     
G02  24436794.186       10097.175         275.152           0.150  
G03  22289372.673      -96518.991       -3088.178           0.173  
G04  23778412.963     -134358.375       -4803.003           0.155  
G05  22542697.371      -19071.206        -642.533           0.169  
G06  20641429.584      -88889.860       -3041.003           0.185  
G07  23546559.204     -116790.696       -4012.052           0.158  
G09  23022636.668     -115492.120       -4097.961           0.164  
> 2023 05 18 00 00 43.5688020  0  7                     
G02  24436785.022       10125.254         278.855           0.150  
G03  22289448.947      -96828.566       -3099.265           0.173  
G04  23778532.853     -134838.671       -4804.228           0.154  
G05  22542715.400      -19135.512        -641.711           0.170  
G06  20641505.133      -89194.020       -3041.235           0.185  
G07  23546655.770     -117192.449       -4017.428           0.158  
G09  23022740.846     -115902.281       -4099.806           0.163  
> 2023 05 18 00 00 43.6688020  0  7                     
G02  24436779.987       10153.338         280.935           0.149  
G03  22289525.651      -97136.608       -3086.521           0.172  
G04  23778658.376     -135318.825       -4801.315           0.156  
G05  22542734.776      -19199.753        -639.972           0.169  
G06  20641582.212      -89498.109       -3040.489           0.186  
G07  23546760.572     -117594.098       -4017.431           0.158  
G09  23022847.319     -116312.391       -4103.611           0.163  
> 2023 05 18 00 00 43.7688020  0  7                     
G02  24436767.879       10181.604         283.763           0.150  
G03  22289605.643      -97445.200       -3085.628           0.172  
G04  23778779.397     -135798.874       -4800.386           0.156  
G05  22542754.186      -19263.849        -642.666           0.170  
G06  20641661.533      -89802.055       -3035.601           0.185  
G07  23546863.756     -117995.543       -4013.005           0.160  
G09  23022951.123     -116722.294       -4100.926           0.164  
> 2023 05 18 00 00 43.8688020  0  7                     
G02  24436764.477       10209.934         286.400           0.151  
G03  22289687.208      -97753.753       -3083.107           0.172  
G04  23778901.197     -136278.813       -4797.455           0.155  
G05  22542762.490      -19327.851        -644.524           0.170  
G06  20641741.079      -90105.869       -3036.211           0.186  
G07  23546966.677     -118396.963       -4012.808           0.158  
G09  23023054.247     -117132.156       -4097.224           0.162  
> 2023 05 18 00 00 43.9688020  0  7                     
G02  24436755.511       10238.230         279.056           0.150  
G03  22289759.456      -98061.809       -3054.240           0.173  
G04  23779026.725     -136758.789       -4799.492           0.156  
G05  22542782.488      -19391.850        -643.292           0.170  
G06  20641816.990      -90409.766       -3039.623           0.187  
G07  23547070.647     -118798.148       -4101.869           0.159  
G09  23023157.217     -117542.003       -4103.433           0.161  
> 2023 05 18 00 00 44.0688020  0  7                     
G02  24436750.261       10266.636         285.149           0.151  
G03  22289842.877      -98370.784       -3086.511           0.174  
G04  23779148.041     -137238.753       -4800.589           0.156  
G05  22542801.975      -19455.814        -639.395           0.171  
G06  20641894.363      -90713.568       -3037.788           0.186  
G07  23547171.006     -119199.700       -4014.226           0.160  
G09  23023258.247     -117951.798       -4098.573           0.164  
> 2023 05 18 00 00 44.1688020  0  7                     
G02  24436744.585       10294.925         277.757           0.151  
G03  22289918.399      -98679.311       -3085.494           0.173  
G04  23779268.692     -137718.684       -4794.937           0.154  
G05  22542812.907      -19519.788        -640.840           0.171  
G06  20641972.703      -91017.418       -3038.923           0.186  
G07  23547278.572     -119601.180       -4019.521           0.157  
G09  23023365.228     -118361.615       -4098.551           0.163  
> 2023 05 18 00 00 44.2688020  0  7                     
G02  24436734.285       10323.346         284.604           0.150  
G03  22289997.436      -98987.861       -3081.913           0.173  
G04  23779385.461     -138198.644       -4797.247           0.155  
G05  22542829.951      -19583.753        -635.969           0.170  
G06  20642048.175      -91321.246       -3036.420           0.186  
G07  23547367.073     -120002.534       -4015.635           0.159  
G09  23023470.624     -118771.423       -4095.489           0.163  
> 2023 05 18 00 00 44.3688020  0  7                     
G02  24436728.915       10351.371         283.484           0.149  
G03  22290075.494      -99296.711       -3089.433           0.173  
G04  23779511.733     -138678.897       -4807.960           0.154  
G05  22542848.244      -19648.014        -639.234           0.169  
G06  20642125.280      -91625.392       -3042.554           0.186  
G07  23547479.006     -120404.200       -4017.579           0.159  
G09  23023575.870     -119181.989       -4056.083           0.161  
> 2023 05 18 00 00 44.4688020  0  7                     
G02  24436716.579       10379.341         277.732           0.149  
G03  22290155.241      -99605.597       -3096.375           0.172  
G04  23779635.250     -139159.129       -4810.327           0.155  
G05  22542866.039      -19712.386        -649.183           0.168  
G06  20642199.825      -91929.573       -3045.669           0.185  
G07  23547585.005     -120805.985       -4024.838           0.157  
G09  23023675.863     -119591.734       -4104.786           0.160  
> 2023 05 18 00 00 44.5688020  0  7                     
G02  24436710.749       10406.973         277.307           0.151  
G03  22290232.742      -99914.867       -3092.660           0.172  
G04  23779764.958     -139639.859       -4811.693           0.156  
G05  22542879.143      -19777.107        -650.309           0.170  
G06  20642278.586      -92234.203       -3047.330           0.185  
G07  23547683.987     -121208.129       -4020.515           0.157  
G09  23023782.972     -120002.299       -4106.501           0.163  
> 2023 05 18 00 00 44.6688020  0  7                     
G02  24436697.603       10434.442         275.824           0.150  
G03  22290314.240     -100224.302       -3091.721           0.174  
G04  23779888.218     -140120.652       -4807.904           0.157  
G05  22542897.480      -19841.985        -647.905           0.170  
G06  20642351.365      -92538.901       -3042.431           0.186  
G07  23547785.156     -121610.410       -4020.738           0.159  
G09  23023890.376     -120412.968       -4100.473           0.161  
> 2023 05 18 00 00 44.7688020  0  7                     
G02  24436690.838       10461.998         277.556           0.150  
G03  22290385.270     -100533.655       -3088.179           0.172  
G04  23780004.051     -140601.394       -4803.850           0.156  
G05  22542915.697      -19906.781        -645.066           0.170  
G06  20642431.522      -92843.597       -3044.524           0.186  
G07  23547891.255     -122012.659       -4026.499           0.158  
G09  23023993.391     -120824.787       -4127.879           0.162  
> 2023 05 18 00 00 44.8688020  0  7                     
G02  24436684.827       10490.128         281.926           0.150  
G03  22290465.580     -100842.449       -3086.641           0.173  
G04  23780131.984     -141081.654       -4802.997           0.155  
G05  22542927.413      -19971.022        -643.059           0.170  
G06  20642509.685      -93147.704       -3040.472           0.187  
G07  23547993.412     -122414.278       -4017.481           0.157  
G09  23024093.681     -121233.710       -4094.548           0.164  
> 2023 05 18 00 00 44.9688020  0  7                     
G02  24436683.118       10518.471         285.985           0.152  
G03  22290546.381     -101151.052       -3087.865           0.173  
G04  23780248.936     -141561.615       -4802.521           0.155  
G05  22542945.196      -20035.043        -641.562           0.170  
G06  20642590.929      -93451.595       -3039.721           0.187  
G07  23548097.889     -122815.708       -4014.899           0.160  
G09  23024197.932     -121643.577       -4099.022           0.164  
> 2023 05 18 00 00 45.0688020  0  7                     
G02  24436673.421       10546.830         285.337           0.152  
G03  22290623.996     -101459.572       -3084.706           0.175  
G04  23780362.672     -142041.491       -4795.122           0.156  
G05  22542957.360      -20098.994        -640.136           0.171  
G06  20642663.979      -93755.416       -3038.396           0.187  
G07  23548197.128     -123217.070       -4012.701           0.159  
G09  23024304.962     -122053.352       -4094.733           0.165  
> 2023 05 18 00 00 45.1688020  0  7                     
G02  24436661.515       10575.241         289.263           0.152  
G03  22290707.216     -101768.096       -3086.206           0.175  
G04  23780492.355     -142521.429       -4797.705           0.155  
G05  22542974.833      -20162.963        -638.166           0.171  
G06  20642742.056      -94059.251       -3037.727           0.187  
G07  23548291.671     -123618.475       -4015.658           0.160  
G09  23024405.864     -122463.157       -4097.957           0.165  
> 2023 05 18 00 00 45.2688020  0  7                     
G02  24436658.776       10603.649         288.138           0.151  
G03  22290780.685     -102076.612       -3086.051           0.175  
G04  23780606.374     -143001.337       -4796.321           0.158  
G05  22542993.340      -20226.916        -639.121           0.171  
G06  20642819.464      -94363.074       -3039.272           0.188  
G07  23548393.172     -124019.849       -4013.994           0.161  
G09  23024515.896     -122872.913       -4096.389           0.164  
> 2023 05 18 00 00 45.3688020  0  7                     
G02  24436657.750       10631.959         286.726           0.150  
G03  22290862.648     -102385.265       -3091.191           0.175  
G04  23780734.591     -143481.303       -4799.440           0.157  
G05  22543011.143      -20290.982        -641.643           0.170  
G06  20642896.645      -94667.001       -3038.727           0.188  
G07  23548497.574     -124421.312       -4017.730           0.160  
G09  23024620.058     -123282.830       -4099.667           0.164  
> 2023 05 18 00 00 45.4688020  0  7                     
G02  24436647.778       10660.195         279.754           0.150  
G03  22290940.497     -102693.852       -3087.724           0.174  
G04  23780858.503     -143961.293       -4799.303           0.157  
G05  22543023.478      -20354.995        -641.801           0.171  
G06  20642977.422      -94970.895       -3039.398           0.188  
G07  23548598.430     -124822.686       -4016.373           0.159  
G09  23024720.908     -123692.707       -4095.381           0.164  
> 2023 05 18 00 00 45.5688020  0  7                     
G02  24436638.510       10688.361         278.553           0.151  
G03  22291019.165     -103002.637       -3091.874           0.175  
G04  23780981.411     -144441.457       -4804.424           0.158  
G05  22543045.425      -20419.223        -645.741           0.172  
G06  20643053.100      -95275.011       -3042.555           0.187  
G07  23548700.865     -125224.378       -4020.098           0.157  
G09  23024822.245     -124102.773       -4102.450           0.165  
> 2023 05 18 00 00 45.6688020  0  7                     
G02  24436628.932       10716.455         287.735           0.154  
G03  22291094.370     -103311.548       -3087.371           0.175  
G04  23781104.367     -144921.714       -4799.886           0.158  
G05  22543060.387      -20483.572        -640.749           0.172  
G06  20643128.603      -95579.209       -3038.131           0.187  
G07  23548810.834     -125626.131       -4017.437           0.159  
G09  23024930.818     -124512.896       -4100.712           0.165  
> 2023 05 18 00 00 45.7688020  0  7                     
G02  24436619.063       10744.618         281.734           0.151  
G03  22291176.708     -103620.302       -3089.831           0.175  
G04  23781226.797     -145401.826       -4801.018           0.157  
G05  22543075.269      -20547.714        -640.965           0.172  
G06  20643206.405      -95883.234       -3038.445           0.188  
G07  23548910.383     -126027.711       -4017.180           0.157  
G09  23025041.431     -124922.863       -4098.009           0.164  
> 2023 05 18 00 00 45.8688020  0  7                     
G02  24436620.920       10772.792         279.733           0.152  
G03  22291251.039     -103929.058       -3085.581           0.174  
G04  23781350.163     -145881.944       -4801.091           0.157  
G05  22543092.786      -20611.913        -642.255           0.171  
G06  20643282.855      -96187.334       -3042.641           0.187  
G07  23549017.356     -126429.307       -4015.931           0.159  
G09  23025140.018     -125332.897       -4100.561           0.164  
> 2023 05 18 00 00 45.9688020  0  7                     
G02  24436603.321       10800.897         282.735           0.152  
G03  22291335.987     -104237.881       -3082.454           0.174  
G04  23781472.321     -146362.184       -4804.461           0.156  
G05  22543108.000      -20676.204        -639.321           0.172  
G06  20643359.383      -96491.487       -3041.873           0.188  
G07  23549116.934     -126830.983       -4015.492           0.160  
G09  23025240.253     -125742.998       -4101.890           0.165  
> 2023 05 18 00 00 46.0688020  0  7                     
G02  24436601.189       10829.046         280.965           0.151  
G03  22291407.051     -104546.754       -3087.843           0.174  
G04  23781596.131     -146842.317       -4802.042           0.157  
G05  22543120.374      -20740.430        -642.589           0.172  
G06  20643436.051      -96795.588       -3041.014           0.188  
G07  23549217.184     -127232.621       -4016.306           0.160  
G09  23025353.466     -126153.037       -4105.285           0.165  
> 2023 05 18 00 00 46.1688020  0  7                     
G02  24436597.453       10857.045         276.454           0.151  
G03  22291488.287     -104855.727       -3090.178           0.173  
G04  23781711.237     -147322.668       -4801.657           0.157  
G05  22543137.810      -20804.799        -646.163           0.171  
G06  20643510.968      -97099.878       -3045.101           0.187  
G07  23549319.059     -127634.470       -4019.369           0.159  
G09  23025457.003     -126563.247       -4106.497           0.164  
> 2023 05 18 00 00 46.2688020  0  7                     
G02  24436586.534       10884.973         280.091           0.154  
G03  22291567.053     -105164.746       -3089.113           0.172  
G04  23781834.469     -147803.041       -4800.922           0.158  
G05  22543153.138      -20869.231        -644.029           0.173  
G06  20643593.154      -97404.172       -3041.736           0.186  
G07  23549424.069     -128036.309       -4018.080           0.161  
G09  23025555.113     -126973.485       -4103.900           0.162  
> 2023 05 18 00 00 46.3688020  0  7                     
G02  24436583.145       10913.257         282.636           0.151  
G03  22291647.883     -105473.486       -3087.455           0.174  
G04  23781954.530     -148283.123       -4804.164           0.158  
G05  22543168.556      -20933.368        -640.837           0.171  
G06  20643669.409      -97708.214       -3042.368           0.187  
G07  23549515.984     -128437.884       -4016.232           0.161  
G09  23025656.872     -127383.460       -4098.792           0.164  
> 2023 05 18 00 00 46.4688020  0  7                     
G02  24436572.892       10941.335         278.352           0.154  
G03  22291730.553     -105782.318       -3091.010           0.174  
G04  23782080.608     -148763.327       -4803.803           0.157  
G05  22543184.527      -20997.638        -645.838           0.171  
G06  20643749.473      -98012.366       -3045.112           0.187  
G07  23549617.470     -128839.512       -4016.640           0.158  
G09  23025761.787     -127793.504       -4102.667           0.165  
> 2023 05 18 00 00 46.5688020  0  7                     
G02  24436556.809       10969.125         277.540           0.151  
G03  22291803.025     -106091.562       -3092.003           0.174  
G04  23782199.433     -149243.891       -4810.134           0.157  
G05  22543201.403      -21062.282        -647.241           0.172  
G06  20643823.086      -98316.892       -3047.917           0.187  
G07  23549727.160     -129241.608       -4024.011           0.159  
G09  23025869.567     -128203.965       -4104.224           0.166  
> 2023 05 18 00 00 46.6688020  0  7                     
G02  24436546.400       10996.876         281.398           0.151  
G03  22291883.864     -106400.797       -3091.134           0.174  
G04  23782317.213     -149724.407       -4804.768           0.156  
G05  22543219.437      -21126.879        -643.379           0.172  
G06  20643902.877      -98621.392       -3044.282           0.187  
G07  23549834.684     -129643.644       -4023.573           0.159  
G09  23025977.421     -128614.392       -4103.636           0.163  
> 2023 05 18 00 00 46.7688020  0  7                     
G02  24436549.077       11024.567         281.783           0.151  
G03  22291956.776     -106710.091       -3094.312           0.174  
G04  23782440.285     -150204.990       -4805.784           0.157  
G05  22543234.193      -21191.553        -647.096           0.172  
G06  20643979.142      -98925.941       -3047.176           0.187  
G07  23549935.757     -130045.749       -4024.466           0.161  
G09  23026076.437     -129024.858       -4103.820           0.164  
> 2023 05 18 00 00 46.8688020  0  7                     
G02  24436541.152       11052.744         285.103           0.151  
G03  22292036.575     -107018.922       -3088.670           0.175  
G04  23782567.502     -150685.180       -4800.335           0.157  
G05  22543248.107      -21255.807        -640.223           0.171  
G06  20644054.848      -99230.087       -3041.475           0.188  
G07  23550031.607     -130447.407       -4014.973           0.160  
G09  23026183.779     -129434.936       -4101.982           0.164  
> 2023 05 18 00 00 46.9688020  0  7                     
G02  24436536.183       11081.171         286.621           0.152  
G03  22292113.295     -107327.511       -3087.486           0.175  
G04  23782690.173     -151165.082       -4797.471           0.158  
G05  22543269.542      -21319.784        -640.290           0.171  
G06  20644132.365      -99533.932       -3039.458           0.188  
G07  23550136.445     -130848.829       -4011.052           0.159  
G09  23026291.804     -129844.717       -4102.702           0.165  
> 2023 05 18 00 00 47.0688020  0  7                     
G02  24436525.162       11109.581         285.671           0.154  
G03  22292194.276     -107636.107       -3086.236           0.174  
G04  23782819.061     -151645.036       -4803.978           0.157  
G05  22543286.194      -21383.814        -641.011           0.173  
G06  20644210.892      -99837.854       -3040.353           0.188  
G07  23550235.078     -131250.222       -4012.990           0.160  
G09  23026392.130     -130254.499       -4098.783           0.165  
> 2023 05 18 00 00 47.1688020  0  7                     
G02  24436517.797       11138.008         289.512           0.150  
G03  22292270.049     -107944.720       -3085.424           0.174  
G04  23782932.285     -152124.907       -4799.117           0.157  
G05  22543302.596      -21447.598        -585.153           0.172  
G06  20644290.362     -100141.722       -3036.340           0.187  
G07  23550338.594     -131652.170       -4048.451           0.160  
G09  23026494.156     -130664.137       -4033.021           0.163  
> 2023 05 18 00 00 47.2688020  0  7                     
G02  24436520.314       11166.414         289.731           0.150  
G03  22292353.840     -108253.319       -3086.175           0.174  
G04  23783055.792     -152604.843       -4796.210           0.157  
G05  22543314.845      -21511.775        -640.529           0.172  
G06  20644366.006     -100445.628       -3040.263           0.187  
G07  23550442.116     -132053.064       -4013.061           0.159  
G09  23026595.409     -131074.055       -4096.544           0.164  
> 2023 05 18 00 00 47.3688020  0  7                     
G02  24436507.509       11194.688         289.446           0.151  
G03  22292429.642     -108562.094       -3091.660           0.175  
G04  23783179.791     -153084.872       -4797.724           0.154  
G05  22543329.722      -21575.918        -644.940           0.171  
G06  20644439.464     -100749.639       -3041.065           0.187  
G07  23550547.041     -132454.667       -4023.357           0.160  
G09  23026702.561     -131483.984       -4101.297           0.163  
> 2023 05 18 00 00 47.4688020  0  7                     
G02  24436494.608       11222.817         281.422           0.151  
G03  22292507.973     -108870.937       -3091.618           0.174  
G04  23783304.417     -153565.078       -4801.147           0.157  
G05  22543344.694      -21640.190        -645.351           0.170  
G06  20644518.868     -101053.810       -3044.425           0.187  
G07  23550644.048     -132856.339       -4019.996           0.160  
G09  23026807.111     -131894.064       -4100.417           0.164  
> 2023 05 18 00 00 47.5688020  0  7                     
G02  24436490.656       11250.728         277.777           0.152  
G03  22292589.090     -109180.038       -3090.987           0.174  
G04  23783424.690     -154045.462       -4805.711           0.155  
G05  22543361.990      -21704.635        -643.354           0.171  
G06  20644596.250     -101358.160       -3043.423           0.188  
G07  23550745.568     -133258.207       -4020.528           0.159  
G09  23026912.340     -132304.298       -4100.188           0.164  
> 2023 05 18 00 00 47.6688020  0  7                     
G02  24436488.786       11278.879         281.010           0.151  
G03  22292666.141     -109488.889       -3087.427           0.174  
G04  23783542.774     -154525.633       -4802.051           0.157  
G05  22543379.890      -21768.894        -639.964           0.171  
G06  20644673.588     -101662.322       -3042.833           0.187  
G07  23550848.305     -133659.906       -4016.793           0.158  
G09  23027017.392     -132714.359       -4099.752           0.164  
> 2023 05 18 00 00 47.7688020  0  7                     
G02  24436481.282       11307.226         285.914           0.152  
G03  22292743.626     -109797.630       -3085.404           0.174  
G04  23783665.378     -155005.657       -4798.410           0.156  
G05  22543397.953      -21832.976        -639.306           0.171  
G06  20644750.942     -101966.325       -3039.345           0.187  
G07  23550949.072     -134061.399       -4013.263           0.158  
G09  23027122.124     -133124.235       -4096.935           0.163  
> 2023 05 18 00 00 47.8688020  0  7                     
G02  24436459.803       11335.460         280.412           0.150  
G03  22292824.332     -110106.398       -3087.405           0.175  
G04  23783786.478     -155485.712       -4799.280           0.157  
G05  22543415.793      -21897.166        -643.138           0.170  
G06  20644828.852     -102270.393       -3042.054           0.187  
G07  23551051.124     -134462.498       -4001.338           0.159  
G09  23027224.549     -133534.232       -4098.000           0.164  
> 2023 05 18 00 00 47.9688020  0  7                     
G02  24436460.978       11363.513         280.593           0.151  
G03  22292900.122     -110415.374       -3089.775           0.173  
G04  23783908.819     -155965.974       -4805.993           0.159  
G05  22543429.195      -21961.479        -641.614           0.171  
G06  20644910.342     -102574.601       -3043.151           0.187  
G07  23551151.659     -134864.764       -4017.224           0.160  
G09  23027330.077     -133944.368       -4106.514           0.163  
> 2023 05 18 00 00 48.0688020  0  7                     
G02  24436451.373       11391.783         280.304           0.152  
G03  22292978.990     -110724.195       -3090.309           0.174  
G04  23784035.911     -156446.042       -4804.399           0.156  
G05  22543445.522      -22025.673        -640.276           0.169  
G06  20644982.911     -102878.697       -3040.479           0.187  
G07  23551257.333     -135266.407       -4020.125           0.159  
G09  23027429.018     -134354.319       -4098.696           0.164  
> 2023 05 18 00 00 48.1688020  0  7                     
G02  24436454.668       11419.859         283.372           0.152  
G03  22293060.365     -111033.212       -3089.193           0.174  
G04  23784159.587     -156926.293       -4799.581           0.156  
G05  22543461.420      -22090.086        -644.542           0.170  
G06  20645062.193     -103182.986       -3041.187           0.187  
G07  23551357.278     -135668.203       -4018.617           0.158  
G09  23027533.227     -134764.489       -4099.200           0.163  
> 2023 05 18 00 00 48.2688020  0  7                     
G02  24436444.694       11448.048         280.775           0.151  
G03  22293134.891     -111342.106       -3087.597           0.173  
G04  23784277.636     -157406.477       -4803.118           0.155  
G05  22543475.657      -22154.275        -640.235           0.170  
G06  20645135.062     -103487.139       -3041.517           0.187  
G07  23551460.801     -136069.855       -4013.334           0.159  
G09  23027641.646     -135174.520       -4101.141           0.162  
> 2023 05 18 00 00 48.3688020  0  7                     
G02  24436428.301       11476.055         277.449           0.151  
G03  22293214.180     -111651.137       -3093.382           0.173  
G04  23784398.501     -157886.769       -4808.349           0.157  
G05  22543492.516      -22218.688        -647.283           0.170  
G06  20645215.889     -103791.420       -3045.038           0.187  
G07  23551570.257     -136471.705       -4023.081           0.159  
G09  23027750.423     -135584.685       -4106.228           0.163  
> 2023 05 18 00 00 48.4688020  0  7                     
G02  24436410.182       11503.619         277.815           0.152  
G03  22293290.965     -111960.652       -3094.833           0.175  
G04  23784525.643     -158367.593       -4811.437           0.156  
G05  22543509.174      -22283.571        -651.131           0.171  
G06  20645290.909     -104096.231       -3048.399           0.187  
G07  23551668.176     -136874.019       -4023.755           0.161  
G09  23027847.677     -135995.333       -4108.363           0.164  
> 2023 05 18 00 00 48.5688020  0  7                     
G02  24436410.719       11531.263         272.151           0.153  
G03  22293372.051     -112270.068       -3096.538           0.175  
G04  23784643.212     -158848.215       -4811.910           0.157  
G05  22543525.851      -22348.314        -649.353           0.171  
G06  20645371.743     -104400.876       -3047.142           0.187  
G07  23551770.408     -137276.184       -4020.646           0.159  
G09  23027955.774     -136405.878       -4104.995           0.163  
> 2023 05 18 00 00 48.6688020  0  7                     
G02  24436407.293       11558.738         272.798           0.151  
G03  22293450.275     -112579.674       -3095.510           0.174  
G04  23784769.693     -159329.096       -4808.857           0.157  
G05  22543541.132      -22413.276        -647.954           0.170  
G06  20645448.559     -104705.746       -3047.576           0.187  
G07  23551873.893     -137678.564       -4020.572           0.161  
G09  23028061.252     -136816.670       -4107.479           0.164  
> 2023 05 18 00 00 48.7688020  0  7                     
G02  24436405.719       11586.338         278.384           0.151  
G03  22293529.660     -112888.242       -3016.263           0.175  
G04  23784891.372     -159809.905       -4806.860           0.157  
G05  22543556.703      -22477.529        -523.385           0.171  
G06  20645525.229     -105010.541       -3045.860           0.188  
G07  23551970.983     -138079.679       -3864.903           0.161  
G09  23028164.371     -137226.773       -4095.671           0.165  
> 2023 05 18 00 00 48.8688020  0  7                     
G02  24436395.967       11614.259         282.773           0.150  
G03  22293606.863     -113198.348       -3088.642           0.174  
G04  23785013.245     -160290.307       -4799.944           0.157  
G05  22543572.457      -22542.659        -641.113           0.170  
G06  20645602.461     -105314.970       -3039.038           0.187  
G07  23552071.648     -138482.836       -4015.815           0.160  
G09  23028265.759     -137637.594       -4098.379           0.163  
> 2023 05 18 00 00 48.9688020  0  7                     
G02  24436386.828       11642.417         280.179           0.152  
G03  22293685.696     -113507.251       -3090.675           0.174  
G04  23785131.688     -160770.430       -4799.250           0.157  
G05  22543587.541      -22606.927        -642.151           0.171  
G06  20645677.158     -105619.161       -3041.803           0.187  
G07  23552178.335     -138884.538       -4014.863           0.161  
G09  23028374.179     -138047.616       -4101.635           0.164  
> 2023 05 18 00 00 49.0688020  0  7                     
G02  24436376.519       11670.660         283.359           0.151  
G03  22293767.482     -113816.124       -3087.504           0.174  
G04  23785257.220     -161250.562       -4798.878           0.158  
G05  22543603.848      -22671.157        -640.157           0.171  
G06  20645757.599     -105923.300       -3041.317           0.188  
G07  23552284.387     -139286.413       -4126.268           0.159  
G09  23028479.721     -138457.587       -4101.602           0.164  
> 2023 05 18 00 00 49.1688020  0  7                     
G02  24436367.864       11698.906         283.173           0.154  
G03  22293842.230     -114124.983       -3087.334           0.173  
G04  23785381.536     -161730.661       -4800.312           0.156  
G05  22543625.529      -22735.345        -640.944           0.171  
G06  20645834.187     -106227.404       -3043.482           0.187  
G07  23552387.785     -139688.174       -3993.595           0.160  
G09  23028581.857     -138867.576       -4098.329           0.164  
> 2023 05 18 00 00 49.2688020  0  7                     
G02  24436364.042       11727.137         285.158           0.151  
G03  22293920.142     -114433.866       -3088.280           0.174  
G04  23785494.807     -162210.772       -4794.578           0.156  
G05  22543638.127      -22799.577        -641.103           0.171  
G06  20645910.410     -106531.545       -3040.691           0.187  
G07  23552484.138     -140089.475       -4013.659           0.161  
G09  23028687.350     -139277.542       -4097.723           0.164  
> 2023 05 18 00 00 49.3688020  0  7                     
G02  24436358.059       11755.582         291.780           0.152  
G03  22293995.833     -114742.580       -3087.711           0.174  
G04  23785624.571     -162690.668       -4796.208           0.156  
G05  22543656.994      -22863.604        -641.320           0.171  
G06  20645987.244     -106835.510       -3038.127           0.186  
G07  23552587.989     -140490.962       -4011.372           0.159  
G09  23028787.328     -139687.349       -4093.914           0.164  
> 2023 05 18 00 00 49.4688020  0  7                     
G02  24436348.931       11783.652         276.214           0.149  
G03  22294079.016     -115051.586       -3095.485           0.173  
G04  23785748.696     -163170.928       -4805.211           0.154  
G05  22543674.183      -22927.972        -648.546           0.171  
G06  20646066.248     -107139.776       -3046.770           0.187  
G07  23552689.936     -140892.734       -4019.282           0.160  
G09  23028891.591     -140097.510       -4107.056           0.162  
> 2023 05 18 00 00 49.5688020  0  7                     
G02  24436347.684       11811.630         287.750           0.152  
G03  22294157.952     -115360.502       -3086.927           0.173  
G04  23785871.137     -163651.318       -4801.163           0.157  
G05  22543689.566      -22992.688        -662.121           0.170  
G06  20646142.524     -107444.207       -3041.312           0.186  
G07  23552786.321     -141294.667       -4016.746           0.158  
G09  23029000.145     -140508.221       -4154.259           0.164  
> 2023 05 18 00 00 49.6688020  0  7                     
G02  24436330.747       11839.781         283.101           0.152  
G03  22294236.786     -115669.713       -3093.150           0.174  
G04  23785990.831     -164131.523       -4805.119           0.155  
G05  22543708.215      -23056.747        -642.156           0.171  
G06  20646221.256     -107748.435       -3043.290           0.186  
G07  23552895.092     -141696.423       -4020.459           0.158  
G09  23029099.877     -140917.806       -4097.149           0.163  
> 2023 05 18 00 00 49.7688020  0  7                     
G02  24436332.814       11868.048         287.416           0.148  
G03  22294313.232     -115978.619       -3088.118           0.174  
G04  23786112.493     -164611.642       -4804.112           0.154  
G05  22543720.026      -23120.987        -641.561           0.170  
G06  20646296.437     -108052.607       -3041.508           0.186  
G07  23552993.969     -142098.070       -4015.617           0.158  
G09  23029203.028     -141327.831       -4096.944           0.163  
> 2023 05 18 00 00 49.8688020  0  7                     
G02  24436326.263       11896.310         283.527           0.151  
G03  22294393.516     -116287.431       -3086.590           0.174  
G04  23786231.838     -165091.663       -4799.956           0.157  
G05  22543733.368      -23185.125        -641.892           0.170  
G06  20646377.260     -108356.690       -3041.386           0.187  
G07  23553098.532     -142499.703       -4021.641           0.158  
G09  23029308.183     -141737.701       -4098.011           0.164  
> 2023 05 18 00 00 49.9688020  0  7                     
G02  24436314.090       11924.565         278.449           0.151  
G03  22294472.608     -116596.254       -3088.516           0.174  
G04  23786354.482     -165571.675       -4799.258           0.156  
G05  22543749.295      -23249.274        -643.983           0.169  
G06  20646452.496     -108660.744       -3043.642           0.187  
G07  23553200.286     -142901.288       -4023.099           0.159  
G09  23029416.002     -142147.629       -4099.736           0.164  
> 2023 05 18 00 00 50.0688020  0  7                     
G02  24436305.857       11952.917         280.976           0.152  
G03  22294548.957     -116905.106       -3087.748           0.174  
G04  23786478.315     -166051.694       -4796.784           0.156  
G05  22543768.637      -23313.427        -641.386           0.171  
G06  20646532.953     -108964.815       -3041.666           0.188  
G07  23553302.618     -143302.873       -4023.859           0.158  
G09  23029514.760     -142557.539       -4100.933           0.163  
> 2023 05 18 00 00 50.1688020  0  7                     
G02  24436299.160       11981.056         270.900           0.153  
G03  22294624.534     -117214.062       -3095.052           0.174  
G04  23786599.763     -166531.923       -4809.962           0.156  
G05  22543785.561      -23377.762        -651.092           0.169  
G06  20646607.102     -109269.088       -3050.608           0.187  
G07  23553403.917     -143704.588       -4021.371           0.160  
G09  23029617.948     -142967.621       -4109.155           0.164  
> 2023 05 18 00 00 50.2688020  0  7                     
G02  24436293.770       12008.580         268.751           0.150  
G03  22294707.337     -117523.693       -3093.400           0.175  
G04  23786728.090     -167012.739       -4804.731           0.157  
G05  22543799.864      -23442.689        -648.565           0.171  
G06  20646684.594     -109573.948       -3048.973           0.188  
G07  23553507.039     -144106.990       -4021.166           0.160  
G09  23029731.944     -143378.307       -4105.722           0.162  
> 2023 05 18 00 00 50.3688020  0  7                     
G02  24436276.696       12036.603         280.394           0.150  
G03  22294786.045     -117832.621       -3064.738           0.175  
G04  23786846.631     -167493.124       -4801.542           0.156  
G05  22543820.559      -23506.868        -564.482           0.171  
G06  20646759.781     -109878.359       -3044.136           0.187  
G07  23553613.229     -144508.954       -4020.401           0.158  
G09  23029830.912     -143788.526       -4098.588           0.163  
> 2023 05 18 00 00 50.4688020  0  7                     
G02  24436272.958       12064.667         283.455           0.151  
G03  22294864.491     -118141.920       -3088.564           0.174  
G04  23786961.013     -167973.355       -4802.752           0.157  
G05  22543834.790      -23571.574        -641.775           0.172  
G06  20646841.334     -110182.659       -3042.629           0.187  
G07  23553715.625     -144910.718       -4014.643           0.159  
G09  23029934.391     -144198.693       -4101.500           0.163  
> 2023 05 18 00 00 50.5688020  0  7                     
G02  24436261.141       12092.898         282.657           0.151  
G03  22294943.894     -118450.874       -3087.950           0.174  
G04  23787095.698     -168453.526       -4798.990           0.157  
G05  22543853.229      -23635.860        -643.391           0.170  
G06  20646918.222     -110486.862       -3041.181           0.187  
G07  23553813.241     -145312.446       -4016.159           0.159  
G09  23030043.074     -144608.703       -4102.574           0.164  
> 2023 05 18 00 00 50.6688020  0  7                     
G02  24436256.199       12120.894         279.213           0.151  
G03  22295026.407     -118760.041       -3092.437           0.171  
G04  23787213.022     -168933.859       -4804.456           0.155  
G05  22543867.562      -23700.285        -640.633           0.168  
G06  20646994.673     -110791.255       -3043.025           0.186  
G07  23553915.467     -145715.402       -4116.161           0.158  
G09  23030141.978     -145018.574       -4148.771           0.162  
> 2023 05 18 00 00 50.7688020  0  7                     
G02  24436256.097       12149.142         286.168           0.149  
G03  22295104.531     -119069.000       -3087.117           0.172  
G04  23787332.290     -169414.019       -4798.866           0.156  
G05  22543878.735      -23765.107        -742.800           0.170  
G06  20647072.350     -111095.501       -3040.421           0.185  
G07  23554015.074     -146115.738       -3897.565           0.158  
G09  23030247.856     -145428.958       -4100.920           0.162  
> 2023 05 18 00 00 50.8688020  0  7                     
G02  24436247.243       12177.412         287.593           0.149  
G03  22295174.546     -119377.943       -3087.902           0.172  
G04  23787455.388     -169894.104       -4800.491           0.155  
G05  22543896.553      -23828.823        -643.280           0.170  
G06  20647150.451     -111399.642       -3042.502           0.185  
G07  23554117.737     -146517.745       -4016.488           0.158  
G09  23030353.679     -145838.945       -4100.972           0.161  
> 2023 05 18 00 00 50.9688020  0  7                     
G02  24436246.701       12205.732         290.565           0.150  
G03  22295255.258     -119686.802       -3086.638           0.172  
G04  23787574.047     -170374.154       -4800.566           0.154  
G05  22543913.297      -23892.938        -642.153           0.169  
G06  20647227.088     -111703.756       -3039.554           0.185  
G07  23554220.000     -146919.358       -4013.636           0.157  
G09  23030459.082     -146248.824       -4095.039           0.161  
> 2023 05 18 00 00 51.0688020  0  7                     
G02  24436238.591       12234.139         287.428           0.149  
G03  22295337.155     -119995.538       -3087.030           0.172  
G04  23787695.645     -170854.077       -4799.908           0.154  
G05  22543930.765      -23957.020        -639.970           0.169  
G06  20647301.538     -112007.743       -3038.889           0.186  
G07  23554325.424     -147319.642       -3755.527           0.158  
G09  23030565.262     -146658.310       -4035.746           0.161  
> 2023 05 18 00 00 51.1688020  0  7                     
G02  24436226.639       12262.589         279.865           0.150  
G03  22295414.621     -120304.271       -3087.196           0.173  
G04  23787818.014     -171334.000       -4800.631           0.155  
G05  22543946.938      -24020.954        -666.162           0.169  
G06  20647381.272     -112311.725       -3041.319           0.186  
G07  23554424.785     -147723.465       -4173.253           0.156  
G09  23030670.275     -147068.383       -4098.700           0.164  
> 2023 05 18 00 00 51.2688020  0  7                     
G02  24436213.007       12291.116         285.828           0.148  
G03  22295491.800     -120613.010       -3087.145           0.173  
G04  23787943.162     -171813.819       -4799.402           0.155  
G05  22543964.195      -24085.063        -642.633           0.168  
G06  20647455.327     -112615.696       -3042.564           0.185  
G07  23554524.836     -148123.826       -4015.481           0.157  
G09  23030770.922     -147478.147       -4098.355           0.161  
> 2023 05 18 00 00 51.3688020  0  7                     
G02  24436208.055       12319.454         282.444           0.148  
G03  22295570.503     -120921.849       -3088.616           0.173  
G04  23788066.499     -172293.835       -4798.600           0.155  
G05  22543980.228      -24149.192        -641.303           0.171  
G06  20647534.604     -112919.742       -3040.721           0.185  
G07  23554632.620     -148525.386       -4018.619           0.157  
G09  23030875.857     -147888.031       -4102.979           0.163  
> 2023 05 18 00 00 51.4688020  0  7                     
G02  24436200.200       12347.886         284.531           0.148  
G03  22295646.637     -121230.429       -3046.273           0.172  
G04  23788188.654     -172773.791       -4798.812           0.154  
G05  22543997.769      -24213.361        -611.963           0.166  
G06  20647611.928     -113223.746       -3038.826           0.185  
G07  23554730.727     -148926.269       -3907.701           0.157  
G09  23030980.587     -148296.969       -3925.693           0.161  
> 2023 05 18 00 00 51.5688020  0  7                     
G02  24436193.786       12376.438         284.688           0.148  
G03  22295723.224     -121539.263       -3088.510           0.172  
G04  23788313.957     -173253.610       -4805.416           0.153  
G05  22544010.676      -24277.212        -641.650           0.168  
G06  20647692.590     -113527.663       -3039.045           0.184  
G07  23554833.975     -149329.200       -4127.492           0.157  
G09  23031090.952     -148707.372       -4085.714           0.160  
> 2023 05 18 00 00 51.6688020  0  7                     
G02  24436181.789       12404.667         282.066           0.148  
G03  22295807.992     -121848.273       -3094.872           0.173  
G04  23788429.092     -173733.731       -4805.594           0.154  
G05  22544023.452      -24341.473        -648.478           0.167  
G06  20647764.769     -113831.906       -3045.829           0.185  
G07  23554936.787     -149730.040       -4017.996           0.157  
G09  23031191.081     -149117.557       -4107.704           0.162  
> 2023 05 18 00 00 51.7688020  0  7                     
G02  24436175.628       12432.359         278.160           0.148  
G03  22295886.314     -122157.749       -3094.789           0.173  
G04  23788551.744     -174214.336       -4805.909           0.155  
G05  22544041.926      -24406.242        -646.978           0.170  
G06  20647842.932     -114136.603       -3047.531           0.185  
G07  23555042.746     -150132.238       -4023.514           0.157  
G09  23031290.564     -149528.033       -4105.418           0.161  
> 2023 05 18 00 00 51.8688020  0  7                     
G02  24436174.753       12460.388         286.350           0.148  
G03  22295963.191     -122466.967       -3087.232           0.170  
G04  23788674.339     -174694.779       -4806.467           0.151  
G05  22544059.443      -24470.751        -643.576           0.167  
G06  20647920.894     -114441.071       -3044.002           0.184  
G07  23555143.700     -150534.194       -4017.139           0.155  
G09  23031398.046     -149938.283       -4103.666           0.160  
> 2023 05 18 00 00 51.9688020  0  7                     
G02  24436167.710       12488.743         287.404           0.146  
G03  22296040.736     -122775.838       -3083.695           0.170  
G04  23788797.793     -175174.751       -4796.940           0.151  
G05  22544076.445      -24534.950        -642.116           0.167  
G06  20647998.211     -114745.179       -3039.220           0.182  
G07  23555243.001     -150935.788       -4013.839           0.155  
G09  23031501.208     -150348.178       -4098.274           0.158  
> 2023 05 18 00 00 52.0688020  0  7                     
G02  24436159.079       12517.284         285.403           0.146  
G03  22296120.346     -123084.520       -3088.778           0.170  
G04  23788918.240     -175654.603       -4803.860           0.154  
G05  22544091.092      -24598.867        -637.711           0.166  
G06  20648074.550     -115049.107       -3041.212           0.185  
G07  23555342.938     -151337.144       -4011.595           0.155  
G09  23031606.772     -150757.875       -4099.018           0.162  
> 2023 05 18 00 00 52.1688020  0  7                     
G02  24436150.659       12545.689         282.127           0.150  
G03  22296199.726     -123393.316       -3086.875           0.173  
G04  23789041.709     -176134.504       -4799.373           0.155  
G05  22544111.669      -24662.985        -641.597           0.170  
G06  20648152.709     -115353.137       -3041.621           0.186  
G07  23555447.092     -151738.758       -4016.991           0.158  
G09  23031711.775     -151167.660       -4097.188           0.163  
> 2023 05 18 00 00 52.2688020  0  7                     
G02  24436145.594       12573.997         275.477           0.150  
G03  22296275.647     -123702.294       -3094.071           0.172  
G04  23789170.171     -176614.576       -4807.143           0.155  
G05  22544124.194      -24727.213        -646.608           0.169  
G06  20648230.552     -115657.312       -3045.630           0.185  
G07  23555549.905     -152140.416       -4021.470           0.159  
G09  23031812.865     -151577.590       -4100.073           0.163  
> 2023 05 18 00 00 52.3688020  0  7                     
G02  24436134.787       12602.015         284.082           0.148  
G03  22296352.486     -124011.527       -3088.181           0.171  
G04  23789290.032     -177094.902       -4799.354           0.155  
G05  22544142.707      -24791.317        -632.659           0.168  
G06  20648307.425     -115961.779       -3039.947           0.184  
G07  23555650.797     -152541.830       -3831.037           0.157  
G09  23031917.940     -151987.849       -4103.239           0.161  
> 2023 05 18 00 00 52.4688020  0  7                     
G02  24436120.600       12630.029         278.760           0.147  
G03  22296433.060     -124320.772       -3094.058           0.169  
G04  23789412.090     -177575.264       -4803.872           0.153  
G05  22544156.421      -24856.214        -650.912           0.166  
G06  20648384.989     -116266.278       -3049.864           0.182  
G07  23555753.815     -152944.338       -4024.264           0.154  
G09  23032025.771     -152398.063       -4106.219           0.159  
> 2023 05 18 00 00 52.5688020  0  7                     
G02  24436118.872       12657.489         273.174           0.148  
G03  22296512.655     -124630.562       -3097.100           0.169  
G04  23789532.292     -178056.193       -4802.924           0.151  
G05  22544169.839      -24921.272        -650.524           0.166  
G06  20648460.515     -116571.271       -3051.265           0.182  
G07  23555851.249     -153346.852       -4022.970           0.156  
G09  23032124.697     -152808.808       -4107.416           0.159  
> 2023 05 18 00 00 52.6688020  0  7                     
G02  24436113.005       12685.011         275.597           0.145  
G03  22296595.912     -124940.315       -3094.393           0.168  
G04  23789654.933     -178537.056       -4803.387           0.151  
G05  22544190.683      -24986.294        -651.001           0.165  
G06  20648544.185     -116876.258       -3049.490           0.182  
G07  23555956.478     -153749.284       -4016.699           0.150  
G09  23032226.084     -153219.552       -4102.949           0.159  
> 2023 05 18 00 00 52.7688020  0  7                     
G02  24436102.865       12712.863         279.565           0.146  
G03  22296674.121     -125249.701       -3125.026           0.170  
G04  23789779.092     -179017.592       -4805.244           0.154  
G05  22544205.121      -25050.054        -542.417           0.166  
G06  20648620.781     -117180.876       -3046.647           0.183  
G07  23556065.544     -154151.470       -4019.606           0.155  
G09  23032335.949     -153629.954       -4103.827           0.160  
> 2023 05 18 00 00 52.8688020  0  7                     
G02  24436097.914       12740.736         266.171           0.149  
G03  22296753.747     -125559.083       -3096.050           0.176  
G04  23789897.249     -179498.033       -4805.450           0.156  
G05  22544222.190      -25115.574        -649.866           0.170  
G06  20648695.357     -117485.466       -3048.259           0.187  
G07  23556165.769     -154553.516       -4020.789           0.159  
G09  23032437.699     -154040.298       -4107.385           0.162  
> 2023 05 18 00 00 52.9688020  0  7                     
G02  24436093.423       12768.653         282.646           0.154  
G03  22296830.157     -125868.484       -3090.616           0.176  
G04  23790021.683     -179978.551       -4806.294           0.159  
G05  22544242.281      -25180.305        -645.551           0.172  
G06  20648772.060     -117790.104       -3045.705           0.189  
G07  23556262.815     -154955.737       -4021.676           0.160  
G09  23032537.075     -154450.698       -4103.045           0.166  
> 2023 05 18 00 00 53.0688020  0  7                     
G02  24436081.738       12796.787         285.237           0.150  
G03  22296907.875     -126177.623       -3086.884           0.172  
G04  23790144.263     -180458.774       -4797.104           0.155  
G05  22544254.472      -25244.641        -641.760           0.172  
G06  20648853.159     -118094.431       -3041.878           0.188  
G07  23556369.759     -155357.476       -4016.576           0.161  
G09  23032645.493     -154860.769       -4098.568           0.163  
> 2023 05 18 00 00 53.1688020  0  7                     
G02  24436077.489       12825.350         285.847           0.149  
G03  22296984.249     -126485.303       -3009.818           0.172  
G04  23790265.995     -180938.637       -4798.344           0.154  
G05  22544271.033      -25308.628        -638.615           0.168  
G06  20648925.939     -118398.380       -3038.740           0.186  
G07  23556465.881     -155758.518       -3830.621           0.156  
G09  23032753.451     -155270.270       -4089.881           0.162  
> 2023 05 18 00 00 53.2688020  0  7                     
G02  24436066.406       12854.077         289.135           0.150  
G03  22297065.967     -126794.889       -3085.938           0.173  
G04  23790387.997     -181418.193       -4793.790           0.155  
G05  22544280.884      -25372.377        -638.298           0.168  
G06  20649004.521     -118702.149       -3039.112           0.186  
G07  23556572.360     -156160.213       -4009.196           0.157  
G09  23032856.638     -155679.982       -4098.005           0.163  
> 2023 05 18 00 00 53.3688020  0  7                     
G02  24436060.747       12882.840         283.107           0.148  
G03  22297148.447     -127103.422       -3084.249           0.171  
G04  23790504.933     -181897.801       -4789.035           0.151  
G05  22544305.318      -25436.171        -636.937           0.169  
G06  20649081.786     -119005.857       -3038.432           0.184  
G07  23556672.826     -156561.448       -4015.520           0.157  
G09  23032961.357     -156089.461       -4095.246           0.160  
> 2023 05 18 00 00 53.4688020  0  7                     
G02  24436049.347       12911.661         287.912           0.146  
G03  22297225.654     -127411.877       -3083.357           0.170  
G04  23790627.565     -182377.330       -4790.175           0.149  
G05  22544319.528      -25499.860        -633.806           0.166  
G06  20649162.198     -119309.552       -3036.997           0.181  
G07  23556778.750     -156962.598       -4012.080           0.154  
G09  23033073.743     -156498.871       -4093.893           0.155  
> 2023 05 18 00 00 53.5688020  0  7                     
G02  24436044.209       12940.548         287.072           0.146  
G03  22297298.474     -127720.358       -3084.946           0.165  
G04  23790752.970     -182856.914       -4797.638           0.145  
G05  22544333.925      -25563.590        -637.488           0.161  
G06  20649236.325     -119613.217       -3035.525           0.179  
G07  23556877.588     -157363.814       -4014.532           0.151  
G09  23033173.347     -156908.275       -4090.536           0.157  
> 2023 05 18 00 00 53.6688020  0  7                     
G02  24436036.392       12969.365         290.305           0.144  
G03  22297372.876     -128028.885       -3083.574           0.167  
G04  23790870.880     -183336.519       -4796.560           0.151  
G05  22544348.947      -25627.372        -638.584           0.163  
G06  20649315.062     -119916.984       -3039.350           0.180  
G07  23556975.424     -157765.005       -4011.169           0.153  
G09  23033276.655     -157317.782       -4098.638           0.157  
> 2023 05 18 00 00 53.7688020  0  7                     
G02  24436029.256       12997.874         284.276           0.146  
G03  22297455.145     -128337.599       -3084.360           0.167  
G04  23790996.252     -183816.374       -4794.486           0.149  
G05  22544362.647      -25691.369        -638.042           0.163  
G06  20649387.636     -120220.931       -3038.134           0.180  
G07  23557077.002     -158166.482       -4013.268           0.153  
G09  23033377.529     -157727.446       -4097.119           0.158  
> 2023 05 18 00 00 53.8688020  0  7                     
G02  24436018.335       13026.297         283.442           0.145  
G03  22297527.418     -128646.528       -3089.809           0.170  
G04  23791117.552     -184296.335       -4802.899           0.152  
G05  22544387.422      -25755.533        -643.001           0.164  
G06  20649466.211     -120525.061       -3040.627           0.182  
G07  23557177.843     -158568.052       -4016.699           0.155  
G09  23033480.714     -158136.371       -3938.415           0.159  
> 2023 05 18 00 00 53.9688020  0  7                     
G02  24436011.656       13054.581         278.551           0.149  
G03  22297612.970     -128955.564       -3090.746           0.171  
G04  23791243.404     -184776.414       -4799.537           0.151  
G05  22544400.047      -25819.775        -639.419           0.167  
G06  20649543.469     -120829.289       -3039.592           0.184  
G07  23557287.093     -158969.806       -4019.445           0.155  
G09  23033585.136     -158547.243       -4096.900           0.161  
> 2023 05 18 00 00 54.0688020  0  7                     
G02  24436005.909       13082.955         288.525           0.148  
G03  22297689.160     -129264.548       -3089.883           0.170  
G04  23791363.308     -185256.515       -4802.570           0.154  
G05  22544414.546      -25884.028        -643.385           0.168  
G06  20649619.284     -121133.508       -3041.913           0.184  
G07  23557387.393     -159371.460       -4014.032           0.156  
G09  23033686.407     -158957.188       -4096.879           0.161  
> 2023 05 18 00 00 54.1688020  0  7                     
G02  24436000.887       13111.078         282.584           0.146  
G03  22297771.663     -129573.738       -3096.933           0.170  
G04  23791484.687     -185736.693       -4803.554           0.150  
G05  22544431.151      -25948.384        -646.044           0.165  
G06  20649700.098     -121437.849       -3044.791           0.181  
G07  23557490.727     -159773.357       -4022.776           0.154  
G09  23033791.848     -159367.279       -4099.172           0.158  
> 2023 05 18 00 00 54.2688020  0  7                     
G02  24435986.393       13139.068         279.146           0.143  
G03  22297846.348     -129883.086       -3097.554           0.166  
G04  23791608.895     -186217.084       -4807.928           0.146  
G05  22544449.116      -26012.959        -646.256           0.164  
G06  20649774.192     -121742.437       -3049.269           0.179  
G07  23557592.784     -160175.377       -4023.751           0.150  
G09  23033895.068     -159777.524       -4104.913           0.157  
> 2023 05 18 00 00 54.3688020  0  7                     
G02  24435979.189       13167.008         282.397           0.143  
G03  22297928.677     -130192.436       -3092.360           0.166  
G04  23791736.978     -186697.618       -4805.906           0.148  
G05  22544460.503      -26077.606        -648.218           0.164  
G06  20649853.305     -122047.056       -3048.317           0.179  
G07  23557693.795     -160577.460       -4016.042           0.151  
G09  23034001.506     -160187.870       -4105.162           0.157  
> 2023 05 18 00 00 54.4688020  0  7                     
G02  24435971.372       13195.052         281.798           0.145  
G03  22298009.092     -130501.768       -3091.560           0.168  
G04  23791856.494     -187177.984       -4806.291           0.148  
G05  22544481.944      -26142.179        -648.517           0.164  
G06  20649932.593     -122351.563       -3044.898           0.180  
G07  23557795.946     -160979.486       -4018.303           0.153  
G09  23034104.981     -160598.150       -4103.824           0.157  
> 2023 05 18 00 00 54.5688020  0  7                     
G02  24435968.918       13223.167         278.770           0.145  
G03  22298083.097     -130810.986       -3092.104           0.168  
G04  23791980.552     -187658.146       -4797.641           0.150  
G05  22544494.196      -26206.584        -643.993           0.164  
G06  20650010.338     -122655.948       -3042.196           0.181  
G07  23557901.582     -161381.384       -4015.484           0.151  
G09  23034213.184     -161008.203       -4101.874           0.158  
> 2023 05 18 00 00 54.6688020  0  7                     
G02  24435958.615       13251.510         283.688           0.147  
G03  22298155.851     -131120.010       -3090.644           0.168  
G04  23792092.915     -188138.233       -4796.264           0.152  
G05  22544507.908      -26270.800        -641.197           0.166  
G06  20650086.582     -122960.190       -3041.490           0.183  
G07  23558005.164     -161783.049       -4014.660           0.155  
G09  23034314.577     -161418.187       -4102.221           0.160  
> 2023 05 18 00 00 54.7688020  0  7                     
G02  24435951.512       13279.848         282.767           0.148  
G03  22298239.146     -131429.002       -3090.277           0.168  
G04  23792215.078     -188618.344       -4803.285           0.151  
G05  22544526.924      -26335.067        -641.161           0.166  
G06  20650165.066     -123264.415       -3042.362           0.182  
G07  23558099.423     -162184.741       -4016.328           0.156  
G09  23034420.394     -161828.104       -4099.150           0.159  
> 2023 05 18 00 00 54.8688020  0  7                     
G02  24435949.393       13308.119         284.173           0.147  
G03  22298318.181     -131738.107       -3094.099           0.168  
G04  23792338.801     -189098.449       -4800.804           0.147  
G05  22544542.783      -26399.341        -643.820           0.165  
G06  20650238.495     -123568.681       -3042.987           0.181  
G07  23558206.318     -162586.479       -4011.925           0.153  
G09  23034522.841     -162238.074       -4099.307           0.156  
> 2023 05 18 00 00 54.9688020  0  7                     
G02  24435938.002       13336.350         284.572           0.145  
G03  22298396.849     -132047.264       -3093.644           0.167  
G04  23792454.789     -189578.637       -4805.256           0.151  
G05  22544558.999      -26463.723        -642.775           0.164  
G06  20650322.715     -123873.064       -3045.963           0.180  
G07  23558313.074     -162988.350       -4016.586           0.154  
G09  23034626.579     -162648.154       -4105.981           0.157  
> 2023 05 18 00 00 55.0688020  0  7                     
G02  24435931.139       13364.576         282.808           0.144  
G03  22298476.723     -132356.364       -3090.199           0.167  
G04  23792584.999     -190058.745       -4797.122           0.149  
G05  22544576.293      -26528.036        -643.406           0.164  
G06  20650397.169     -124177.380       -3044.965           0.181  
G07  23558409.635     -163390.141       -4012.775           0.152  
G09  23034730.155     -163058.156       -4102.309           0.156  
> 2023 05 18 00 00 55.1688020  0  7                     
G02  24435937.442       13392.967         283.369           0.142  
G03  22298556.169     -132665.324       -3090.868           0.169  
G04  23792709.616     -190538.728       -4796.927           0.150  
G05  22544590.920      -26591.516        -598.351           0.164  
G06  20650474.452     -124481.505       -3042.394           0.180  
G07  23558517.434     -163791.883       -4104.889           0.153  
G09  23034838.433     -163467.988       -4095.423           0.158  
> 2023 05 18 00 00 55.2688020  0  7                     
G02  24435920.994       13421.404         277.979           0.144  
G03  22298636.044     -132974.298       -3089.131           0.170  
G04  23792828.176     -191018.736       -4803.273           0.152  
G05  22544610.375      -26656.400        -643.932           0.164  
G06  20650548.678     -124785.681       -3042.095           0.182  
G07  23558612.063     -164193.431       -4017.507           0.156  
G09  23034939.765     -163877.876       -4096.366           0.160  
> 2023 05 18 00 00 55.3688020  0  7                     
G02  24435905.553       13449.753         281.810           0.146  
G03  22298709.710     -133283.352       -3088.623           0.170  
G04  23792944.738     -191498.768       -4799.424           0.153  
G05  22544624.582      -26720.673        -644.042           0.166  
G06  20650629.831     -125089.930       -3040.575           0.183  
G07  23558715.726     -164595.087       -4006.639           0.154  
G09  23035040.001     -164287.780       -4095.501           0.158  
> 2023 05 18 00 00 55.4688020  0  7                     
G02  24435900.252       13478.204         292.682           0.145  
G03  22298794.657     -133592.340       -3088.245           0.168  
G04  23793072.390     -191978.774       -4798.531           0.152  
G05  22544644.167      -26784.834        -640.845           0.167  
G06  20650706.042     -125394.099       -3039.930           0.183  
G07  23558816.147     -164996.825       -4014.982           0.155  
G09  23035147.452     -164697.928       -4127.176           0.158  
> 2023 05 18 00 00 55.5688020  0  7                     
G02  24435893.623       13506.653         284.601           0.147  
G03  22298866.625     -133901.277       -3089.330           0.168  
G04  23793192.611     -192458.695       -4800.846           0.150  
G05  22544661.767      -26848.381        -664.296           0.165  
G06  20650783.023     -125698.187       -3040.313           0.181  
G07  23558923.075     -165399.347       -4240.095           0.152  
G09  23035250.041     -165106.412       -3839.304           0.155  
> 2023 05 18 00 00 55.6688020  0  7                     
G02  24435891.198       13534.977         278.531           0.144  
G03  22298946.484     -134210.281       -3090.101           0.168  
G04  23793314.946     -192938.712       -4803.096           0.151  
G05  22544675.795      -26913.143        -644.830           0.163  
G06  20650859.620     -126002.390       -3042.371           0.181  
G07  23559023.421     -165800.068       -4017.039           0.152  
G09  23035355.133     -165517.300       -4097.576           0.157  
> 2023 05 18 00 00 55.7688020  0  7                     
G02  24435886.906       13563.372         278.031           0.144  
G03  22299027.978     -134519.311       -3086.857           0.168  
G04  23793436.421     -193418.758       -4801.138           0.150  
G05  22544690.176      -26977.431        -645.519           0.165  
G06  20650938.355     -126306.636       -3040.419           0.180  
G07  23559126.673     -166201.795       -4013.899           0.152  
G09  23035460.088     -165927.239       -4096.887           0.158  
> 2023 05 18 00 00 55.8688020  0  7                     
G02  24435873.491       13591.770         284.957           0.145  
G03  22299101.670     -134828.329       -3089.462           0.169  
G04  23793559.994     -193898.763       -4801.008           0.151  
G05  22544706.472      -27041.609        -640.794           0.164  
G06  20651013.517     -126610.834       -3041.491           0.181  
G07  23559230.711     -166604.825       -4126.905           0.153  
G09  23035567.313     -166337.166       -4098.115           0.158  
> 2023 05 18 00 00 55.9688020  0  7                     
G02  24435865.984       13620.259         285.794           0.149  
G03  22299184.227     -135137.286       -3086.610           0.170  
G04  23793682.438     -194378.692       -4800.943           0.152  
G05  22544724.358      -27105.770        -641.723           0.165  
G06  20651089.713     -126914.980       -3041.221           0.183  
G07  23559332.027     -167005.113       -4015.870           0.155  
G09  23035674.390     -166746.923       -4095.938           0.160  
> 2023 05 18 00 00 56.0688020  0  7                     
G02  24435858.980       13648.759         290.141           0.148  
G03  22299265.113     -135446.157       -3083.365           0.170  
G04  23793811.382     -194858.571       -4796.872           0.151  
G05  22544736.012      -27169.846        -642.297           0.167  
G06  20651170.776     -127219.037       -3040.282           0.184  
G07  23559430.004     -167406.662       -4018.080           0.156  
G09  23035781.709     -167156.686       -4094.485           0.160  
> 2023 05 18 00 00 56.1688020  0  7                     
G02  24435857.520       13677.160         284.831           0.144  
G03  22299339.065     -135755.249       -3090.736           0.169  
G04  23793929.321     -195338.628       -4800.099           0.152  
G05  22544749.545      -27234.077        -645.561           0.166  
G06  20651248.812     -127523.271       -3040.878           0.181  
G07  23559536.382     -167808.341       -4018.793           0.155  
G09  23035882.399     -167566.609       -4100.312           0.158  
> 2023 05 18 00 00 56.2688020  0  7                     
G02  24435850.668       13704.895         277.262           0.146  
G03  22299420.404     -136064.902       -3099.157           0.169  
G04  23794052.220     -195819.259       -4804.835           0.151  
G05  22544766.040      -27298.869        -650.886           0.164  
G06  20651327.432     -127828.115       -3051.423           0.180  
G07  23559634.272     -168210.648       -4022.006           0.153  
G09  23035981.700     -167977.064       -4107.499           0.157  
> 2023 05 18 00 00 56.3688020  0  7                     
G02  24435831.569       13732.804         277.287           0.143  
G03  22299494.455     -136374.410       -3095.064           0.167  
G04  23794171.261     -196299.759       -4801.342           0.150  
G05  22544784.607      -27363.567        -643.192           0.163  
G06  20651402.241     -128132.840       -3044.199           0.181  
G07  23559740.187     -168612.891       -4023.517           0.151  
G09  23036085.147     -168387.461       -4098.063           0.159  
> 2023 05 18 00 00 56.4688020  0  7                     
G02  24435822.152       13761.188         283.869           0.145  
G03  22299576.121     -136683.452       -3090.339           0.167  
G04  23794295.587     -196779.833       -4798.792           0.150  
G05  22544802.382      -27427.804        -639.843           0.165  
G06  20651478.712     -128437.069       -3042.150           0.181  
G07  23559837.526     -169014.521       -4014.130           0.154  
G09  23036195.014     -168797.361       -4096.710           0.160  
> 2023 05 18 00 00 56.5688020  0  7                     
G02  24435824.133       13789.710         277.852           0.146  
G03  22299655.772     -136992.348       -3089.593           0.168  
G04  23794419.027     -197259.666       -4801.573           0.151  
G05  22544820.930      -27491.887        -640.898           0.166  
G06  20651552.944     -128741.129       -3041.703           0.182  
G07  23559941.638     -169416.097       -4014.189           0.152  
G09  23036299.735     -169207.095       -4099.010           0.158  
> 2023 05 18 00 00 56.6688020  0  7                     
G02  24435810.931       13818.267         282.403           0.146  
G03  22299731.610     -137301.318       -3089.653           0.170  
G04  23794540.112     -197739.626       -4803.154           0.152  
G05  22544832.514      -27556.031        -641.399           0.167  
G06  20651631.504     -129045.283       -3043.495           0.183  
G07  23560037.762     -169817.695       -4014.223           0.156  
G09  23036396.614     -169616.879       -4102.283           0.160  
> 2023 05 18 00 00 56.7688020  0  7                     
G02  24435805.206       13846.561         282.751           0.146  
G03  22299816.320     -137609.770       -3018.374           0.170  
G04  23794659.236     -198219.681       -4801.075           0.155  
G05  22544851.050      -27620.323        -641.687           0.166  
G06  20651709.370     -129349.568       -3041.285           0.183  
G07  23560143.895     -170220.194       -3992.575           0.154  
G09  23036504.380     -170027.547       -4214.135           0.159  
> 2023 05 18 00 00 56.8688020  0  7                     
G02  24435806.411       13874.805         277.770           0.148  
G03  22299888.100     -137919.647       -3095.741           0.168  
G04  23794783.590     -198699.844       -4803.134           0.151  
G05  22544867.602      -27684.744        -646.672           0.165  
G06  20651787.544     -129653.985       -3045.374           0.182  
G07  23560244.687     -170621.340       -4018.542           0.156  
G09  23036611.538     -170436.911       -4105.169           0.158  
> 2023 05 18 00 00 56.9688020  0  7                     
G02  24435789.175       13902.974         283.076           0.146  
G03  22299970.453     -138228.952       -3093.707           0.168  
G04  23794897.793     -199180.088       -4795.077           0.149  
G05  22544882.092      -27749.220        -644.104           0.165  
G06  20651865.744     -129958.449       -3044.054           0.181  
G07  23560352.554     -171023.321       -4019.858           0.151  
G09  23036711.048     -170847.030       -4099.448           0.158  
> 2023 05 18 00 00 57.0688020  0  7                     
G02  24435786.878       13931.258         293.944           0.143  
G03  22300048.613     -138538.112       -3091.092           0.169  
G04  23795025.187     -199660.235       -4797.608           0.149  
G05  22544897.644      -27813.543        -645.173           0.164  
G06  20651942.941     -130262.787       -3043.484           0.182  
G07  23560456.480     -171425.048       -4012.686           0.152  
G09  23036820.690     -171256.996       -4095.523           0.157  
> 2023 05 18 00 00 57.1688020  0  7                     
G02  24435777.942       13959.491         286.084           0.143  
G03  22300125.713     -138847.488       -3152.826           0.169  
G04  23795150.772     -200140.479       -4799.164           0.150  
G05  22544912.453      -27877.943        -635.456           0.164  
G06  20652014.827     -130567.205       -3046.321           0.180  
G07  23560554.907     -171827.025       -4020.883           0.155  
G09  23036927.136     -171667.288       -4136.692           0.157  
> 2023 05 18 00 00 57.2688020  0  7                     
G02  24435774.973       13987.654         285.765           0.146  
G03  22300205.376     -139156.701       -3092.620           0.168  
G04  23795273.308     -200620.783       -4807.391           0.152  
G05  22544930.775      -27942.432        -642.884           0.165  
G06  20652095.744     -130871.721       -3045.122           0.182  
G07  23560661.399     -172228.933       -4020.247           0.154  
G09  23037024.034     -172077.213       -4100.629           0.159  
> 2023 05 18 00 00 57.3688020  0  7                     
G02  24435763.011       14015.907         283.735           0.148  
G03  22300286.686     -139465.881       -3089.161           0.168  
G04  23795396.988     -201100.882       -4803.705           0.153  
G05  22544948.776      -28006.780        -640.790           0.166  
G06  20652171.925     -131176.081       -3042.536           0.183  
G07  23560761.060     -172630.781       -4013.968           0.155  
G09  23037132.698     -172487.202       -4098.571           0.160  
> 2023 05 18 00 00 57.4688020  0  7                     
G02  24435747.559       14044.399         285.000           0.145  
G03  22300362.210     -139774.878       -3091.040           0.168  
G04  23795519.578     -201580.790       -4799.915           0.151  
G05  22544963.880      -28070.906        -641.889           0.164  
G06  20652251.303     -131480.231       -3042.142           0.182  
G07  23560858.956     -173032.390       -4018.503           0.154  
G09  23037238.135     -172897.003       -4095.933           0.157  
> 2023 05 18 00 00 57.5688020  0  7                     
G02  24435748.695       14072.854         286.052           0.145  
G03  22300437.430     -140083.239       -3092.562           0.167  
G04  23795644.024     -202060.777       -4802.438           0.149  
G05  22544975.507      -28135.121        -640.989           0.164  
G06  20652330.130     -131784.433       -3043.767           0.180  
G07  23560963.060     -173434.131       -4014.802           0.154  
G09  23037338.454     -173306.850       -4095.568           0.158  
> 2023 05 18 00 00 57.6688020  0  7                     
G02  24435745.157       14101.299         290.496           0.144  
G03  22300514.570     -140392.970       -3090.239           0.167  
G04  23795766.119     -202540.730       -4798.675           0.150  
G05  22544996.490      -28199.301        -640.481           0.162  
G06  20652405.842     -132088.640       -3040.737           0.180  
G07  23561066.814     -173835.794       -4017.680           0.152  
G09  23037442.631     -173716.732       -4099.708           0.155  
> 2023 05 18 00 00 57.7688020  0  7                     
G02  24435727.423       14129.846         288.894           0.143  
G03  22300592.258     -140701.869       -3084.939           0.167  
G04  23795881.763     -203020.588       -4796.218           0.148  
G05  22545011.824      -28263.373        -638.204           0.164  
G06  20652478.414     -132392.740       -3041.178           0.180  
G07  23561170.240     -174237.288       -4012.520           0.153  
G09  23037550.645     -174126.458       -4101.292           0.155  
> 2023 05 18 00 00 57.8688020  0  7                     
G02  24435726.530       14158.364         282.149           0.145  
G03  22300674.643     -141010.889       -3093.345           0.168  
G04  23796002.016     -203500.474       -4799.801           0.150  
G05  22545030.127      -28327.492        -643.869           0.162  
G06  20652558.424     -132696.886       -3044.346           0.181  
G07  23561273.117     -174638.920       -4021.002           0.152  
G09  23037650.717     -174536.138       -4099.020           0.156  
> 2023 05 18 00 00 57.9688020  0  7                     
G02  24435726.754       14186.716         280.153           0.146  
G03  22300750.943     -141320.011       -3090.470           0.168  
G04  23796124.095     -203980.585       -4801.583           0.150  
G05  22545042.004      -28391.815        -644.465           0.165  
G06  20652638.591     -133001.202       -3043.420           0.182  
G07  23561378.440     -175040.662       -4010.471           0.153  
G09  23037756.477     -174946.113       -4098.483           0.159  
> 2023 05 18 00 00 58.0688020  0  7                     
G02  24435711.275       14215.036         282.373           0.143  
G03  22300831.961     -141629.267       -3091.809           0.168  
G04  23796247.585     -204460.754       -4800.912           0.151  
G05  22545058.851      -28456.187        -645.543           0.164  
G06  20652715.443     -133305.586       -3041.771           0.180  
G07  23561466.519     -175442.569       -4020.335           0.154  
G09  23037863.719     -175356.146       -4097.881           0.157  
> 2023 05 18 00 00 58.1688020  0  7                     
G02  24435707.524       14243.153         287.927           0.142  
G03  22300909.937     -141938.639       -3092.306           0.166  
G04  23796367.358     -204941.014       -4800.658           0.150  
G05  22545077.384      -28520.697        -644.555           0.164  
G06  20652792.418     -133610.146       -3045.756           0.179  
G07  23561576.463     -175844.543       -4021.301           0.152  
G09  23037964.867     -175766.273       -4099.033           0.155  
> 2023 05 18 00 00 58.2688020  0  7                     
G02  24435697.820       14271.340         280.068           0.142  
G03  22300985.464     -142247.969       -3093.687           0.166  
G04  23796493.071     -205421.231       -4800.988           0.150  
G05  22545093.638      -28585.158        -643.228           0.165  
G06  20652866.985     -133914.598       -3044.776           0.179  
G07  23561682.386     -176246.486       -4015.396           0.152  
G09  23038067.858     -176176.340       -4098.796           0.155  
> 2023 05 18 00 00 58.3688020  0  7                     
G02  24435683.355       14299.613         284.018           0.144  
G03  22301068.565     -142556.491       -3035.350           0.166  
G04  23796616.651     -205901.426       -4804.353           0.150  
G05  22545106.229      -28650.250        -639.231           0.163  
G06  20652948.610     -134219.050       -3044.508           0.180  
G07  23561778.346     -176647.858       -3847.105           0.151  
G09  23038172.075     -176586.723       -4080.205           0.156  
> 2023 05 18 00 00 58.4688020  0  7                     
G02  24435682.650       14327.830         281.501           0.144  
G03  22301153.307     -142866.492       -3092.128           0.166  
G04  23796736.818     -206381.627       -4805.164           0.152  
G05  22545131.808      -28713.999        -641.360           0.163  
G06  20653022.260     -134523.511       -3045.492           0.181  
G07  23561884.830     -177050.335       -4016.637           0.152  
G09  23038274.424     -176996.472       -4098.260           0.158  
> 2023 05 18 00 00 58.5688020  0  7                     
G02  24435675.002       14356.043         278.088           0.146  
G03  22301229.693     -143175.769       -3094.730           0.166  
G04  23796860.931     -206861.827       -4804.271           0.152  
G05  22545144.670      -28778.418        -643.225           0.165  
G06  20653104.229     -134827.917       -3046.097           0.181  
G07  23561981.329     -177452.248       -4019.944           0.153  
G09  23038375.060     -177406.524       -4097.046           0.156  
> 2023 05 18 00 00 58.6688020  0  7                     
G02  24435669.240       14384.372         283.991           0.145  
G03  22301305.193     -143485.034       -3093.718           0.167  
G04  23796979.830     -207341.883       -4799.741           0.149  
G05  22545158.930      -28842.767        -642.333           0.165  
G06  20653180.846     -135132.313       -3041.430           0.180  
G07  23562088.829     -177854.058       -4013.818           0.152  
G09  23038487.707     -177816.512       -4101.258           0.155  
> 2023 05 18 00 00 58.7688020  0  7                     
G02  24435663.981       14412.766         280.624           0.143  
G03  22301379.002     -143794.174       -3096.323           0.168  
G04  23797099.470     -207821.945       -4802.218           0.148  
G05  22545169.542      -28907.039        -645.339           0.164  
G06  20653259.465     -135436.612       -3045.020           0.179  
G07  23562182.497     -178255.853       -4018.162           0.152  
G09  23038594.086     -178226.432       -4101.756           0.157  
> 2023 05 18 00 00 58.8688020  0  7                     
G02  24435653.479       14441.048         279.378           0.145  
G03  22301459.006     -144103.422       -3089.830           0.166  
G04  23797226.095     -208302.156       -4804.374           0.151  
G05  22545186.555      -28971.421        -642.233           0.163  
G06  20653335.402     -135741.032       -3045.070           0.181  
G07  23562286.369     -178657.766       -4019.990           0.150  
G09  23038691.293     -178636.452       -4100.908           0.155  
> 2023 05 18 00 00 58.9688020  0  7                     
G02  24435641.527       14469.546         285.420           0.145  
G03  22301538.338     -144412.515       -3091.946           0.166  
G04  23797347.456     -208782.108       -4802.353           0.151  
G05  22545205.412      -29035.651        -644.836           0.163  
G06  20653411.603     -136045.274       -3043.005           0.181  
G07  23562393.123     -179059.424       -4017.841           0.153  
G09  23038795.478     -179046.248       -4097.099           0.158  
> 2023 05 18 00 00 59.0688020  0  7                     
G02  24435640.375       14497.771         283.171           0.147  
G03  22301614.212     -144721.794       -3096.648           0.168  
G04  23797467.957     -209262.235       -4804.335           0.151  
G05  22545224.081      -29100.027        -643.585           0.164  
G06  20653487.643     -136349.701       -3048.832           0.181  
G07  23562497.706     -179461.336       -4024.687           0.152  
G09  23038902.613     -179456.298       -4101.468           0.161  
> 2023 05 18 00 00 59.1688020  0  7                     
G02  24435622.873       14526.013         283.282           0.144  
G03  22301697.083     -145031.095       -3092.711           0.167  
G04  23797591.555     -209742.447       -4792.983           0.150  
G05  22545238.049      -29164.490        -643.230           0.164  
G06  20653568.018     -136654.174       -3040.921           0.180  
G07  23562600.592     -179863.217       -4017.661           0.153  
G09  23039010.607     -179866.366       -4098.273           0.158  
> 2023 05 18 00 00 59.2688020  0  7                     
G02  24435620.077       14554.521         288.440           0.142  
G03  22301774.645     -145340.272       -3092.097           0.166  
G04  23797712.428     -210222.538       -4804.224           0.148  
G05  22545251.635      -29228.729        -642.241           0.164  
G06  20653645.421     -136958.491       -3043.352           0.180  
G07  23562702.063     -180264.991       -4014.867           0.153  
G09  23039108.020     -180276.237       -4100.002           0.157  
> 2023 05 18 00 00 59.3688020  0  7                     
G02  24435609.356       14582.919         288.993           0.142  
G03  22301855.693     -145649.393       -3091.719           0.166  
G04  23797837.386     -210702.526       -4803.937           0.150  
G05  22545276.567      -29292.985        -641.616           0.163  
G06  20653724.880     -137262.776       -3041.424           0.180  
G07  23562810.864     -180666.719       -4014.649           0.151  
G09  23039214.980     -180686.117       -4098.168           0.158  
> 2023 05 18 00 00 59.4688020  0  7                     
G02  24435608.921       14611.355         279.968           0.145  
G03  22301931.526     -145958.477       -3091.533           0.167  
G04  23797951.827     -211182.490       -4800.822           0.150  
G05  22545292.816      -29357.693        -697.614           0.163  
G06  20653798.908     -137567.043       -3043.634           0.180  
G07  23562904.603     -181068.476       -4017.239           0.152  
G09  23039321.317     -181096.014       -4101.528           0.155  
> 2023 05 18 00 00 59.5688020  0  7                     
G02  24435599.430       14639.672         279.526           0.144  
G03  22302016.076     -146267.678       -3093.505           0.167  
G04  23798079.987     -211662.556       -4800.045           0.151  
G05  22545308.023      -29421.513        -644.774           0.164  
G06  20653875.323     -137871.357       -3040.472           0.180  
G07  23563010.237     -181470.272       -4024.739           0.153  
G09  23039424.889     -181505.902       -4100.090           0.157  
> 2023 05 18 00 00 59.6688020  0  7                     
G02  24435589.518       14668.018         288.171           0.146  
G03  22302090.882     -146577.006       -3094.069           0.168  
G04  23798202.485     -212142.733       -4799.414           0.151  
G05  22545319.153      -29485.888        -643.789           0.164  
G06  20653951.597     -138175.827       -3044.758           0.181  
G07  23563110.327     -181872.118       -4012.353           0.155  
G09  23039531.701     -181915.903       -4098.322           0.155  
> 2023 05 18 00 00 59.7688020  0  7                     
G02  24435583.213       14696.216         286.641           0.143  
G03  22302168.531     -146886.399       -3096.836           0.166  
G04  23798324.781     -212622.975       -4797.645           0.148  
G05  22545338.249      -29550.393        -642.134           0.164  
G06  20654029.090     -138480.355       -3044.419           0.181  
G07  23563215.082     -182274.200       -4022.054           0.153  
G09  23039629.904     -182326.009       -4101.279           0.156  
> 2023 05 18 00 00 59.8688020  0  7                     
G02  24435574.232       14724.514         289.854           0.144  
G03  22302245.056     -147195.635       -3092.862           0.167  
G04  23798446.210     -213103.090       -4793.136           0.147  
G05  22545353.595      -29614.789        -641.613           0.162  
G06  20654106.633     -138784.808       -3045.083           0.180  
G07  23563311.894     -182676.017       -4014.569           0.151  
G09  23039733.074     -182736.040       -4101.757           0.156  
> 2023 05 18 00 00 59.9688020  0  7                     
G02  24435564.012       14752.796         282.442           0.144  
G03  22302325.899     -147505.016       -3076.812           0.167  
G04  23798568.401     -213583.254       -4804.587           0.150  
G05  22545366.211      -29679.523        -669.395           0.164  
G06  20654182.738     -139089.231       -3046.778           0.179  
G07  23563409.882     -183076.305       -3842.247           0.150  
G09  23039838.737     -183145.961       -4096.723           0.154  
> 2023 05 18 00 01 00.0688020  0  7                     
G02  24435562.938       14781.141         286.178           0.143  
G03  22302406.189     -147814.278       -3093.581           0.165  
G04  23798693.908     -214063.365       -4800.103           0.148  
G05  22545386.121      -29743.577        -643.272           0.164  
G06  20654262.684     -139393.677       -3043.570           0.179  
G07  23563520.247     -183479.812       -4024.535           0.152  
G09  23039947.006     -183556.042       -4098.517           0.156  
> 2023 05 18 00 01 00.1688020  0  7                     
G02  24435549.884       14809.515         284.985           0.145  
G03  22302485.084     -148123.424       -3090.246           0.168  
G04  23798814.987     -214543.363       -4791.825           0.149  
G05  22545407.745      -29807.869        -640.772           0.165  
G06  20654337.463     -139697.996       -3042.175           0.181  
G07  23563620.671     -183881.627       -4020.360           0.151  
G09  23040053.756     -183965.909       -4095.241           0.157  
> 2023 05 18 00 01 00.2688020  0  7                     
G02  24435551.824       14838.115         292.039           0.143  
G03  22302559.351     -148432.467       -3089.705           0.166  
G04  23798942.962     -215023.253       -4794.024           0.150  
G05  22545418.130      -29871.981        -637.659           0.163  
G06  20654416.187     -140002.209       -3041.330           0.180  
G07  23563723.636     -184283.200       -4013.448           0.153  
G09  23040159.472     -184375.903       -4000.847           0.157  
> 2023 05 18 00 01 00.3688020  0  7                     
G02  24435533.855       14866.510         286.990           0.144  
G03  22302640.366     -148741.674       -3092.444           0.166  
G04  23799059.709     -215503.393       -4808.646           0.149  
G05  22545436.746      -29936.291        -639.903           0.163  
G06  20654493.998     -140306.534       -3042.371           0.179  
G07  23563820.872     -184685.031       -4014.646           0.151  
G09  23040261.548     -184785.566       -4096.560           0.156  
> 2023 05 18 00 01 00.4688020  0  7                     
G02  24435531.954       14894.685         278.427           0.142  
G03  22302718.321     -149051.066       -3093.730           0.167  
G04  23799177.875     -215983.536       -4799.510           0.148  
G05  22545448.075      -30000.768        -643.159           0.162  
G06  20654571.650     -140611.035       -3045.002           0.180  
G07  23563926.931     -185086.967       -4018.418           0.151  
G09  23040368.483     -185195.637       -4097.581           0.156  
> 2023 05 18 00 01 00.5688020  0  7                     
G02  24435525.868       14923.244         286.233           0.143  
G03  22302795.875     -149360.161       -3089.130           0.167  
G04  23799302.868     -216463.491       -4795.606           0.149  
G05  22545470.298      -30065.024        -645.794           0.164  
G06  20654650.221     -140915.312       -3043.789           0.179  
G07  23564025.289     -185488.663       -4018.315           0.153  
G09  23040469.891     -185605.489       -4096.388           0.154  
> 2023 05 18 00 01 00.6688020  0  7                     
G02  24435524.001       14951.790         281.519           0.146  
G03  22302880.336     -149669.249       -3093.615           0.167  
G04  23799421.542     -216943.354       -4804.179           0.148  
G05  22545483.652      -30130.720        -751.739           0.163  
G06  20654730.618     -141219.486       -3042.541           0.181  
G07  23564126.051     -185890.747       -4004.060           0.152  
G09  23040573.537     -186015.181       -4094.332           0.157  
> 2023 05 18 00 01 00.7688020  0  7                     
G02  24435511.065       14980.058         279.262           0.144  
G03  22302951.305     -149978.639       -3101.500           0.167  
G04  23799543.533     -217423.587       -4803.066           0.149  
G05  22545498.500      -30193.610        -648.961           0.164  
G06  20654801.479     -141524.020       -3051.043           0.180  
G07  23564237.647     -186292.301       -4025.120           0.152  
G09  23040679.069     -186425.295       -4101.199           0.156  
> 2023 05 18 00 01 00.8688020  0  7                     
G02  24435502.272       15007.572         278.288           0.144  
G03  22303034.917     -150288.738       -3101.957           0.166  
G04  23799664.129     -217904.505       -4804.647           0.148  
G05  22545516.951      -30258.799        -654.428           0.164  
G06  20654882.036     -141829.272       -3052.563           0.180  
G07  23564333.385     -186694.977       -4023.557           0.151  
G09  23040779.149     -186836.116       -4105.878           0.158  
> 2023 05 18 00 01 00.9688020  0  7                     
G02  24435494.898       15035.388         282.022           0.144  
G03  22303109.777     -150598.575       -3097.243           0.166  
G04  23799791.637     -218385.148       -4808.046           0.150  
G05  22545531.605      -30323.673        -647.578           0.163  
G06  20654961.412     -142134.228       -3048.173           0.179  
G07  23564440.238     -187097.376       -4022.109           0.152  
G09  23040881.379     -187246.629       -4104.197           0.156  
> 2023 05 18 00 01 01.0688020  0  7                     
G02  24435484.731       15063.326         275.733           0.144  
G03  22303188.584     -150908.262       -3097.741           0.167  
G04  23799911.648     -218865.722       -4807.289           0.149  
G05  22545548.897      -30388.423        -646.126           0.164  
G06  20655039.533     -142439.044       -3045.685           0.179  
G07  23564543.553     -187499.615       -4024.068           0.150  
G09  23040987.711     -187657.000       -4105.010           0.155  
> 2023 05 18 00 01 01.1688020  0  7                     
G02  24435477.279       15091.333         278.987           0.142  
G03  22303263.218     -151217.872       -3095.282           0.167  
G04  23800035.175     -219346.107       -4801.902           0.149  
G05  22545562.701      -30453.156        -644.790           0.162  
G06  20655116.443     -142743.805       -3044.260           0.179  
G07  23564638.350     -187901.860       -4022.950           0.152  
G09  23041091.326     -188067.287       -4102.523           0.158  
> 2023 05 18 00 01 01.2688020  0  7                     
G02  24435475.264       15119.387         278.197           0.144  
G03  22303346.245     -151527.458       -3090.062           0.166  
G04  23800152.817     -219826.476       -4799.414           0.150  
G05  22545585.404      -30517.839        -645.381           0.163  
G06  20655191.800     -143048.519       -3043.184           0.180  
G07  23564746.870     -188303.993       -4017.406           0.152  
G09  23041198.285     -188477.540       -4102.140           0.156  
> 2023 05 18 00 01 01.3688020  0  7                     
G02  24435477.364       15147.533         279.934           0.143  
G03  22303425.526     -151837.072       -3093.877           0.166  
G04  23800276.131     -220306.864       -4803.860           0.150  
G05  22545600.006      -30582.477        -645.959           0.164  
G06  20655268.572     -143353.225       -3047.619           0.180  
G07  23564843.641     -188706.182       -4021.903           0.153  
G09  23041299.533     -188887.735       -4098.379           0.158  
> 2023 05 18 00 01 01.4688020  0  7                     
G02  24435461.794       15175.975         288.215           0.143  
G03  22303506.235     -152146.271       -3090.419           0.167  
G04  23800397.932     -220786.892       -4796.188           0.148  
G05  22545614.903      -30646.796        -643.182           0.164  
G06  20655346.769     -143657.580       -3043.111           0.180  
G07  23564955.897     -189107.957       -4013.500           0.148  
G09  23041404.993     -189297.671       -4097.167           0.156  
> 2023 05 18 00 01 01.5688020  0  7                     
G02  24435457.123       15204.298         281.614           0.144  
G03  22303584.476     -152455.600       -3092.563           0.166  
G04  23800520.307     -221267.019       -4803.490           0.147  
G05  22545628.752      -30711.165        -644.664           0.163  
G06  20655423.515     -143962.039       -3043.643           0.179  
G07  23565047.738     -189509.872       -4021.823           0.152  
G09  23041505.948     -189707.652       -4101.809           0.155  
> 2023 05 18 00 01 01.6688020  0  7                     
G02  24435450.254       15232.330         283.435           0.141  
G03  22303662.465     -152765.221       -3099.610           0.166  
G04  23800642.113     -221747.438       -4811.167           0.148  
G05  22545641.088      -30775.866        -653.776           0.161  
G06  20655499.982     -144266.791       -3052.185           0.179  
G07  23565157.325     -189912.068       -4028.907           0.151  
G09  23041607.920     -190117.933       -4105.927           0.154  
> 2023 05 18 00 01 01.7688020  0  7                     
G02  24435437.803       15259.832         280.838           0.142  
G03  22303746.615     -153075.412       -3099.570           0.166  
G04  23800765.477     -222228.404       -4802.423           0.146  
G05  22545657.659      -30841.102        -649.936           0.162  
G06  20655579.490     -144572.120       -3051.824           0.179  
G07  23565258.558     -190314.784       -4013.765           0.151  
G09  23041711.290     -190528.726       -4101.547           0.156  
> 2023 05 18 00 01 01.8688020  0  7                     
G02  24435430.697       15288.052         279.684           0.144  
G03  22303819.015     -153384.821       -3096.024           0.167  
G04  23800889.147     -222708.678       -4808.014           0.148  
G05  22545674.768      -30905.546        -642.734           0.163  
G06  20655655.549     -144876.634       -3048.390           0.180  
G07  23565359.212     -190716.788       -4022.479           0.152  
G09  23041823.521     -190938.763       -4099.762           0.154  
> 2023 05 18 00 01 01.9688020  0  7                     
G02  24435423.986       15316.160         273.938           0.142  
G03  22303896.474     -153694.340       -3093.189           0.166  
G04  23801012.825     -223188.920       -4800.296           0.150  
G05  22545694.985      -30970.145        -645.443           0.165  
G06  20655736.225     -145181.334       -3047.044           0.181  
G07  23565459.269     -191118.792       -4008.657           0.151  
G09  23041927.874     -191348.950       -4098.735           0.158  
> 2023 05 18 00 01 02.0688020  0  7                     
G02  24435412.044       15344.605         282.944           0.141  
G03  22303978.137     -154003.634       -3094.132           0.166  
G04  23801137.884     -223669.004       -4800.556           0.149  
G05  22545710.302      -31034.472        -643.632           0.163  
G06  20655811.537     -145485.688       -3044.590           0.179  
G07  23565568.333     -191520.690       -4012.947           0.152  
G09  23042031.883     -191758.822       -4099.634           0.155  
> 2023 05 18 00 01 02.1688020  0  7                     
G02  24435401.345       15373.186         282.601           0.145  
G03  22304058.830     -154312.837       -3092.976           0.167  
G04  23801259.705     -224148.944       -4796.870           0.149  
G05  22545720.936      -31098.689        -639.319           0.164  
G06  20655890.677     -145789.993       -3040.260           0.180  
G07  23565660.494     -191922.393       -4019.068           0.151  
G09  23042136.152     -192168.625       -4089.868           0.156  
> 2023 05 18 00 01 02.2688020  0  7                     
G02  24435398.591       15401.780         287.059           0.144  
G03  22304135.941     -154621.915       -3092.667           0.167  
G04  23801381.825     -224628.818       -4798.331           0.148  
G05  22545741.175      -31162.807        -639.003           0.163  
G06  20655967.069     -146094.197       -3043.688           0.179  
G07  23565761.528     -192324.076       -4014.890           0.153  
G09  23042241.454     -192578.375       -4095.994           0.156  
> 2023 05 18 00 01 02.3688020  0  7                     
G02  24435385.281       15430.449         291.230           0.145  
G03  22304213.463     -154930.952       -3089.903           0.167  
G04  23801502.259     -225108.640       -4797.967           0.148  
G05  22545759.466      -31226.946        -640.987           0.163  
G06  20656042.780     -146398.374       -3040.299           0.181  
G07  23565862.999     -192725.677       -4016.710           0.153  
G09  23042346.942     -192988.059       -4096.645           0.158  
> 2023 05 18 00 01 02.4688020  0  7                     
G02  24435379.721       15459.059         283.533           0.146  
G03  22304296.566     -155239.987       -3091.207           0.167  
G04  23801618.541     -225588.407       -4801.010           0.151  
G05  22545775.708      -31291.050        -644.733           0.163  
G06  20656114.472     -146702.517       -3040.696           0.181  
G07  23565975.023     -193127.270       -4016.340           0.153  
G09  23042449.794     -193397.733       -4098.043           0.158  
> 2023 05 18 00 01 02.5688020  0  7                     
G02  24435377.085       15487.692         278.773           0.143  
G03  22304371.051     -155549.022       -3091.795           0.168  
G04  23801747.062     -226068.188       -4794.681           0.149  
G05  22545788.030      -31355.138        -645.951           0.165  
G06  20656194.161     -147006.696       -3041.962           0.181  
G07  23566071.598     -193528.873       -4018.577           0.155  
G09  23042551.283     -193807.413       -4093.578           0.157  
> 2023 05 18 00 01 02.6688020  0  7                     
G02  24435371.363       15516.084         280.809           0.145  
G03  22304450.276     -155858.432       -3096.401           0.166  
G04  23801870.071     -226548.370       -4799.517           0.148  
G05  22545803.690      -31419.576        -648.304           0.162  
G06  20656273.041     -147311.181       -3043.391           0.180  
G07  23566181.294     -193930.806       -4022.063           0.152  
G09  23042653.966     -194217.456       -4103.694           0.157  
> 2023 05 18 00 01 02.7688020  0  7                     
G02  24435364.154       15544.426         281.149           0.142  
G03  22304531.875     -156168.411       -3170.079           0.167  
G04  23801987.631     -227028.429       -4795.592           0.149  
G05  22545822.061      -31483.965        -645.017           0.164  
G06  20656348.282     -147615.647       -3042.118           0.179  
G07  23566275.892     -194332.697       -4014.781           0.153  
G09  23042757.828     -194627.407       -4102.340           0.156  
> 2023 05 18 00 01 02.8688020  0  7                     
G02  24435352.381       15573.003         286.570           0.143  
G03  22304609.577     -156476.938       -3090.494           0.166  
G04  23802111.618     -227508.363       -4797.613           0.147  
G05  22545839.784      -31548.129        -638.840           0.164  
G06  20656427.739     -147919.912       -3041.178           0.179  
G07  23566385.932     -194734.415       -4018.812           0.150  
G09  23042857.860     -195037.168       -4102.365           0.155  
> 2023 05 18 00 01 02.9688020  0  7                     
G02  24435357.344       15601.447         280.187           0.143  
G03  22304683.913     -156786.215       -3091.744           0.166  
G04  23802239.035     -227988.337       -4801.403           0.149  
G05  22545855.262      -31612.461        -643.125           0.161  
G06  20656507.478     -148224.341       -3044.225           0.181  
G07  23566488.724     -195136.240       -4016.492           0.152  
G09  23042966.261     -195447.021       -4097.098           0.157  
> 2023 05 18 00 01 03.0688020  0  7                     
G02  24435348.545       15629.878         275.023           0.144  
G03  22304758.936     -157095.170       -2948.094           0.168  
G04  23802363.439     -228468.486       -4803.390           0.151  
G05  22545868.453      -31677.149        -666.522           0.164  
G06  20656585.695     -148528.778       -3047.323           0.181  
G07  23566585.850     -195537.390       -3814.958           0.153  
G09  23043071.916     -195857.902       -4122.706           0.157  
> 2023 05 18 00 01 03.1688020  0  7                     
G02  24435338.754       15658.430         287.212           0.143  
G03  22304838.646     -157404.799       -3091.368           0.168  
G04  23802479.133     -228948.461       -4803.468           0.150  
G05  22545886.842      -31740.712        -568.577           0.165  
G06  20656663.038     -148833.140       -3044.071           0.180  
G07  23566690.952     -195939.898       -4014.697           0.151  
G09  23043182.046     -196267.207       -4193.262           0.157  
> 2023 05 18 00 01 03.2688020  0  7                     
G02  24435324.728       15686.830         287.433           0.143  
G03  22304912.511     -157714.134       -3091.829           0.166  
G04  23802596.096     -229428.476       -4802.612           0.148  
G05  22545902.510      -31805.423        -641.938           0.164  
G06  20656739.025     -149137.538       -3048.041           0.178  
G07  23566790.054     -196341.771       -4018.250           0.151  
G09  23043288.206     -196676.731       -4099.944           0.153  
> 2023 05 18 00 01 03.3688020  0  7                     
G02  24435317.268       15715.273         287.469           0.143  
G03  22304999.013     -158023.432       -3091.263           0.166  
G04  23802712.469     -229908.524       -4804.543           0.148  
G05  22545918.531      -31869.745        -643.492           0.164  
G06  20656814.629     -149441.905       -3042.609           0.179  
G07  23566891.441     -196743.607       -4021.946           0.152  
G09  23043390.654     -197086.607       -4095.312           0.157  
> 2023 05 18 00 01 03.4688020  0  7                     
G02  24435307.936       15743.842         279.675           0.143  
G03  22305077.509     -158332.541       -3092.490           0.167  
G04  23802842.222     -230388.388       -4806.846           0.148  
G05  22545937.920      -31933.895        -643.638           0.163  
G06  20656896.620     -149746.157       -3044.082           0.180  
G07  23566996.169     -197145.708       -4096.069           0.152  
G09  23043486.697     -197496.204       -4185.044           0.157  
> 2023 05 18 00 01 03.5688020  0  7                     
G02  24435302.537       15772.239         282.268           0.145  
G03  22305154.917     -158641.906       -3093.315           0.167  
G04  23802964.569     -230868.533       -4807.937           0.151  
G05  22545950.233      -31998.308        -643.102           0.163  
G06  20656970.088     -150050.694       -3047.198           0.180  
G07  23567091.866     -197547.256       -4023.292           0.151  
G09  23043592.301     -197906.301       -4101.614           0.157  
> 2023 05 18 00 01 03.6688020  0  7                     
G02  24435286.142       15800.048         280.596           0.144  
G03  22305240.391     -158951.949       -3104.273           0.167  
G04  23803087.580     -231349.193       -4811.537           0.151  
G05  22545968.239      -32063.306        -655.331           0.164  
G06  20657047.702     -150355.780       -3056.388           0.181  
G07  23567190.155     -197949.803       -4038.403           0.152  
G09  23043697.530     -198316.855       -4108.670           0.157  
> 2023 05 18 00 01 03.7688020  0  7                     
G02  24435276.152       15827.358         272.713           0.143  
G03  22305314.154     -159262.351       -3099.737           0.167  
G04  23803210.887     -231830.325       -4811.103           0.149  
G05  22545980.905      -32128.762        -651.248           0.164  
G06  20657125.828     -150661.267       -3051.858           0.180  
G07  23567296.174     -198352.705       -4031.413           0.151  
G09  23043806.961     -198727.857       -4108.767           0.156  
> 2023 05 18 00 01 03.8688020  0  7                     
G02  24435273.706       15855.356         286.354           0.143  
G03  22305394.764     -159572.166       -3094.066           0.167  
G04  23803334.128     -232310.825       -4802.664           0.148  
G05  22545999.458      -32193.565        -647.279           0.162  
G06  20657201.758     -150966.183       -3049.526           0.180  
G07  23567404.130     -198754.995       -4024.073           0.151  
G09  23043903.893     -199138.208       -4097.018           0.158  
> 2023 05 18 00 01 03.9688020  0  7                     
G02  24435273.521       15883.655         282.371           0.146  
G03  22305466.736     -159881.576       -3091.305           0.166  
G04  23803451.659     -232790.999       -4803.011           0.149  
G05  22546020.656      -32258.020        -642.841           0.163  
G06  20657278.541     -151270.741       -3048.599           0.181  
G07  23567503.913     -199156.992       -4021.377           0.152  
G09  23044010.070     -199548.260       -4103.710           0.157  
> 2023 05 18 00 01 04.0688020  0  7                     
G02  24435266.002       15912.048         287.091           0.142  
G03  22305548.056     -160191.005       -3091.024           0.168  
G04  23803569.700     -233271.079       -4802.379           0.151  
G05  22546032.535      -32322.398        -642.337           0.163  
G06  20657360.475     -151575.192       -3040.789           0.181  
G07  23567602.124     -199558.900       -4022.582           0.153  
G09  23044109.505     -199958.207       -4100.031           0.157  
> 2023 05 18 00 01 04.1688020  0  7                     
G02  24435258.452       15940.493         281.472           0.146  
G03  22305627.031     -160500.273       -3092.777           0.168  
G04  23803698.552     -233751.092       -4799.249           0.151  
G05  22546050.490      -32386.729        -643.425           0.165  
G06  20657433.700     -151879.599       -3046.510           0.181  
G07  23567711.688     -199960.686       -4019.228           0.153  
G09  23044215.280     -200368.094       -4103.574           0.159  
> 2023 05 18 00 01 04.2688020  0  7                     
G02  24435260.680       15969.037         282.100           0.144  
G03  22305702.658     -160809.465       -3087.784           0.168  
G04  23803824.448     -234231.011       -4799.975           0.151  
G05  22546066.607      -32450.926        -637.540           0.165  
G06  20657512.628     -152183.891       -3041.443           0.182  
G07  23567816.377     -200362.439       -4016.767           0.153  
G09  23044323.735     -200777.805       -4095.369           0.160  
> 2023 05 18 00 01 04.3688020  0  7                     
G02  24435251.507       15997.818         286.974           0.145  
G03  22305782.611     -161118.488       -3090.317           0.168  
G04  23803938.589     -234710.695       -4796.096           0.151  
G05  22546083.344      -32514.973        -640.109           0.165  
G06  20657591.482     -152488.008       -3037.076           0.181  
G07  23567913.630     -200763.977       -4016.363           0.153  
G09  23044435.222     -201187.395       -4094.176           0.157  
> 2023 05 18 00 01 04.4688020  0  7                     
G02  24435227.507       16026.653         289.405           0.143  
G03  22305860.853     -161427.547       -3090.343           0.166  
G04  23804067.097     -235190.436       -4800.708           0.149  
G05  22546096.153      -32578.988        -636.575           0.164  
G06  20657672.374     -152792.154       -3041.811           0.181  
G07  23568012.242     -201165.543       -4012.574           0.154  
G09  23044537.466     -201597.001       -4095.741           0.157  
> 2023 05 18 00 01 04.5688020  0  7                     
G02  24435230.392       16055.322         287.410           0.146  
G03  22305940.970     -161736.667       -3092.455           0.166  
G04  23804181.330     -235670.202       -4793.993           0.150  
G05  22546114.420      -32643.124        -643.796           0.163  
G06  20657744.695     -153096.376       -3042.557           0.180  
G07  23568118.381     -201567.148       -4013.253           0.153  
G09  23044634.522     -202006.671       -4098.146           0.158  
> 2023 05 18 00 01 04.6688020  0  7                     
G02  24435229.235       16083.794         287.618           0.143  
G03  22306023.579     -162046.051       -3095.176           0.168  
G04  23804310.645     -236150.250       -4800.941           0.149  
G05  22546127.797      -32707.410        -640.283           0.164  
G06  20657824.681     -153400.814       -3045.684           0.180  
G07  23568218.355     -201969.049       -4017.492           0.151  
G09  23044742.336     -202416.533       -4099.088           0.157  
> 2023 05 18 00 01 04.7688020  0  7                     
G02  24435217.086       16112.323         279.842           0.145  
G03  22306100.193     -162355.240       -3091.953           0.168  
G04  23804433.833     -236630.154       -4797.062           0.150  
G05  22546142.878      -32771.668        -637.635           0.164  
G06  20657899.747     -153705.083       -3040.568           0.180  
G07  23568315.595     -202370.786       -4019.703           0.153  
G09  23044839.202     -202826.247       -4098.051           0.157  
> 2023 05 18 00 01 04.8688020  0  7                     
G02  24435206.811       16140.769         283.765           0.147  
G03  22306177.453     -162664.606       -3091.032           0.168  
G04  23804552.862     -237110.185       -4798.280           0.149  
G05  22546164.290      -32836.004        -642.051           0.165  
G06  20657976.946     -154009.557       -3046.549           0.182  
G07  23568422.250     -202772.639       -4026.110           0.152  
G09  23044945.928     -203236.123       -4096.508           0.158  
> 2023 05 18 00 01 04.9688020  0  7                     
G02  24435190.754       16169.261         286.107           0.145  
G03  22306264.149     -162973.939       -3092.658           0.168  
G04  23804672.715     -237590.218       -4801.491           0.149  
G05  22546176.475      -32900.371        -644.577           0.166  
G06  20658051.106     -154313.958       -3043.070           0.181  
G07  23568524.508     -203174.447       -4021.479           0.152  
G09  23045057.042     -203646.033       -4098.085           0.158  
> 2023 05 18 00 01 05.0688020  0  7                     
G02  24435190.369       16197.364         283.510           0.145  
G03  22306337.910     -163283.678       -3099.539           0.168  
G04  23804800.246     -238070.600       -4807.496           0.149  
G05  22546195.411      -32965.097        -645.413           0.164  
G06  20658128.519     -154618.780       -3049.228           0.180  
G07  23568628.850     -203576.698       -4023.982           0.151  
G09  23045157.652     -204056.311       -4102.839           0.157  
> 2023 05 18 00 01 05.1688020  0  7                     
G02  24435174.355       16225.295         284.317           0.143  
G03  22306414.625     -163594.171       -3246.839           0.169  
G04  23804916.563     -238551.145       -4807.636           0.150  
G05  22546208.877      -33029.354        -635.040           0.165  
G06  20658209.266     -154923.773       -3049.772           0.181  
G07  23568727.233     -203980.513       -4325.377           0.155  
G09  23045262.781     -204467.225       -4099.555           0.158  
> 2023 05 18 00 01 05.2688020  0  7                     
G02  24435178.226       16253.418         284.243           0.146  
G03  22306488.005     -163903.251       -3094.268           0.167  
G04  23805046.634     -239031.512       -4806.537           0.152  
G05  22546222.222      -33094.590        -644.992           0.164  
G06  20658286.957     -155228.568       -3045.557           0.181  
G07  23568828.728     -204381.304       -4022.930           0.155  
G09  23045367.734     -204876.875       -4098.126           0.157  
> 2023 05 18 00 01 05.3688020  0  7                     
G02  24435167.056       16281.849         281.760           0.145  
G03  22306569.449     -164212.665       -3094.722           0.167  
G04  23805165.634     -239511.627       -4806.944           0.150  
G05  22546236.149      -33159.020        -645.807           0.165  
G06  20658364.820     -155533.053       -3046.447           0.181  
G07  23568936.558     -204783.243       -4025.437           0.155  
G09  23045468.536     -205286.789       -4099.521           0.157  
> 2023 05 18 00 01 05.4688020  0  7                     
G02  24435153.218       16310.146         282.063           0.144  
G03  22306643.843     -164522.189       -3097.794           0.169  
G04  23805286.260     -239991.780       -4802.267           0.151  
G05  22546259.705      -33223.524        -645.275           0.165  
G06  20658438.053     -155837.657       -3045.369           0.182  
G07  23569038.284     -205185.227       -4019.672           0.153  
G09  23045574.017     -205696.862       -4098.621           0.159  
> 2023 05 18 00 01 05.5688020  0  7                     
G02  24435158.457       16338.706         288.031           0.147  
G03  22306730.160     -164831.215       -3056.841           0.169  
G04  23805409.573     -240471.754       -4800.345           0.151  
G05  22546277.059      -33287.502        -639.649           0.166  
G06  20658520.137     -156142.073       -3043.324           0.182  
G07  23569142.291     -205587.080       -4015.990           0.153  
G09  23045680.165     -206107.269       -4206.456           0.157  
> 2023 05 18 00 01 05.6688020  0  7                     
G02  24435149.444       16367.145         287.110           0.146  
G03  22306808.335     -165140.842       -3092.082           0.168  
G04  23805531.613     -240951.797       -4800.660           0.151  
G05  22546286.670      -33352.144        -643.627           0.165  
G06  20658595.983     -156446.510       -3043.094           0.180  
G07  23569243.749     -205988.861       -4013.321           0.154  
G09  23045779.742     -206516.585       -4102.274           0.157  
> 2023 05 18 00 01 05.7688020  0  7                     
G02  24435139.365       16395.576         282.067           0.145  
G03  22306886.883     -165450.258       -3092.600           0.168  
G04  23805653.169     -241431.810       -4799.230           0.151  
G05  22546310.747      -33416.469        -643.149           0.163  
G06  20658676.342     -156750.986       -3045.217           0.182  
G07  23569343.704     -206390.803       -4016.519           0.153  
G09  23045890.571     -206926.443       -4100.093           0.157  
> 2023 05 18 00 01 05.8688020  0  7                     
G02  24435137.905       16423.838         277.631           0.145  
G03  22306965.191     -165759.862       -3058.960           0.168  
G04  23805776.505     -241912.001       -4797.195           0.150  
G05  22546326.558      -33481.275        -613.345           0.166  
G06  20658748.553     -157055.644       -3047.778           0.181  
G07  23569448.719     -206792.549       -3872.852           0.152  
G09  23045997.897     -207336.642       -4094.802           0.156  
> 2023 05 18 00 01 05.9688020  0  7                     
G02  24435125.322       16452.041         277.529           0.146  
G03  22307046.487     -166069.564       -3096.733           0.169  
G04  23805899.195     -242392.330       -4801.414           0.152  
G05  22546343.061      -33545.730        -643.367           0.164  
G06  20658827.379     -157360.410       -3047.765           0.182  
G07  23569543.106     -207195.080       -4019.947           0.154  
G09  23046091.423     -207746.733       -4104.390           0.159  
> 2023 05 18 00 01 06.0688020  0  7                     
G02  24435120.024       16480.346         282.259           0.146  
G03  22307125.081     -166379.071       -3096.924           0.168  
G04  23806020.283     -242872.534       -4804.271           0.150  
G05  22546358.260      -33610.233        -643.912           0.165  
G06  20658901.514     -157665.045       -3045.590           0.182  
G07  23569645.607     -207597.090       -4018.321           0.153  
G09  23046202.607     -208156.711       -4101.427           0.157  
> 2023 05 18 00 01 06.1688020  0  7                     
G02  24435112.508       16508.830         281.762           0.145  
G03  22307192.750     -166688.471       -3092.491           0.168  
G04  23806141.231     -243352.556       -4794.453           0.150  
G05  22546375.082      -33674.572        -641.352           0.164  
G06  20658983.640     -157969.519       -3046.108           0.182  
G07  23569756.092     -207998.984       -4019.663           0.155  
G09  23046304.535     -208566.619       -4095.396           0.158  
> 2023 05 18 00 01 06.2688020  0  7                     
G02  24435096.212       16537.411         287.217           0.146  
G03  22307273.160     -166997.768       -3092.131           0.168  
G04  23806262.417     -243832.463       -4793.761           0.149  
G05  22546389.052      -33738.856        -643.182           0.166  
G06  20659059.676     -158273.899       -3044.985           0.182  
G07  23569857.776     -208400.786       -4021.770           0.155  
G09  23046401.000     -208976.379       -4092.848           0.156  
> 2023 05 18 00 01 06.3688020  0  7                     
G02  24435089.669       16565.760         277.795           0.144  
G03  22307358.641     -167307.290       -3097.126           0.166  
G04  23806389.256     -244312.637       -4801.184           0.148  
G05  22546402.854      -33803.325        -646.840           0.165  
G06  20659139.532     -158578.477       -3047.616           0.181  
G07  23569954.984     -208802.752       -4022.984           0.154  
G09  23046513.098     -209386.379       -4103.057           0.159  
> 2023 05 18 00 01 06.4688020  0  7                     
G02  24435085.794       16594.043         274.147           0.143  
G03  22307439.343     -167616.804       -3093.183           0.166  
G04  23806512.691     -244792.824       -4803.700           0.151  
G05  22546423.687      -33867.812        -641.730           0.165  
G06  20659211.732     -158883.106       -3045.019           0.180  
G07  23570058.978     -209204.791       -4019.681           0.154  
G09  23046614.065     -209796.419       -4102.437           0.156  
> 2023 05 18 00 01 06.5688020  0  7                     
G02  24435077.031       16622.708         279.673           0.144  
G03  22307514.485     -167926.093       -3091.814           0.167  
G04  23806632.010     -245272.702       -4801.976           0.149  
G05  22546437.727      -33932.057        -644.375           0.163  
G06  20659294.081     -159187.457       -3045.197           0.178  
G07  23570157.250     -209606.542       -4016.845           0.152  
G09  23046724.038     -210206.164       -4101.846           0.156  
> 2023 05 18 00 01 06.6688020  0  7                     
G02  24435072.464       16651.339         283.579           0.142  
G03  22307594.737     -168235.405       -3091.296           0.164  
G04  23806756.474     -245752.627       -4805.083           0.148  
G05  22546451.516      -33996.314        -642.955           0.163  
G06  20659367.500     -159491.805       -3043.980           0.179  
G07  23570259.498     -210008.356       -4024.033           0.151  
G09  23046828.261     -210615.887       -4097.963           0.158  
> 2023 05 18 00 01 06.7688020  0  7                     
G02  24435066.607       16679.994         285.470           0.142  
G03  22307673.573     -168544.633       -3088.548           0.168  
G04  23806871.600     -246232.386       -4792.354           0.150  
G05  22546467.152      -34060.446        -640.549           0.164  
G06  20659447.496     -159796.091       -3041.204           0.179  
G07  23570359.721     -210410.042       -4014.111           0.152  
G09  23046930.032     -211025.558       -4090.087           0.156  
> 2023 05 18 00 01 06.8688020  0  7                     
G02  24435059.921       16708.768         280.017           0.142  
G03  22307753.644     -168853.689       -3092.703           0.167  
G04  23806988.648     -246712.088       -4794.233           0.148  
G05  22546488.931      -34124.473        -638.822           0.165  
G06  20659526.819     -160100.233       -3040.480           0.179  
G07  23570463.412     -210811.616       -4022.302           0.150  
G09  23047038.082     -211435.151       -4097.357           0.155  
> 2023 05 18 00 01 06.9688020  0  7                     
G02  24435052.890       16737.723         292.934           0.144  
G03  22307830.554     -169162.744       -3089.929           0.166  
G04  23807115.824     -247191.731       -4796.693           0.151  
G05  22546505.318      -34188.461        -638.889           0.163  
G06  20659604.702     -160404.352       -3040.532           0.181  
G07  23570567.185     -211213.070       -4009.319           0.151  
G09  23047140.221     -211844.655       -4097.740           0.157  
> 2023 05 18 00 01 07.0688020  0  7                     
G02  24435041.533       16766.414         287.311           0.144  
G03  22307912.579     -169471.972       -3093.118           0.167  
G04  23807243.223     -247671.566       -4803.977           0.149  
G05  22546519.518      -34252.628        -642.994           0.164  
G06  20659683.653     -160708.623       -3041.930           0.180  
G07  23570670.135     -211614.829       -4020.065           0.152  
G09  23047244.071     -212255.545       -4208.301           0.157  
> 2023 05 18 00 01 07.1688020  0  7                     
G02  24435034.106       16794.947         282.028           0.146  
G03  22307993.594     -169781.340       -3092.567           0.167  
G04  23807359.533     -248151.521       -4804.514           0.149  
G05  22546534.457      -34316.958        -644.740           0.164  
G06  20659758.583     -161013.067       -3043.759           0.181  
G07  23570773.517     -212016.582       -4013.912           0.151  
G09  23047351.886     -212664.139       -4095.821           0.157  
> 2023 05 18 00 01 07.2688020  0  7                     
G02  24435026.008       16823.594         283.112           0.142  
G03  22308068.959     -170090.628       -3094.981           0.169  
G04  23807482.595     -248631.413       -4800.574           0.151  
G05  22546554.518      -34381.199        -642.659           0.165  
G06  20659835.925     -161317.436       -3042.452           0.181  
G07  23570882.575     -212418.432       -4010.343           0.153  
G09  23047453.896     -213073.925       -4097.390           0.159  
> 2023 05 18 00 01 07.3688020  0  7                     
G02  24435013.874       16852.038         283.747           0.145  
G03  22308145.439     -170400.050       -3094.682           0.169  
G04  23807604.887     -249111.472       -4801.135           0.152  
G05  22546565.410      -34445.525        -642.644           0.164  
G06  20659909.829     -161621.911       -3045.605           0.182  
G07  23570978.053     -212820.362       -4019.317           0.155  
G09  23047554.863     -213483.784       -4100.613           0.159  
> 2023 05 18 00 01 07.4688020  0  7                     
G02  24435008.617       16880.731         285.795           0.147  
G03  22308214.833     -170709.312       -3093.582           0.170  
G04  23807731.161     -249591.308       -4795.914           0.153  
G05  22546585.770      -34509.746        -641.549           0.166  
G06  20659990.208     -161926.258       -3043.444           0.184  
G07  23571078.560     -213222.061       -4016.226           0.155  
G09  23047666.396     -213893.519       -4100.030           0.160  
> 2023 05 18 00 01 07.5688020  0  7                     
G02  24435004.931       16909.347         287.403           0.147  
G03  22308295.596     -171018.641       -3095.079           0.171  
G04  23807848.978     -250071.170       -4795.454           0.153  
G05  22546598.886      -34573.986        -645.298           0.168  
G06  20660062.682     -162230.643       -3044.505           0.184  
G07  23571185.269     -213623.861       -4018.439           0.156  
G09  23047764.986     -214303.236       -4100.642           0.161  
> 2023 05 18 00 01 07.6688020  0  7                     
G02  24434994.888       16937.611         281.215           0.149  
G03  22308381.186     -171328.270       -3096.894           0.171  
G04  23807974.020     -250551.428       -4802.406           0.153  
G05  22546617.816      -34638.569        -647.697           0.169  
G06  20660144.336     -162535.341       -3047.177           0.185  
G07  23571286.908     -214025.979       -4023.771           0.155  
G09  23047868.644     -214713.327       -4105.468           0.162  
> 2023 05 18 00 01 07.7688020  0  7                     
G02  24434987.353       16965.710         281.425           0.150  
G03  22308462.461     -171638.128       -3099.200           0.171  
G04  23808097.443     -251031.828       -4804.280           0.153  
G05  22546632.825      -34703.306        -648.356           0.167  
G06  20660219.848     -162840.242       -3049.263           0.184  
G07  23571387.088     -214428.281       -4023.681           0.157  
G09  23047973.168     -215123.587       -4101.415           0.161  
> 2023 05 18 00 01 07.8688020  0  7                     
G02  24434984.957       16993.799         282.267           0.149  
G03  22308540.518     -171947.971       -3098.886           0.171  
G04  23808217.160     -251512.260       -4807.761           0.152  
G05  22546646.389      -34768.121        -649.527           0.168  
G06  20660298.931     -163145.154       -3048.238           0.184  
G07  23571493.001     -214830.599       -4024.283           0.155  
G09  23048073.796     -215533.833       -4100.769           0.161  
> 2023 05 18 00 01 07.9688020  0  7                     
G02  24434972.372       17022.111         281.634           0.149  
G03  22308621.583     -172257.602       -3093.377           0.171  
G04  23808337.177     -251992.514       -4808.880           0.152  
G05  22546666.576      -34832.666        -642.424           0.167  
G06  20660376.386     -163449.863       -3046.510           0.185  
G07  23571602.004     -215232.700       -4023.086           0.156  
G09  23048174.680     -215943.867       -4094.305           0.160  
> 2023 05 18 00 01 08.0688020  0  7                     
G02  24434961.410       17050.532         283.637           0.150  
G03  22308698.216     -172567.151       -3090.161           0.171  
G04  23808454.017     -252472.585       -4800.795           0.155  
G05  22546681.069      -34897.157        -641.890           0.169  
G06  20660454.014     -163754.470       -3044.040           0.185  
G07  23571691.700     -215634.720       -4018.008           0.158  
G09  23048288.263     -216353.846       -4096.227           0.161  
> 2023 05 18 00 01 08.1688020  0  7                     
G02  24434958.331       17079.179         283.156           0.149  
G03  22308777.729     -172876.470       -3090.344           0.170  
G04  23808580.664     -252952.430       -4801.635           0.155  
G05  22546695.943      -34961.389        -644.113           0.170  
G06  20660531.302     -164058.823       -3044.106           0.186  
G07  23571798.035     -216036.453       -4019.023           0.158  
G09  23048392.173     -216763.593       -4093.379           0.162  
> 2023 05 18 00 01 08.2688020  0  7                     
G02  24434947.544       17107.730         282.271           0.149  
G03  22308852.744     -173186.035       -3160.329           0.173  
G04  23808703.482     -253432.376       -4796.542           0.153  
G05  22546711.497      -35025.690        -640.312           0.169  
G06  20660606.312     -164363.286       -3044.470           0.185  
G07  23571903.794     -216439.161       -4188.900           0.156  
G09  23048495.186     -217172.074       -4127.103           0.161  
> 2023 05 18 00 01 08.3688020  0  7                     
G02  24434937.981       17136.298         286.897           0.147  
G03  22308928.211     -173495.294       -3093.670           0.172  
G04  23808828.206     -253912.354       -4802.708           0.154  
G05  22546731.610      -35090.045        -708.607           0.169  
G06  20660686.608     -164667.732       -3044.571           0.185  
G07  23572003.840     -216840.233       -4023.959           0.155  
G09  23048603.516     -217583.199       -4101.184           0.162  
> 2023 05 18 00 01 08.4688020  0  7                     
G02  24434939.297       17164.904         285.080           0.150  
G03  22309005.478     -173804.665       -3095.182           0.169  
G04  23808948.140     -254392.227       -4795.707           0.154  
G05  22546748.380      -35154.304        -644.210           0.169  
G06  20660765.745     -164972.138       -3043.266           0.185  
G07  23572097.702     -217241.994       -4016.937           0.157  
G09  23048706.541     -217992.924       -4096.577           0.159  
> 2023 05 18 00 01 08.5688020  0  7                     
G02  24434934.139       17193.517         286.111           0.145  
G03  22309087.119     -174114.026       -3095.392           0.169  
G04  23809072.774     -254872.162       -4800.359           0.154  
G05  22546767.143      -35218.590        -645.614           0.167  
G06  20660843.159     -165276.595       -3045.966           0.183  
G07  23572208.634     -217643.838       -4022.486           0.157  
G09  23048808.845     -218402.753       -4100.759           0.160  
> 2023 05 18 00 01 08.6688020  0  7                     
G02  24434914.990       17221.974         284.435           0.147  
G03  22309171.370     -174423.943       -3154.031           0.170  
G04  23809191.983     -255352.229       -4802.385           0.152  
G05  22546780.696      -35283.006        -644.969           0.165  
G06  20660910.956     -165581.130       -3045.814           0.183  
G07  23572306.882     -218045.778       -4023.355           0.154  
G09  23048911.328     -218812.641       -4101.012           0.160  
> 2023 05 18 00 01 08.7688020  0  7                     
G02  24434905.436       17250.475         288.841           0.141  
G03  22309248.457     -174733.089       -3096.121           0.169  
G04  23809316.270     -255832.279       -4797.650           0.149  
G05  22546793.376      -35347.406        -643.664           0.163  
G06  20660993.485     -165885.683       -3043.000           0.180  
G07  23572413.745     -218447.752       -4020.379           0.151  
G09  23049015.933     -219222.545       -4097.157           0.155  
> 2023 05 18 00 01 08.8688020  0  7                     
G02  24434907.236       17278.848         285.087           0.144  
G03  22309333.662     -175042.600       -3096.723           0.166  
G04  23809434.202     -256312.369       -4799.448           0.148  
G05  22546811.097      -35411.857        -646.775           0.164  
G06  20661071.949     -166190.311       -3048.220           0.180  
G07  23572516.002     -218849.731       -4018.400           0.152  
G09  23049120.347     -219632.478       -4100.112           0.156  
> 2023 05 18 00 01 08.9688020  0  7                     
G02  24434901.339       17307.384         285.540           0.144  
G03  22309406.864     -175352.112       -3092.975           0.166  
G04  23809559.598     -256792.351       -4798.483           0.150  
G05  22546826.292      -35476.240        -644.188           0.162  
G06  20661153.555     -166494.816       -3044.673           0.179  
G07  23572617.852     -219251.679       -4018.539           0.152  
G09  23049219.657     -220042.311       -4099.082           0.154  
> 2023 05 18 00 01 09.0688020  0  7                     
G02  24434889.686       17335.992         278.441           0.144  
G03  22309487.119     -175661.469       -3095.841           0.166  
G04  23809688.928     -257272.253       -4797.167           0.148  
G05  22546844.353      -35540.556        -646.632           0.161  
G06  20661225.575     -166799.249       -3044.385           0.180  
G07  23572714.096     -219653.443       -4021.715           0.150  
G09  23049323.062     -220452.036       -4096.933           0.156  
> 2023 05 18 00 01 09.1688020  0  7                     
G02  24434881.440       17364.639         288.200           0.145  
G03  22309558.345     -175970.842       -3092.652           0.166  
G04  23809806.736     -257752.213       -4797.772           0.150  
G05  22546858.725      -35604.840        -644.283           0.166  
G06  20661307.253     -167103.662       -3042.063           0.181  
G07  23572816.673     -220055.285       -4013.673           0.151  
G09  23049430.858     -220861.838       -4093.972           0.156  
> 2023 05 18 00 01 09.2688020  0  7                     
G02  24434879.142       17393.327         286.571           0.146  
G03  22309642.476     -176280.146       -3089.860           0.168  
G04  23809930.680     -258232.048       -4798.471           0.151  
G05  22546877.842      -35669.036        -644.689           0.164  
G06  20661380.087     -167408.029       -3044.231           0.181  
G07  23572917.963     -220457.012       -4007.581           0.151  
G09  23049532.333     -221271.492       -4091.102           0.159  
> 2023 05 18 00 01 09.3688020  0  7                     
G02  24434873.702       17421.948         285.268           0.144  
G03  22309718.024     -176589.535       -3092.147           0.168  
G04  23810052.505     -258711.907       -4801.641           0.151  
G05  22546887.240      -35733.290        -642.466           0.163  
G06  20661460.563     -167712.451       -3043.310           0.181  
G07  23573023.899     -220858.836       -4018.169           0.154  
G09  23049642.434     -221681.241       -4099.512           0.156  
> 2023 05 18 00 01 09.4688020  0  7                     
G02  24434863.095       17450.580         284.835           0.142  
G03  22309797.344     -176898.922       -3093.391           0.167  
G04  23810168.565     -259191.742       -4799.092           0.149  
G05  22546906.970      -35797.574        -647.917           0.163  
G06  20661535.624     -168016.848       -3044.200           0.179  
G07  23573126.420     -221260.700       -4025.953           0.149  
G09  23049743.052     -222090.990       -4096.768           0.156  
> 2023 05 18 00 01 09.5688020  0  7                     
G02  24434854.287       17479.234         282.674           0.144  
G03  22309870.124     -177208.348       -3094.943           0.165  
G04  23810290.671     -259671.752       -4799.691           0.149  
G05  22546924.980      -35861.849        -639.972           0.161  
G06  20661613.901     -168321.297       -3046.102           0.179  
G07  23573223.533     -221662.525       -4017.270           0.151  
G09  23049851.679     -222500.746       -4096.125           0.156  
> 2023 05 18 00 01 09.6688020  0  7                     
G02  24434840.236       17507.998         286.832           0.143  
G03  22309944.448     -177517.608       -3097.420           0.165  
G04  23810415.062     -260151.491       -4794.226           0.147  
G05  22546941.891      -35926.010        -643.078           0.162  
G06  20661690.399     -168625.599       -3043.630           0.179  
G07  23573327.633     -222064.268       -4023.418           0.152  
G09  23049956.645     -222910.409       -4096.701           0.155  
> 2023 05 18 00 01 09.7688020  0  7                     
G02  24434838.534       17536.199         285.201           0.144  
G03  22310025.025     -177827.450       -3097.023           0.165  
G04  23810539.889     -260631.857       -4807.200           0.152  
G05  22546955.443      -35990.737        -644.873           0.163  
G06  20661772.239     -168930.492       -3045.114           0.180  
G07  23573428.140     -222466.513       -4029.212           0.149  
G09  23050060.147     -223320.627       -4100.926           0.159  
> 2023 05 18 00 01 09.8688020  0  7                     
G02  24434832.871       17564.626         284.526           0.144  
G03  22310112.635     -178137.099       -3100.948           0.169  
G04  23810659.591     -261112.009       -4806.598           0.151  
G05  22546969.184      -36055.269        -643.666           0.165  
G06  20661842.565     -169235.179       -3046.715           0.182  
G07  23573530.747     -222868.564       -4019.422           0.155  
G09  23050162.930     -223730.603       -4103.230           0.160  
> 2023 05 18 00 01 09.9688020  0  7                     
G02  24434824.617       17592.870         283.461           0.145  
G03  22310191.704     -178446.215       -2976.880           0.169  
G04  23810779.971     -261592.237       -4803.668           0.152  
G05  22546987.074      -36119.339        -586.098           0.166  
G06  20661922.676     -169539.972       -3049.504           0.182  
G07  23573638.109     -223270.751       -4028.549           0.153  
G09  23050269.228     -224141.470       -4116.452           0.157  
> 2023 05 18 00 01 10.0688020  0  7                     
G02  24434822.954       17621.144         287.172           0.145  
G03  22310266.606     -178756.600       -3094.475           0.169  
G04  23810902.647     -262072.548       -4808.695           0.148  
G05  22547004.863      -36184.553        -648.631           0.163  
G06  20662002.439     -169844.763       -3044.887           0.179  
G07  23573744.783     -223672.922       -4028.871           0.151  
G09  23050374.758     -224550.823       -4097.637           0.156  
> 2023 05 18 00 01 10.1688020  0  7                     
G02  24434807.619       17649.546         290.166           0.141  
G03  22310347.211     -179066.233       -3097.056           0.166  
G04  23811023.897     -262552.597       -4804.391           0.149  
G05  22547023.775      -36248.981        -642.954           0.163  
G06  20662079.098     -170149.380       -3046.171           0.179  
G07  23573838.524     -224074.939       -4022.893           0.149  
G09  23050470.005     -224960.753       -4097.766           0.156  
> 2023 05 18 00 01 10.2688020  0  7                     
G02  24434798.893       17678.067         283.606           0.145  
G03  22310424.461     -179375.754       -3090.308           0.168  
G04  23811140.308     -263032.587       -4798.276           0.149  
G05  22547039.785      -36313.505        -726.182           0.163  
G06  20662153.144     -170453.964       -3045.506           0.180  
G07  23573947.245     -224475.887       -4148.038           0.152  
G09  23050567.795     -225370.866       -4162.429           0.156  
> 2023 05 18 00 01 10.3688020  0  7                     
G02  24434793.780       17706.729         291.729           0.144  
G03  22310503.186     -179685.191       -3093.427           0.168  
G04  23811271.425     -263512.483       -4800.770           0.151  
G05  22547055.241      -36377.731        -644.457           0.165  
G06  20662232.312     -170758.444       -3045.674           0.181  
G07  23574049.493     -224878.795       -4027.279           0.152  
G09  23050686.376     -225781.472       -4223.211           0.158  
> 2023 05 18 00 01 10.4688020  0  7                     
G02  24434791.630       17735.339         283.024           0.146  
G03  22310579.315     -179994.660       -3093.477           0.168  
G04  23811393.167     -263992.405       -4799.391           0.149  
G05  22547075.737      -36442.061        -642.178           0.164  
G06  20662311.067     -171062.891       -3042.742           0.182  
G07  23574149.469     -225280.632       -4016.128           0.155  
G09  23050781.723     -226190.147       -4095.259           0.157  
> 2023 05 18 00 01 10.5688020  0  7                     
G02  24434772.262       17763.884         286.425           0.144  
G03  22310661.484     -180304.173       -3098.994           0.168  
G04  23811511.859     -264472.380       -4801.913           0.152  
G05  22547083.334      -36506.412        -644.046           0.164  
G06  20662389.879     -171367.443       -3045.822           0.180  
G07  23574244.222     -225682.581       -4023.538           0.154  
G09  23050894.537     -226599.987       -4101.561           0.155  
> 2023 05 18 00 01 10.6688020  0  7                     
G02  24434771.970       17792.364         286.313           0.141  
G03  22310738.972     -180613.746       -3094.011           0.165  
G04  23811632.212     -264952.479       -4802.725           0.150  
G05  22547103.156      -36571.895        -795.721           0.164  
G06  20662465.772     -171672.040       -3044.326           0.179  
G07  23574352.605     -226083.486       -3867.438           0.151  
G09  23050995.126     -227009.906       -4095.875           0.155  
> 2023 05 18 00 01 10.7688020  0  7                     
G02  24434766.301       17821.107         288.219           0.142  
G03  22310819.478     -180923.131       -3093.272           0.165  
G04  23811757.273     -265432.283       -4795.588           0.150  
G05  22547116.466      -36635.096        -641.086           0.162  
G06  20662543.172     -171976.472       -3042.358           0.179  
G07  23574452.440     -226486.336       -4017.691           0.151  
G09  23051096.812     -227419.578       -4095.410           0.155  
> 2023 05 18 00 01 10.8688020  0  7                     
G02  24434759.965       17849.742         292.562           0.142  
G03  22310901.868     -181232.559       -3094.826           0.168  
G04  23811881.494     -265912.167       -4797.160           0.149  
G05  22547131.413      -36699.351        -640.795           0.162  
G06  20662621.491     -172280.929       -3046.719           0.180  
G07  23574553.030     -226888.144       -4016.287           0.149  
G09  23051207.100     -227829.290       -4095.136           0.156  
> 2023 05 18 00 01 10.9688020  0  7                     
G02  24434748.892       17878.433         285.929           0.145  
G03  22310978.689     -181541.938       -3093.091           0.168  
G04  23812004.026     -266392.024       -4801.427           0.149  
G05  22547156.326      -36763.595        -641.954           0.164  
G06  20662695.865     -172585.315       -3042.603           0.181  
G07  23574658.654     -227289.949       -4015.900           0.153  
G09  23051305.104     -228239.033       -4098.179           0.158  
> 2023 05 18 00 01 11.0688020  0  7                     
G02  24434738.890       17906.986         281.008           0.146  
G03  22311055.118     -181851.503       -3096.610           0.169  
G04  23812118.646     -266872.024       -4801.778           0.152  
G05  22547164.765      -36828.016        -643.858           0.165  
G06  20662776.289     -172889.898       -3047.658           0.183  
G07  23574764.023     -227691.908       -4017.484           0.155  
G09  23051416.128     -228648.858       -4098.522           0.158  
> 2023 05 18 00 01 11.1688020  0  7                     
G02  24434740.040       17935.768         289.754           0.146  
G03  22311137.244     -182160.834       -3088.903           0.170  
G04  23812243.814     -267351.828       -4800.145           0.153  
G05  22547179.883      -36892.210        -639.799           0.168  
G06  20662852.084     -173194.269       -3043.487           0.183  
G07  23574863.229     -228093.673       -4013.900           0.154  
G09  23051522.117     -229058.487       -4092.793           0.160  
> 2023 05 18 00 01 11.2688020  0  7                     
G02  24434728.058       17964.385         286.451           0.142  
G03  22311210.251     -182470.335       -3099.298           0.166  
G04  23812362.533     -267831.771       -4805.459           0.149  
G05  22547198.383      -36956.526        -643.438           0.165  
G06  20662930.674     -173498.762       -3046.993           0.181  
G07  23574966.801     -228495.556       -4018.238           0.153  
G09  23051617.409     -229468.287       -4098.908           0.157  
> 2023 05 18 00 01 11.3688020  0  7                     
G02  24434717.680       17992.826         284.219           0.143  
G03  22311289.148     -182780.001       -3098.131           0.166  
G04  23812490.060     -268311.868       -4804.894           0.150  
G05  22547220.024      -37021.038        -647.082           0.164  
G06  20663007.917     -173803.420       -3044.195           0.181  
G07  23575069.730     -228897.544       -4015.308           0.153  
G09  23051722.151     -229878.225       -4105.972           0.157  
> 2023 05 18 00 01 11.4688020  0  7                     
G02  24434716.099       18021.391         289.120           0.144  
G03  22311371.810     -183089.506       -3093.876           0.169  
G04  23812614.164     -268791.781       -4797.709           0.152  
G05  22547231.461      -37085.401        -640.271           0.165  
G06  20663083.811     -174107.989       -3044.499           0.182  
G07  23575169.880     -229299.516       -4017.395           0.152  
G09  23051826.681     -230288.062       -4099.531           0.157  
> 2023 05 18 00 01 11.5688020  0  7                     
G02  24434712.478       18050.202         287.337           0.148  
G03  22311451.076     -183398.820       -3096.272           0.171  
G04  23812732.585     -269271.532       -4798.189           0.150  
G05  22547246.002      -37149.548        -640.182           0.165  
G06  20663160.578     -174412.305       -3043.275           0.184  
G07  23575269.071     -229701.277       -3985.179           0.155  
G09  23051930.088     -230697.671       -4099.837           0.158  
> 2023 05 18 00 01 11.6688020  0  7                     
G02  24434697.624       18079.040         290.284           0.144  
G03  22311531.976     -183708.069       -3091.500           0.172  
G04  23812863.999     -269751.193       -4793.859           0.153  
G05  22547260.241      -37213.654        -640.272           0.167  
G06  20663237.838     -174716.604       -3041.839           0.184  
G07  23575373.822     -230102.880       -4015.248           0.154  
G09  23052034.268     -231107.199       -4095.500           0.161  
> 2023 05 18 00 01 11.7688020  0  7                     
G02  24434684.240       18107.924         289.912           0.147  
G03  22311608.602     -184017.354       -3094.409           0.172  
G04  23812982.985     -270230.934       -4794.059           0.152  
G05  22547280.450      -37277.771        -643.299           0.167  
G06  20663317.775     -175020.870       -3043.818           0.184  
G07  23575482.198     -230504.533       -4018.006           0.158  
G09  23052149.788     -231516.740       -4094.945           0.161  
> 2023 05 18 00 01 11.8688020  0  7                     
G02  24434672.476       18136.627         288.269           0.146  
G03  22311682.313     -184326.802       -3094.750           0.168  
G04  23813102.613     -270710.821       -4795.819           0.152  
G05  22547297.276      -37342.029        -641.794           0.165  
G06  20663395.573     -175325.314       -3043.268           0.181  
G07  23575582.706     -230906.355       -4016.735           0.153  
G09  23052251.324     -231926.417       -4090.742           0.156  
> 2023 05 18 00 01 11.9688020  0  7                     
G02  24434671.901       18165.251         290.616           0.145  
G03  22311763.127     -184636.275       -3098.575           0.168  
G04  23813223.586     -271190.738       -4802.819           0.150  
G05  22547312.489      -37406.409        -647.630           0.164  
G06  20663470.532     -175629.834       -3046.801           0.181  
G07  23575679.611     -231308.224       -4018.740           0.152  
G09  23052353.115     -232336.207       -4099.497           0.155  
> 2023 05 18 00 01 12.0688020  0  7                     
G02  24434663.930       18193.852         293.833           0.145  
G03  22311843.695     -184945.891       -3095.941           0.170  
G04  23813344.837     -271670.759       -4802.606           0.151  
G05  22547328.613      -37470.804        -643.126           0.165  
G06  20663545.411     -175934.456       -3047.806           0.181  
G07  23575778.545     -231710.224       -4019.061           0.153  
G09  23052455.875     -232746.108       -4101.051           0.159  
> 2023 05 18 00 01 12.1688020  0  7                     
G02  24434658.350       18222.378         288.436           0.144  
G03  22311925.039     -185255.492       -3095.956           0.170  
G04  23813468.070     -272150.727       -4799.455           0.151  
G05  22547343.383      -37535.229        -645.168           0.165  
G06  20663625.430     -176239.030       -3046.105           0.182  
G07  23575885.320     -232112.144       -4017.713           0.153  
G09  23052554.770     -233155.925       -4096.540           0.159  
> 2023 05 18 00 01 12.2688020  0  7                     
G02  24434647.373       18250.991         287.352           0.146  
G03  22312000.978     -185565.276       -3043.371           0.170  
G04  23813587.899     -272630.646       -4797.535           0.151  
G05  22547354.484      -37599.565        -643.355           0.166  
G06  20663699.728     -176543.579       -3046.219           0.183  
G07  23575991.836     -232516.415       -4209.524           0.153  
G09  23052659.738     -233564.882       -4019.658           0.159  
> 2023 05 18 00 01 12.3688020  0  7                     
G02  24434636.798       18279.579         284.138           0.146  
G03  22312081.552     -185874.522       -3095.541           0.169  
G04  23813708.161     -273110.594       -4800.753           0.153  
G05  22547373.777      -37663.918        -644.551           0.166  
G06  20663778.945     -176848.129       -3047.367           0.182  
G07  23576092.621     -232916.094       -4021.914           0.154  
G09  23052767.163     -233975.525       -4100.419           0.160  
> 2023 05 18 00 01 12.4688020  0  7                     
G02  24434637.964       18307.637         279.268           0.147  
G03  22312152.776     -186184.642       -3102.673           0.169  
G04  23813832.926     -273591.069       -4802.649           0.152  
G05  22547392.193      -37728.852        -652.148           0.166  
G06  20663856.910     -177153.260       -3057.314           0.182  
G07  23576189.358     -233318.495       -4023.228           0.154  
G09  23052876.064     -234385.864       -4107.043           0.159  
> 2023 05 18 00 01 12.5688020  0  7                     
G02  24434626.695       18335.824         284.290           0.147  
G03  22312237.399     -186494.581       -3096.270           0.169  
G04  23813957.431     -274071.439       -4797.568           0.152  
G05  22547408.518      -37793.615        -644.282           0.165  
G06  20663935.925     -177458.179       -3046.895           0.181  
G07  23576294.395     -233720.912       -4020.999           0.154  
G09  23052975.949     -234796.041       -4095.742           0.157  
> 2023 05 18 00 01 12.6688020  0  7                     
G02  24434621.251       18364.390         284.663           0.144  
G03  22312317.369     -186804.176       -3097.969           0.167  
G04  23814081.292     -274551.457       -4800.647           0.148  
G05  22547426.408      -37858.027        -643.601           0.164  
G06  20664009.090     -177762.785       -3046.469           0.181  
G07  23576396.215     -234122.791       -4014.850           0.151  
G09  23053081.661     -235205.897       -4099.066           0.156  
> 2023 05 18 00 01 12.7688020  0  7                     
G02  24434613.516       18392.987         288.032           0.143  
G03  22312395.216     -187113.782       -3097.259           0.167  
G04  23814202.000     -275031.490       -4799.814           0.148  
G05  22547440.033      -37922.428        -640.565           0.163  
G06  20664091.481     -178067.389       -3046.306           0.179  
G07  23576502.731     -234524.786       -4020.484           0.153  
G09  23053182.764     -235615.721       -4098.928           0.156  
> 2023 05 18 00 01 12.8688020  0  7                     
G02  24434612.522       18421.557         282.111           0.145  
G03  22312468.471     -187423.357       -3096.874           0.169  
G04  23814322.424     -275511.413       -4800.204           0.149  
G05  22547459.423      -37986.833        -641.156           0.164  
G06  20664165.296     -178371.986       -3046.965           0.181  
G07  23576604.394     -234926.772       -4023.388           0.152  
G09  23053289.873     -236025.518       -4099.253           0.158  
> 2023 05 18 00 01 12.9688020  0  7                     
G02  24434599.882       18450.119         291.576           0.145  
G03  22312551.603     -187732.960       -3094.537           0.169  
G04  23814440.592     -275991.427       -4798.041           0.151  
G05  22547479.284      -38051.259        -641.746           0.165  
G06  20664245.256     -178676.617       -3047.488           0.181  
G07  23576702.384     -235328.700       -4010.531           0.154  
G09  23053395.016     -236435.397       -4097.276           0.159  
> 2023 05 18 00 01 13.0688020  0  7                     
G02  24434597.346       18478.871         290.657           0.145  
G03  22312632.836     -188042.374       -3093.149           0.169  
G04  23814571.603     -276471.245       -4796.219           0.150  
G05  22547493.985      -38115.484        -641.300           0.164  
G06  20664319.865     -178981.009       -3047.344           0.180  
G07  23576805.618     -235730.548       -4018.794           0.154  
G09  23053495.851     -236845.061       -4099.905           0.159  
> 2023 05 18 00 01 13.1688020  0  7                     
G02  24434585.752       18507.706         282.929           0.143  
G03  22312709.171     -188351.204       -3064.441           0.167  
G04  23814687.345     -276950.935       -4796.975           0.151  
G05  22547510.934      -38178.867        -459.630           0.164  
G06  20664397.746     -179285.322       -3042.943           0.180  
G07  23576903.748     -236130.669       -3981.451           0.153  
G09  23053602.962     -237253.586       -4024.364           0.156  
> 2023 05 18 00 01 13.2688020  0  7                     
G02  24434570.667       18536.514         279.468           0.141  
G03  22312784.265     -188661.210       -3098.991           0.167  
G04  23814809.582     -277430.765       -4799.020           0.149  
G05  22547525.265      -38243.888        -645.435           0.164  
G06  20664473.835     -179589.784       -3046.757           0.180  
G07  23577009.711     -236534.023       -4026.887           0.151  
G09  23053702.057     -237664.257       -4100.417           0.152  
> 2023 05 18 00 01 13.3688020  0  7                     
G02  24434568.773       18564.873         282.918           0.144  
G03  22312864.757     -188971.037       -3104.897           0.167  
G04  23814934.145     -277910.964       -4800.210           0.149  
G05  22547538.570      -38308.554        -649.086           0.163  
G06  20664555.407     -179894.617       -3049.108           0.180  
G07  23577107.752     -236936.281       -4022.726           0.151  
G09  23053811.163     -238074.354       -4103.079           0.156  
> 2023 05 18 00 01 13.4688020  0  7                     
G02  24434565.005       18593.122         284.529           0.147  
G03  22312942.972     -189280.950       -3099.942           0.166  
G04  23815056.353     -278391.294       -4799.986           0.151  
G05  22547552.880      -38373.280        -647.558           0.163  
G06  20664630.887     -180199.544       -3048.770           0.181  
G07  23577219.355     -237338.549       -4019.638           0.152  
G09  23053914.649     -238484.488       -4105.151           0.157  
> 2023 05 18 00 01 13.5688020  0  7                     
G02  24434549.183       18621.566         295.036           0.145  
G03  22313021.190     -189590.786       -3099.872           0.169  
G04  23815182.042     -278871.447       -4793.019           0.152  
G05  22547569.690      -38437.871        -645.844           0.164  
G06  20664710.540     -180504.366       -3045.605           0.181  
G07  23577318.486     -237740.687       -4020.102           0.154  
G09  23054015.376     -238895.145       -4192.591           0.156  
> 2023 05 18 00 01 13.6688020  0  7                     
G02  24434548.515       18650.017         293.692           0.145  
G03  22313100.824     -189900.465       -3098.510           0.166  
G04  23815310.713     -279351.513       -4794.744           0.148  
G05  22547586.442      -38502.374        -642.925           0.166  
G06  20664789.197     -180809.060       -3045.338           0.182  
G07  23577416.039     -238142.800       -4020.290           0.154  
G09  23054123.998     -239304.415       -4103.641           0.157  
> 2023 05 18 00 01 13.7688020  0  7                     
G02  24434535.905       18678.570         294.058           0.143  
G03  22313183.949     -190210.210       -3099.667           0.166  
G04  23815424.072     -279831.636       -4800.874           0.147  
G05  22547606.613      -38566.860        -643.174           0.163  
G06  20664862.735     -181113.761       -3047.360           0.180  
G07  23577522.466     -238544.809       -4016.024           0.154  
G09  23054228.536     -239714.313       -4097.516           0.157  
> 2023 05 18 00 01 13.8688020  0  7                     
G02  24434531.664       18706.999         285.614           0.146  
G03  22313259.372     -190519.952       -3097.703           0.167  
G04  23815539.035     -280311.736       -4801.520           0.147  
G05  22547619.399      -38631.438        -647.256           0.163  
G06  20664942.244     -181418.513       -3046.705           0.180  
G07  23577621.606     -238946.951       -4017.254           0.152  
G09  23054335.260     -240124.264       -4095.018           0.155  
> 2023 05 18 00 01 13.9688020  0  7                     
G02  24434514.801       18735.629         285.714           0.144  
G03  22313332.713     -190829.508       -3097.328           0.166  
G04  23815660.125     -280791.624       -4798.929           0.150  
G05  22547634.392      -38695.802        -643.424           0.163  
G06  20665016.951     -181723.044       -3044.677           0.181  
G07  23577726.825     -239348.838       -4018.292           0.152  
G09  23054441.131     -240534.325       -4029.128           0.156  
> 2023 05 18 00 01 14.0688020  0  7                     
G02  24434511.956       18764.628         294.241           0.145  
G03  22313416.995     -191138.798       -3090.676           0.166  
G04  23815787.667     -281271.286       -4797.673           0.151  
G05  22547651.434      -38759.908        -641.567           0.164  
G06  20665097.982     -182027.338       -3039.774           0.180  
G07  23577830.875     -239750.539       -4011.426           0.152  
G09  23054539.633     -240943.484       -4085.705           0.155  
> 2023 05 18 00 01 14.1688020  0  7                     
G02  24434508.440       18793.655         293.234           0.144  
G03  22313498.322     -191447.973       -3088.883           0.168  
G04  23815905.316     -281750.755       -4793.659           0.151  
G05  22547670.809      -38823.802        -636.006           0.165  
G06  20665174.304     -182331.536       -3039.594           0.183  
G07  23577933.657     -240152.081       -4015.547           0.152  
G09  23054640.453     -241352.882       -4090.658           0.158  
> 2023 05 18 00 01 14.2688020  0  7                     
G02  24434498.320       18822.702         288.937           0.146  
G03  22313575.226     -191758.014       -3202.067           0.168  
G04  23816028.369     -282230.293       -4790.743           0.150  
G05  22547690.292      -38887.819        -642.456           0.166  
G06  20665253.267     -182635.705       -3041.500           0.182  
G07  23578027.210     -240552.308       -4024.250           0.155  
G09  23054744.031     -241762.996       -4168.741           0.158  
> 2023 05 18 00 01 14.3688020  0  7                     
G02  24434495.505       18851.510         288.344           0.146  
G03  22313652.242     -192066.576       -3095.447           0.167  
G04  23816150.180     -282710.079       -4794.344           0.150  
G05  22547701.936      -38951.984        -641.475           0.166  
G06  20665327.270     -182940.073       -3046.523           0.181  
G07  23578136.933     -240955.016       -4049.741           0.152  
G09  23054849.482     -242171.815       -4095.586           0.158  
> 2023 05 18 00 01 14.4688020  0  7                     
G02  24434487.759       18880.247         282.901           0.144  
G03  22313733.179     -192376.042       -3097.500           0.167  
G04  23816279.379     -283189.941       -4803.537           0.149  
G05  22547719.867      -39016.228        -642.083           0.163  
G06  20665408.161     -183244.540       -3045.495           0.180  
G07  23578236.294     -241357.147       -4022.037           0.153  
G09  23054957.451     -242581.488       -4098.379           0.157  
> 2023 05 18 00 01 14.5688020  0  7                     
G02  24434475.652       18908.713         279.137           0.141  
G03  22313806.350     -192685.818       -3100.529           0.167  
G04  23816394.358     -283669.947       -4803.925           0.149  
G05  22547730.566      -39080.760        -647.988           0.164  
G06  20665482.404     -183549.319       -3049.941           0.179  
G07  23578338.734     -241759.241       -4020.390           0.150  
G09  23055063.581     -242991.406       -4100.845           0.158  
> 2023 05 18 00 01 14.6688020  0  7                     
G02  24434469.128       18937.315         290.114           0.142  
G03  22313890.553     -192995.517       -3095.155           0.167  
G04  23816513.432     -284150.043       -4799.416           0.151  
G05  22547748.917      -39145.315        -676.004           0.163  
G06  20665560.048     -183854.005       -3045.414           0.181  
G07  23578435.554     -242161.370       -4020.388           0.152  
G09  23055159.927     -243401.285       -4098.887           0.157  
> 2023 05 18 00 01 14.7688020  0  7                     
G02  24434461.908       18965.806         283.853           0.145  
G03  22313963.409     -193305.290       -3099.375           0.170  
G04  23816642.496     -284630.071       -4802.716           0.151  
G05  22547765.177      -39209.809        -647.048           0.165  
G06  20665633.190     -184158.766       -3048.283           0.181  
G07  23578546.725     -242563.388       -4018.939           0.152  
G09  23055266.248     -243811.272       -4099.483           0.158  
> 2023 05 18 00 01 14.8688020  0  7                     
G02  24434457.627       18994.345         288.378           0.146  
G03  22314048.227     -193614.980       -3095.913           0.170  
G04  23816762.795     -285110.100       -4795.102           0.149  
G05  22547780.428      -39274.283        -643.552           0.165  
G06  20665713.391     -184463.449       -3045.839           0.182  
G07  23578643.177     -242965.500       -4020.743           0.155  
G09  23055372.020     -244221.090       -4094.610           0.159  
> 2023 05 18 00 01 14.9688020  0  7                     
G02  24434449.376       19022.788         278.511           0.145  
G03  22314124.670     -193924.786       -3096.745           0.169  
G04  23816890.367     -285590.254       -4801.976           0.149  
G05  22547796.246      -39338.839        -647.422           0.165  
G06  20665788.199     -184768.248       -3050.369           0.181  
G07  23578744.852     -243367.623       -4020.701           0.154  
G09  23055481.618     -244631.074       -4100.995           0.158  
> 2023 05 18 00 01 15.0688020  0  7                     
G02  24434439.552       19051.316         289.094           0.142  
G03  22314200.210     -194234.056       -3099.033           0.167  
G04  23817005.000     -286070.367       -4800.591           0.150  
G05  22547816.689      -39403.834        -679.832           0.163  
G06  20665870.465     -185073.001       -3047.981           0.181  
G07  23578847.013     -243769.747       -4017.594           0.152  
G09  23055580.147     -245040.979       -4107.932           0.157  
> 2023 05 18 00 01 15.1688020  0  7                     
G02  24434438.348       19079.856         284.199           0.144  
G03  22314280.442     -194544.315       -3095.688           0.167  
G04  23817125.248     -286550.372       -4802.430           0.147  
G05  22547831.752      -39467.878        -644.028           0.163  
G06  20665944.027     -185377.687       -3046.952           0.181  
G07  23578955.193     -244171.801       -4014.818           0.151  
G09  23055687.950     -245450.928       -4104.050           0.155  
> 2023 05 18 00 01 15.2688020  0  7                     
G02  24434429.776       19108.510         289.279           0.146  
G03  22314357.376     -194853.960       -3089.885           0.169  
G04  23817252.031     -287030.291       -4798.207           0.151  
G05  22547846.266      -39532.249        -643.901           0.163  
G06  20666025.546     -185682.278       -3044.304           0.181  
G07  23579054.096     -244573.795       -4018.399           0.154  
G09  23055787.788     -245860.682       -4100.833           0.159  
> 2023 05 18 00 01 15.3688020  0  7                     
G02  24434421.908       19137.284         293.646           0.148  
G03  22314437.308     -195163.491       -3094.065           0.169  
G04  23817371.000     -287510.078       -4799.386           0.150  
G05  22547859.895      -39596.564        -644.121           0.166  
G06  20666100.556     -185986.775       -3045.465           0.183  
G07  23579159.062     -244975.630       -4021.015           0.156  
G09  23055898.052     -246270.319       -4098.216           0.159  
> 2023 05 18 00 01 15.4688020  0  7                     
G02  24434409.356       19166.191         283.861           0.145  
G03  22314518.093     -195472.818       -3092.025           0.169  
G04  23817491.399     -287989.753       -4795.888           0.152  
G05  22547877.947      -39660.654        -638.382           0.166  
G06  20666179.019     -186291.131       -3043.704           0.183  
G07  23579259.589     -245377.313       -4022.281           0.154  
G09  23055991.535     -246679.826       -4097.422           0.159  
> 2023 05 18 00 01 15.5688020  0  7                     
G02  24434404.368       19195.007         287.066           0.144  
G03  22314598.328     -195782.345       -3093.985           0.168  
G04  23817616.335     -288469.553       -4799.452           0.150  
G05  22547893.627      -39724.930        -647.051           0.165  
G06  20666257.694     -186595.602       -3048.599           0.181  
G07  23579360.744     -245779.124       -4025.347           0.153  
G09  23056099.340     -247089.441       -4097.813           0.159  
> 2023 05 18 00 01 15.6688020  0  7                     
G02  24434397.356       19223.684         287.255           0.146  
G03  22314667.181     -196091.980       -3100.291           0.168  
G04  23817740.691     -288949.446       -4795.404           0.150  
G05  22547909.697      -39789.315        -646.487           0.164  
G06  20666335.630     -186900.192       -3045.365           0.180  
G07  23579461.394     -246181.069       -4017.998           0.153  
G09  23056208.683     -247499.246       -4100.217           0.158  
> 2023 05 18 00 01 15.7688020  0  7                     
G02  24434386.742       19252.370         290.597           0.145  
G03  22314746.651     -196401.619       -3100.338           0.167  
G04  23817862.752     -289429.410       -4798.300           0.151  
G05  22547928.271      -39853.660        -642.933           0.163  
G06  20666414.901     -187204.813       -3045.649           0.181  
G07  23579563.281     -246582.998       -4020.959           0.152  
G09  23056318.940     -247908.920       -4095.727           0.157  
> 2023 05 18 00 01 15.8688020  0  7                     
G02  24434370.588       19281.063         281.971           0.145  
G03  22314822.437     -196711.174       -3097.416           0.167  
G04  23817986.850     -289909.294       -4801.850           0.150  
G05  22547947.085      -39919.177        -943.324           0.163  
G06  20666493.092     -187509.348       -3045.527           0.182  
G07  23579668.512     -246984.965       -4024.704           0.153  
G09  23056422.065     -248318.634       -4096.414           0.156  
> 2023 05 18 00 01 15.9688020  0  7                     
G02  24434364.578       19309.964         287.621           0.145  
G03  22314905.595     -197020.634       -3093.524           0.168  
G04  23818106.888     -290388.975       -4797.882           0.152  
G05  22547957.263      -39982.027        -627.583           0.164  
G06  20666569.046     -187813.782       -3043.548           0.183  
G07  23579768.851     -247387.174       -4041.161           0.155  
G09  23056521.006     -248728.342       -4113.915           0.158  
> 2023 05 18 00 01 16.0688020  0  7                     
G02  24434358.422       19338.782         287.403           0.146  
G03  22314987.573     -197330.136       -3094.022           0.169  
G04  23818227.182     -290868.737       -4794.441           0.153  
G05  22547976.702      -40046.409        -642.471           0.167  
G06  20666643.973     -188118.217       -3041.957           0.182  
G07  23579870.418     -247788.511       -4016.055           0.156  
G09  23056624.533     -249137.832       -4095.297           0.160  
> 2023 05 18 00 01 16.1688020  0  7                     
G02  24434360.567       19367.424         283.269           0.146  
G03  22315069.626     -197639.763       -3098.829           0.169  
G04  23818350.684     -291348.650       -4792.149           0.152  
G05  22547991.953      -40110.786        -644.393           0.166  
G06  20666717.736     -188422.810       -3046.654           0.182  
G07  23579973.469     -248190.498       -4022.952           0.153  
G09  23056722.343     -249547.610       -4099.552           0.158  
> 2023 05 18 00 01 16.2688020  0  7                     
G02  24434351.756       19396.122         286.335           0.142  
G03  22315148.387     -197949.412       -3096.666           0.167  
G04  23818474.735     -291828.542       -4789.179           0.149  
G05  22548006.988      -40175.147        -641.991           0.163  
G06  20666795.702     -188727.434       -3045.640           0.180  
G07  23580080.490     -248592.379       -4015.007           0.152  
G09  23056837.284     -249957.286       -4092.443           0.156  
> 2023 05 18 00 01 16.3688020  0  7                     
G02  24434339.975       19424.922         290.699           0.144  
G03  22315225.418     -198259.551       -3223.994           0.167  
G04  23818593.491     -292308.436       -4801.278           0.150  
G05  22548026.720      -40239.503        -645.959           0.165  
G06  20666876.471     -189032.000       -3047.405           0.180  
G07  23580186.571     -248994.763       -4126.995           0.153  
G09  23056934.744     -250366.172       -3872.483           0.157  
> 2023 05 18 00 01 16.4688020  0  7                     
G02  24434337.043       19453.631         286.669           0.145  
G03  22315303.011     -198568.626       -3098.917           0.168  
G04  23818715.513     -292788.315       -4799.468           0.151  
G05  22548040.188      -40303.860        -643.401           0.164  
G06  20666955.753     -189336.558       -3044.404           0.181  
G07  23580280.603     -249396.224       -4018.212           0.154  
G09  23057035.860     -250776.748       -4097.596           0.157  
> 2023 05 18 00 01 16.5688020  0  7                     
G02  24434327.541       19482.415         287.162           0.144  
G03  22315377.816     -198878.174       -3097.118           0.168  
G04  23818837.474     -293268.156       -4796.269           0.150  
G05  22548056.096      -40368.131        -641.769           0.166  
G06  20667033.859     -189641.109       -3047.428           0.181  
G07  23580384.110     -249798.097       -4015.904           0.153  
G09  23057141.799     -251186.360       -4098.442           0.157  
> 2023 05 18 00 01 16.6688020  0  7                     
G02  24434319.210       19511.052         286.992           0.146  
G03  22315463.532     -199187.851       -3095.787           0.168  
G04  23818959.574     -293748.139       -4798.162           0.151  
G05  22548074.318      -40432.562        -643.248           0.166  
G06  20667108.137     -189945.754       -3044.556           0.182  
G07  23580479.032     -250200.118       -4017.992           0.153  
G09  23057245.161     -251596.179       -4092.658           0.159  
> 2023 05 18 00 01 16.7688020  0  7                     
G02  24434309.107       19539.655         277.278           0.145  
G03  22315540.517     -199497.600       -3096.486           0.167  
G04  23819075.140     -294228.082       -4795.416           0.149  
G05  22548091.129      -40497.012        -646.368           0.164  
G06  20667186.201     -190250.432       -3046.466           0.181  
G07  23580587.131     -250602.159       -4021.613           0.154  
G09  23057347.151     -252006.003       -4095.505           0.156  
> 2023 05 18 00 01 16.8688020  0  7                     
G02  24434304.564       19568.281         287.289           0.143  
G03  22315616.098     -199807.344       -3095.927           0.167  
G04  23819194.874     -294708.126       -4802.296           0.149  
G05  22548109.290      -40561.492        -644.790           0.162  
G06  20667260.565     -190555.169       -3047.998           0.180  
G07  23580691.489     -251004.206       -4020.946           0.154  
G09  23057455.571     -252415.889       -4099.783           0.156  
> 2023 05 18 00 01 16.9688020  0  7                     
G02  24434294.451       19596.813         287.729           0.142  
G03  22315695.380     -200117.137       -3098.309           0.167  
G04  23819325.015     -295188.107       -4796.817           0.150  
G05  22548120.885      -40625.986        -646.086           0.162  
G06  20667338.749     -190859.904       -3047.383           0.179  
G07  23580792.720     -251406.257       -4018.217           0.153  
G09  23057560.889     -252825.762       -4100.959           0.156  
> 2023 05 18 00 01 17.0688020  0  7                     
G02  24434291.509       19625.610         287.620           0.144  
G03  22315776.069     -200426.725       -3093.555           0.167  
G04  23819450.507     -295667.933       -4795.141           0.149  
G05  22548136.612      -40690.307        -642.732           0.163  
G06  20667418.637     -191164.428       -3044.208           0.180  
G07  23580892.791     -251807.402       -3853.262           0.151  
G09  23057660.157     -253235.538       -4139.126           0.157  
> 2023 05 18 00 01 17.1688020  0  7                     
G02  24434278.743       19654.469         289.944           0.145  
G03  22315860.589     -200736.232       -3095.874           0.170  
G04  23819566.381     -296147.681       -4795.935           0.152  
G05  22548155.050      -40754.539        -645.519           0.165  
G06  20667496.886     -191468.933       -3048.490           0.182  
G07  23580996.570     -252209.922       -4009.396           0.152  
G09  23057766.631     -253644.561       -4137.521           0.157  
> 2023 05 18 00 01 17.2688020  0  7                     
G02  24434267.972       19683.264         289.227           0.147  
G03  22315941.448     -201045.807       -3093.269           0.168  
G04  23819692.658     -296627.520       -4796.085           0.152  
G05  22548177.829      -40818.836        -643.416           0.165  
G06  20667573.681     -191773.453       -3046.077           0.183  
G07  23581097.228     -252611.839       -4015.987           0.154  
G09  23057868.031     -254054.614       -4099.334           0.159  
> 2023 05 18 00 01 17.3688020  0  7                     
G02  24434260.223       19712.110         289.803           0.146  
G03  22316011.891     -201355.405       -3096.358           0.168  
G04  23819816.016     -297107.328       -4799.456           0.151  
G05  22548187.480      -40883.102        -639.031           0.164  
G06  20667651.145     -192078.013       -3048.185           0.181  
G07  23581197.644     -253013.741       -4022.167           0.155  
G09  23057980.293     -254464.202       -4097.091           0.157  
> 2023 05 18 00 01 17.4688020  0  7                     
G02  24434258.583       19740.682         283.906           0.144  
G03  22316095.039     -201665.225       -3100.347           0.168  
G04  23819943.219     -297587.357       -4805.855           0.150  
G05  22548205.396      -40947.647        -647.254           0.165  
G06  20667729.728     -192382.753       -3050.731           0.180  
G07  23581297.677     -253415.860       -4025.190           0.155  
G09  23058085.415     -254874.133       -4100.487           0.157  
> 2023 05 18 00 01 17.5688020  0  7                     
G02  24434252.559       19768.676         277.244           0.144  
G03  22316166.598     -201975.564       -3103.781           0.167  
G04  23820058.929     -298067.880       -4803.633           0.151  
G05  22548217.013      -41012.660        -648.597           0.163  
G06  20667807.989     -192688.041       -3051.404           0.180  
G07  23581402.794     -253818.495       -4024.236           0.152  
G09  23058178.855     -255284.521       -4105.861           0.154  
> 2023 05 18 00 01 17.6688020  0  7                     
G02  24434241.532       19796.923         285.353           0.147  
G03  22316246.229     -202285.733       -3099.565           0.167  
G04  23820188.306     -298548.292       -4803.890           0.149  
G05  22548237.039      -41077.590        -647.558           0.165  
G06  20667886.876     -192993.168       -3047.578           0.180  
G07  23581502.200     -254220.875       -4022.801           0.150  
G09  23058289.518     -255694.786       -4100.527           0.156  
> 2023 05 18 00 01 17.7688020  0  7                     
G02  24434234.882       19825.638         291.426           0.147  
G03  22316331.176     -202595.466       -3094.502           0.167  
G04  23820306.925     -299028.193       -4797.954           0.151  
G05  22548249.251      -41141.993        -642.421           0.165  
G06  20667960.715     -193297.832       -3047.446           0.182  
G07  23581606.128     -254622.898       -4012.543           0.154  
G09  23058398.077     -256104.525       -4092.112           0.158  
> 2023 05 18 00 01 17.8688020  0  7                     
G02  24434224.787       19854.564         284.822           0.145  
G03  22316401.562     -202904.924       -3093.686           0.170  
G04  23820428.641     -299507.836       -4795.467           0.152  
G05  22548270.114      -41206.146        -640.046           0.164  
G06  20668044.040     -193602.276       -3048.136           0.182  
G07  23581707.023     -255024.684       -4017.351           0.155  
G09  23058498.583     -256514.043       -4095.739           0.160  
> 2023 05 18 00 01 17.9688020  0  7                     
G02  24434213.352       19883.360         282.454           0.146  
G03  22316480.976     -203214.380       -3037.430           0.167  
G04  23820554.664     -299987.608       -4794.998           0.149  
G05  22548280.145      -41270.427        -697.713           0.165  
G06  20668119.557     -193906.767       -3047.904           0.182  
G07  23581814.632     -255426.144       -3942.989           0.154  
G09  23058606.058     -256924.110       -4150.546           0.157  
> 2023 05 18 00 01 18.0688020  0  7                     
G02  24434219.003       19912.131         287.611           0.144  
G03  22316557.675     -203524.092       -3093.388           0.166  
G04  23820676.055     -300467.511       -4798.168           0.149  
G05  22548299.716      -41334.717        -640.144           0.165  
G06  20668196.977     -194211.306       -3046.820           0.180  
G07  23581915.957     -255828.478       -4021.197           0.154  
G09  23058707.237     -257333.313       -4096.305           0.157  
> 2023 05 18 00 01 18.1688020  0  7                     
G02  24434210.316       19940.936         287.102           0.145  
G03  22316640.352     -203833.800       -3095.884           0.167  
G04  23820795.894     -300947.323       -4797.450           0.150  
G05  22548315.916      -41399.105        -642.915           0.163  
G06  20668275.285     -194515.964       -3044.798           0.181  
G07  23582016.772     -256230.451       -4025.420           0.153  
G09  23058810.919     -257742.994       -4095.126           0.159  
> 2023 05 18 00 01 18.2688020  0  7                     
G02  24434199.769       19969.618         286.126           0.145  
G03  22316722.568     -204143.823       -3191.681           0.167  
G04  23820916.021     -301427.259       -4802.676           0.152  
G05  22548333.013      -41463.945        -750.422           0.165  
G06  20668347.764     -194820.568       -3047.149           0.181  
G07  23582122.438     -256632.528       -4030.545           0.151  
G09  23058918.907     -258152.943       -4170.457           0.160  
> 2023 05 18 00 01 18.3688020  0  7                     
G02  24434192.778       19997.853         283.747           0.145  
G03  22316799.751     -204453.660       -3099.046           0.169  
G04  23821035.254     -301907.627       -4801.120           0.151  
G05  22548350.246      -41528.444        -653.327           0.164  
G06  20668424.679     -195125.728       -3049.695           0.182  
G07  23582223.615     -257034.959       -4026.430           0.154  
G09  23059020.587     -258562.998       -4100.109           0.158  
> 2023 05 18 00 01 18.4688020  0  7                     
G02  24434179.500       20026.405         286.407           0.145  
G03  22316879.021     -204763.566       -3099.354           0.168  
G04  23821159.841     -302387.678       -4799.354           0.151  
G05  22548365.048      -41592.939        -646.331           0.166  
G06  20668503.477     -195430.544       -3053.014           0.182  
G07  23582320.154     -257437.030       -4019.110           0.153  
G09  23059117.096     -258972.895       -4100.814           0.159  
> 2023 05 18 00 01 18.5688020  0  7                     
G02  24434175.038       20054.704         278.667           0.144  
G03  22316958.813     -205073.625       -3098.308           0.168  
G04  23821279.347     -302867.962       -4800.079           0.150  
G05  22548379.818      -41657.708        -645.832           0.164  
G06  20668579.687     -195735.556       -3051.471           0.181  
G07  23582424.295     -257839.371       -4016.690           0.154  
G09  23059222.470     -259383.007       -4100.534           0.157  
> 2023 05 18 00 01 18.6688020  0  7                     
G02  24434170.302       20083.347         287.099           0.146  
G03  22317034.042     -205383.439       -3094.887           0.167  
G04  23821401.085     -303347.957       -4799.795           0.151  
G05  22548394.871      -41722.231        -644.187           0.165  
G06  20668658.482     -196040.323       -3049.887           0.180  
G07  23582527.460     -258241.423       -4015.130           0.153  
G09  23059330.566     -259792.804       -4096.421           0.157  
> 2023 05 18 00 01 18.7688020  0  7                     
G02  24434153.870       20112.233         290.021           0.143  
G03  22317114.548     -205692.211       -3067.461           0.167  
G04  23821519.448     -303827.751       -4800.622           0.150  
G05  22548413.853      -41786.533        -643.968           0.164  
G06  20668737.667     -196344.899       -3049.432           0.180  
G07  23582627.078     -258643.329       -4015.812           0.153  
G09  23059431.781     -260203.129       -4114.535           0.157  
> 2023 05 18 00 01 18.8688020  0  7                     
G02  24434153.043       20140.558         277.363           0.144  
G03  22317194.895     -206003.213       -3105.164           0.167  
G04  23821643.902     -304308.017       -4801.726           0.152  
G05  22548430.716      -41851.323        -649.624           0.164  
G06  20668813.436     -196649.913       -3049.822           0.181  
G07  23582733.484     -259045.754       -4019.381           0.153  
G09  23059543.055     -260612.591       -4101.229           0.158  
> 2023 05 18 00 01 18.9688020  0  7                     
G02  24434143.785       20168.667         279.681           0.148  
G03  22317270.269     -206313.502       -3106.601           0.168  
G04  23821768.272     -304788.513       -4809.588           0.153  
G05  22548443.201      -41916.297        -652.471           0.166  
G06  20668890.522     -196955.164       -3055.954           0.183  
G07  23582838.941     -259448.346       -4029.940           0.152  
G09  23059646.645     -261022.967       -4109.847           0.156  
> 2023 05 18 00 01 19.0688020  0  7                     
G02  24434146.128       20196.928         287.621           0.145  
G03  22317347.282     -206623.690       -3101.083           0.168  
G04  23821894.239     -305268.880       -4798.692           0.150  
G05  22548462.425      -41981.158        -645.307           0.165  
G06  20668967.242     -197260.298       -3050.361           0.181  
G07  23582936.939     -259850.802       -4019.214           0.155  
G09  23059753.914     -261433.141       -4100.078           0.156  
> 2023 05 18 00 01 19.1688020  0  7                     
G02  24434136.973       20225.404         292.746           0.143  
G03  22317422.869     -206933.666       -3098.145           0.168  
G04  23822014.318     -305749.037       -4804.986           0.149  
G05  22548481.925      -42045.846        -647.554           0.164  
G06  20669041.947     -197565.196       -3048.984           0.182  
G07  23583039.572     -260253.050       -4021.530           0.153  
G09  23059862.412     -261843.058       -4099.307           0.154  
> 2023 05 18 00 01 19.2688020  0  7                     
G02  24434125.485       20253.938         280.786           0.145  
G03  22317509.249     -207243.641       -3102.889           0.168  
G04  23822134.374     -306229.090       -4799.456           0.149  
G05  22548492.197      -42110.421        -647.009           0.164  
G06  20669122.001     -197870.076       -3048.988           0.181  
G07  23583137.738     -260655.222       -4020.926           0.152  
G09  23059959.928     -262253.019       -4101.598           0.157  
> 2023 05 18 00 01 19.3688020  0  7                     
G02  24434118.173       20282.521         287.914           0.142  
G03  22317586.404     -207553.498       -3099.777           0.168  
G04  23822255.541     -306709.131       -4801.675           0.150  
G05  22548508.845      -42175.002        -648.022           0.163  
G06  20669201.143     -198174.884       -3047.257           0.181  
G07  23583239.249     -261057.399       -4019.930           0.152  
G09  23060064.283     -262662.891       -4099.226           0.155  
> 2023 05 18 00 01 19.4688020  0  7                     
G02  24434112.026       20311.281         292.116           0.144  
G03  22317662.689     -207863.185       -3093.408           0.166  
G04  23822378.937     -307189.034       -4797.552           0.149  
G05  22548526.771      -42239.356        -645.655           0.165  
G06  20669277.279     -198479.501       -3043.946           0.181  
G07  23583347.193     -261459.353       -4021.336           0.153  
G09  23060167.293     -263072.527       -4092.505           0.155  
> 2023 05 18 00 01 19.5688020  0  7                     
G02  24434100.177       20339.698         282.545           0.144  
G03  22317743.497     -208173.256       -3104.161           0.167  
G04  23822496.122     -307669.260       -4810.436           0.149  
G05  22548541.869      -42304.076        -651.594           0.162  
G06  20669359.059     -198784.514       -3054.784           0.181  
G07  23583451.721     -261861.637       -4025.169           0.154  
G09  23060268.132     -263482.652       -4106.367           0.156  
> 2023 05 18 00 01 19.6688020  0  7                     
G02  24434096.201       20367.472         279.826           0.145  
G03  22317820.596     -208483.958       -3103.023           0.167  
G04  23822618.493     -308150.075       -4808.477           0.150  
G05  22548564.198      -42369.446        -653.480           0.163  
G06  20669433.725     -199090.158       -3057.253           0.180  
G07  23583556.331     -262264.602       -4023.024           0.154  
G09  23060373.392     -263893.343       -4106.012           0.157  
> 2023 05 18 00 01 19.7688020  0  7                     
G02  24434083.660       20395.676         283.958           0.144  
G03  22317901.672     -208794.260       -3098.791           0.167  
G04  23822744.338     -308630.511       -4802.503           0.148  
G05  22548574.859      -42434.446        -653.148           0.163  
G06  20669512.241     -199395.363       -3050.598           0.179  
G07  23583658.659     -262667.206       -4025.872           0.153  
G09  23060485.255     -264303.555       -4094.327           0.155  
> 2023 05 18 00 01 19.8688020  0  7                     
G02  24434074.980       20424.251         284.436           0.144  
G03  22317980.213     -209104.234       -3098.048           0.166  
G04  23822864.672     -309110.583       -4797.732           0.149  
G05  22548589.596      -42499.031        -649.377           0.163  
G06  20669588.004     -199700.265       -3049.639           0.180  
G07  23583757.512     -263069.379       -4022.681           0.154  
G09  23060592.979     -264713.536       -4098.643           0.156  
> 2023 05 18 00 01 19.9688020  0  7                     
G02  24434073.979       20453.185         300.360           0.144  
G03  22318056.513     -209413.844       -3094.773           0.165  
G04  23822987.382     -309590.303       -4795.042           0.150  
G05  22548607.466      -42563.278        -644.167           0.163  
G06  20669667.906     -200004.762       -3042.749           0.181  
G07  23583865.470     -263471.194       -4015.737           0.153  
G09  23060694.986     -265123.097       -4092.104           0.158  
> 2023 05 18 00 01 20.0688020  0  7                     
G02  24434066.444       20482.292         292.415           0.146  
G03  22318129.508     -209723.167       -3094.537           0.167  
G04  23823115.729     -310069.807       -4800.579           0.150  
G05  22548628.437      -42627.244        -637.153           0.163  
G06  20669742.893     -200309.018       -3044.399           0.181  
G07  23583960.733     -263872.800       -4014.631           0.152  
G09  23060798.165     -265532.371       -4088.155           0.158  
> 2023 05 18 00 01 20.1688020  0  7                     
G02  24434054.034       20511.197         285.769           0.144  
G03  22318209.722     -210032.823       -3099.577           0.167  
G04  23823235.648     -310549.546       -4796.234           0.150  
G05  22548643.010      -42691.561        -648.819           0.167  
G06  20669821.092     -200613.562       -3048.379           0.181  
G07  23584063.248     -264274.681       -4022.798           0.151  
G09  23060904.477     -265942.018       -4098.078           0.158  
> 2023 05 18 00 01 20.2688020  0  7                     
G02  24434054.945       20539.449         284.236           0.143  
G03  22318286.151     -210343.060       -3098.790           0.168  
G04  23823358.965     -311029.923       -4802.982           0.151  
G05  22548662.324      -42756.453        -650.168           0.164  
G06  20669894.473     -200918.780       -3052.279           0.182  
G07  23584171.866     -264677.217       -4025.265           0.155  
G09  23061005.955     -266352.258       -4104.753           0.158  
> 2023 05 18 00 01 20.3688020  0  7                     
G02  24434044.757       20567.735         280.898           0.144  
G03  22318368.637     -210653.252       -3100.808           0.168  
G04  23823483.439     -311510.260       -4806.849           0.150  
G05  22548675.127      -42819.970        -447.968           0.167  
G06  20669976.079     -201223.908       -3052.224           0.182  
G07  23584264.884     -265079.676       -4031.617           0.154  
G09  23061109.815     -266762.361       -4102.133           0.159  
> 2023 05 18 00 01 20.4688020  0  7                     
G02  24434039.474       20595.749         276.877           0.144  
G03  22318449.659     -210963.767       -3104.330           0.168  
G04  23823598.884     -311990.838       -4801.631           0.149  
G05  22548691.606      -42886.433        -651.979           0.163  
G06  20670049.298     -201529.327       -3053.493           0.181  
G07  23584370.527     -265482.430       -4025.748           0.151  
G09  23061219.339     -267172.850       -4106.670           0.156  
> 2023 05 18 00 01 20.5688020  0  7                     
G02  24434028.013       20623.884         283.175           0.144  
G03  22318531.251     -211274.202       -3104.828           0.168  
G04  23823714.496     -312471.367       -4802.546           0.150  
G05  22548708.814      -42951.454        -645.547           0.163  
G06  20670129.282     -201834.640       -3051.323           0.180  
G07  23584471.756     -265884.983       -4023.100           0.152  
G09  23061314.922     -267583.194       -4108.083           0.157  
> 2023 05 18 00 01 20.6688020  0  7                     
G02  24434022.692       20652.161         285.217           0.143  
G03  22318610.253     -211584.397       -3101.257           0.168  
G04  23823843.554     -312951.645       -4799.505           0.151  
G05  22548717.582      -43016.316        -648.091           0.164  
G06  20670211.697     -202139.747       -3049.453           0.181  
G07  23584569.249     -266287.469       -4024.382           0.151  
G09  23061409.562     -267993.348       -4102.058           0.159  
> 2023 05 18 00 01 20.7688020  0  7                     
G02  24434017.098       20680.705         283.853           0.145  
G03  22318690.084     -211894.396       -3101.341           0.168  
G04  23823971.261     -313431.725       -4796.646           0.153  
G05  22548732.343      -43080.944        -647.265           0.164  
G06  20670287.455     -202444.668       -3047.487           0.181  
G07  23584674.540     -266689.705       -4020.487           0.154  
G09  23061516.189     -268403.244       -4096.116           0.159  
> 2023 05 18 00 01 20.8688020  0  7                     
G02  24434004.692       20709.447         288.967           0.147  
G03  22318768.621     -212204.193       -3100.666           0.168  
G04  23824091.353     -313911.648       -4797.868           0.150  
G05  22548753.751      -43145.403        -644.791           0.165  
G06  20670363.344     -202749.387       -3045.908           0.182  
G07  23584779.133     -267091.750       -4017.236           0.155  
G09  23061622.686     -268813.046       -4097.030           0.157  
> 2023 05 18 00 01 20.9688020  0  7                     
G02  24433999.456       20738.283         294.164           0.147  
G03  22318852.058     -212513.891       -3096.076           0.168  
G04  23824206.036     -314391.498       -4798.283           0.151  
G05  22548771.937      -43209.742        -642.591           0.165  
G06  20670439.621     -203054.018       -3046.542           0.181  
G07  23584877.252     -267493.646       -4014.613           0.153  
G09  23061726.394     -269222.643       -4095.369           0.154  
> 2023 05 18 00 01 21.0688020  0  7                     
G02  24433987.230       20767.283         292.698           0.143  
G03  22318921.043     -212823.438       -3091.851           0.164  
G04  23824326.944     -314871.141       -4793.115           0.149  
G05  22548787.068      -43273.926        -638.498           0.164  
G06  20670517.259     -203358.497       -3041.932           0.179  
G07  23584981.881     -267895.549       -4021.099           0.152  
G09  23061838.288     -269632.173       -4094.354           0.156  
> 2023 05 18 00 01 21.1688020  0  7                     
G02  24433983.529       20795.946         292.426           0.144  
G03  22319000.320     -213133.394       -3096.548           0.166  
G04  23824453.929     -315351.178       -4796.934           0.149  
G05  22548805.788      -43338.659        -732.238           0.164  
G06  20670592.365     -203663.322       -3048.036           0.180  
G07  23585083.254     -268297.665       -4023.156           0.152  
G09  23061944.540     -270041.988       -4092.803           0.152  
> 2023 05 18 00 01 21.2688020  0  7                     
G02  24433978.087       20824.702         290.666           0.144  
G03  22319076.676     -213443.151       -3096.284           0.167  
G04  23824579.517     -315830.988       -4800.296           0.150  
G05  22548817.156      -43402.878        -646.174           0.163  
G06  20670671.713     -203968.030       -3049.939           0.179  
G07  23585183.548     -268699.618       -4021.819           0.153  
G09  23062046.566     -270451.677       -4093.225           0.157  
> 2023 05 18 00 01 21.3688020  0  7                     
G02  24433976.067       20853.554         282.222           0.145  
G03  22319163.631     -213752.853       -3099.602           0.167  
G04  23824699.400     -316310.789       -4798.883           0.151  
G05  22548834.558      -43467.194        -644.044           0.165  
G06  20670748.640     -204272.623       -3048.111           0.181  
G07  23585297.927     -269101.574       -4020.192           0.154  
G09  23062151.086     -270861.342       -4098.819           0.158  
> 2023 05 18 00 01 21.4688020  0  7                     
G02  24433961.331       20882.401         289.940           0.145  
G03  22319244.042     -214062.577       -3099.179           0.167  
G04  23824817.375     -316790.575       -4797.235           0.150  
G05  22548849.268      -43531.505        -639.752           0.164  
G06  20670828.632     -204577.232       -3045.822           0.181  
G07  23585394.196     -269503.519       -4019.728           0.151  
G09  23062250.898     -271270.869       -4193.060           0.157  
> 2023 05 18 00 01 21.5688020  0  7                     
G02  24433952.725       20911.382         292.685           0.144  
G03  22319324.323     -214372.169       -3095.185           0.167  
G04  23824946.584     -317270.261       -4800.110           0.150  
G05  22548866.291      -43595.753        -644.229           0.163  
G06  20670904.542     -204881.735       -3043.613           0.180  
G07  23585490.354     -269905.331       -4016.264           0.150  
G09  23062349.354     -271680.494       -4096.826           0.157  
> 2023 05 18 00 01 21.6688020  0  7                     
G02  24433944.816       20940.267         296.344           0.143  
G03  22319406.785     -214681.868       -3097.927           0.167  
G04  23825061.750     -317750.013       -4804.053           0.148  
G05  22548883.316      -43660.073        -643.244           0.162  
G06  20670979.749     -205186.325       -3042.260           0.180  
G07  23585604.032     -270307.259       -4016.788           0.151  
G09  23062446.476     -272090.060       -4096.248           0.155  
> 2023 05 18 00 01 21.7688020  0  7                     
G02  24433943.571       20969.061         285.011           0.141  
G03  22319482.160     -214991.576       -3096.196           0.167  
G04  23825189.353     -318229.855       -4805.679           0.147  
G05  22548896.383      -43724.362        -645.076           0.162  
G06  20671056.451     -205490.969       -3048.892           0.180  
G07  23585713.088     -270709.176       -4021.164           0.151  
G09  23062552.123     -272499.713       -4095.229           0.155  
> 2023 05 18 00 01 21.8688020  0  7                     
G02  24433931.418       20997.620         284.376           0.144  
G03  22319560.489     -215301.659       -3099.098           0.166  
G04  23825312.429     -318709.937       -4801.839           0.150  
G05  22548919.725      -43789.066        -645.459           0.162  
G06  20671136.837     -205795.932       -3049.512           0.179  
G07  23585803.096     -271111.499       -4024.560           0.152  
G09  23062668.147     -272909.701       -4094.880           0.153  
> 2023 05 18 00 01 21.9688020  0  7                     
G02  24433920.084       21026.272         293.158           0.143  
G03  22319632.897     -215611.615       -3097.706           0.167  
G04  23825433.216     -319189.979       -4800.662           0.149  
G05  22548934.612      -43853.637        -641.347           0.163  
G06  20671215.669     -206100.778       -3047.267           0.180  
G07  23585903.440     -271513.679       -4023.047           0.151  
G09  23062775.340     -273319.524       -4095.312           0.157  
> 2023 05 18 00 01 22.0688020  0  7                     
G02  24433915.201       21055.034         284.783           0.145  
G03  22319703.974     -215921.329       -3094.490           0.167  
G04  23825557.250     -319669.751       -4798.113           0.152  
G05  22548947.312      -43918.033        -647.859           0.164  
G06  20671291.552     -206405.443       -3046.271           0.180  
G07  23586009.582     -271915.590       -4014.819           0.154  
G09  23062880.994     -273729.173       -4095.162           0.158  
> 2023 05 18 00 01 22.1688020  0  7                     
G02  24433905.567       21083.797         276.710           0.142  
G03  22319785.219     -216231.197       -3099.176           0.167  
G04  23825675.457     -320149.659       -4797.235           0.148  
G05  22548968.485      -43982.435        -648.524           0.164  
G06  20671369.448     -206710.196       -3047.651           0.179  
G07  23586105.444     -272317.670       -4024.281           0.153  
G09  23062992.117     -274138.920       -4098.665           0.158  
> 2023 05 18 00 01 22.2688020  0  7                     
G02  24433903.032       21112.430         288.554           0.140  
G03  22319863.417     -216541.224       -3100.540           0.166  
G04  23825797.363     -320629.721       -4801.563           0.148  
G05  22548984.257      -44047.034        -649.493           0.161  
G06  20671448.631     -207015.116       -3051.901           0.178  
G07  23586211.508     -272719.831       -4019.077           0.150  
G09  23063087.686     -274548.863       -4099.520           0.156  
> 2023 05 18 00 01 22.3688020  0  7                     
G02  24433893.196       21140.394         281.443           0.141  
G03  22319948.348     -216851.754       -3102.586           0.166  
G04  23825919.962     -321110.364       -4802.497           0.147  
G05  22548996.988      -44111.758        -515.301           0.163  
G06  20671522.535     -207320.574       -3055.899           0.179  
G07  23586314.800     -273122.000       -3954.572           0.150  
G09  23063190.576     -274960.110       -4273.987           0.156  
> 2023 05 18 00 01 22.4688020  0  7                     
G02  24433883.093       21168.870         283.703           0.144  
G03  22320032.549     -217161.897       -3093.488           0.166  
G04  23826043.834     -321590.520       -4799.872           0.149  
G05  22549013.206      -44176.953        -643.650           0.163  
G06  20671601.449     -207625.606       -3048.556           0.179  
G07  23586416.984     -273524.952       -4022.006           0.151  
G09  23063292.570     -275369.337       -4102.656           0.154  
> 2023 05 18 00 01 22.5688020  0  7                     
G02  24433879.059       21197.634         288.290           0.143  
G03  22320108.961     -217471.749       -3097.319           0.164  
G04  23826165.395     -322070.337       -4798.090           0.148  
G05  22549029.595      -44241.345        -642.092           0.164  
G06  20671683.454     -207930.280       -3047.230           0.180  
G07  23586519.719     -273926.956       -4021.258           0.149  
G09  23063390.880     -275778.941       -4097.424           0.154  
> 2023 05 18 00 01 22.6688020  0  7                     
G02  24433868.578       21226.503         291.979           0.147  
G03  22320188.905     -217781.572       -3099.102           0.167  
G04  23826286.437     -322550.157       -4793.627           0.147  
G05  22549044.505      -44305.809        -643.820           0.164  
G06  20671759.865     -208235.025       -3046.933           0.180  
G07  23586625.893     -274329.031       -4017.339           0.150  
G09  23063492.496     -276188.658       -4094.153           0.153  
> 2023 05 18 00 01 22.7688020  0  7                     
G02  24433865.537       21255.350         291.653           0.142  
G03  22320260.179     -218091.261       -3094.505           0.166  
G04  23826407.836     -323029.958       -4798.044           0.149  
G05  22549062.339      -44370.095        -643.993           0.162  
G06  20671838.925     -208539.639       -3045.287           0.179  
G07  23586726.742     -274730.978       -4023.243           0.150  
G09  23063598.169     -276598.233       -4095.830           0.154  
> 2023 05 18 00 01 22.8688020  0  7                     
G02  24433862.139       21284.391         292.194           0.142  
G03  22320343.673     -218400.835       -3095.418           0.167  
G04  23826527.650     -323509.579       -4796.965           0.149  
G05  22549078.652      -44434.276        -642.504           0.164  
G06  20671910.729     -208844.091       -3044.358           0.179  
G07  23586834.272     -275132.718       -4018.171           0.151  
G09  23063706.963     -277007.669       -4093.991           0.157  
> 2023 05 18 00 01 22.9688020  0  7                     
G02  24433850.597       21313.208         288.906           0.142  
G03  22320425.836     -218710.696       -3102.079           0.167  
G04  23826657.252     -323989.440       -4800.895           0.149  
G05  22549096.239      -44498.705        -648.508           0.161  
G06  20671992.618     -209148.831       -3051.837           0.179  
G07  23586923.169     -275534.792       -4020.857           0.152  
G09  23063805.428     -277417.412       -4105.174           0.157  
> 2023 05 18 00 01 23.0688020  0  7                     
G02  24433840.343       21341.774         294.895           0.144  
G03  22320501.915     -219020.774       -3098.335           0.167  
G04  23826773.885     -324469.532       -4796.666           0.148  
G05  22549114.996      -44563.376        -642.770           0.164  
G06  20672069.707     -209453.817       -3048.815           0.178  
G07  23587029.074     -275937.076       -4019.359           0.151  
G09  23063910.094     -277827.354       -4098.055           0.160  
> 2023 05 18 00 01 23.1688020  0  7                     
G02  24433835.170       21370.639         295.720           0.141  
G03  22320579.676     -219331.301       -3143.578           0.165  
G04  23826896.337     -324949.273       -4794.873           0.148  
G05  22549125.755      -44627.656        -643.142           0.164  
G06  20672146.651     -209758.412       -3047.281           0.179  
G07  23587127.404     -276338.536       -3944.786           0.152  
G09  23064019.632     -278236.290       -4176.279           0.157  
> 2023 05 18 00 01 23.2688020  0  7                     
G02  24433831.952       21399.646         288.935           0.142  
G03  22320652.706     -219640.160       -3093.856           0.165  
G04  23827020.564     -325428.895       -4793.348           0.149  
G05  22549144.518      -44691.860        -638.392           0.164  
G06  20672222.048     -210062.929       -3042.681           0.178  
G07  23587234.792     -276740.882       -4020.220           0.152  
G09  23064131.679     -278646.389       -4096.479           0.154  
> 2023 05 18 00 01 23.3688020  0  7                     
G02  24433818.748       21428.672         289.125           0.144  
G03  22320730.340     -219949.780       -3098.357           0.165  
G04  23827136.764     -325908.555       -4796.394           0.150  
G05  22549160.242      -44756.040        -640.730           0.160  
G06  20672298.544     -210367.432       -3043.509           0.178  
G07  23587337.399     -277142.657       -4018.975           0.151  
G09  23064241.823     -279055.871       -4097.583           0.155  
> 2023 05 18 00 01 23.4688020  0  7                     
G02  24433815.431       21457.616         289.432           0.143  
G03  22320813.341     -220259.537       -3100.824           0.164  
G04  23827263.946     -326388.285       -4796.167           0.150  
G05  22549173.621      -44820.415        -644.164           0.163  
G06  20672374.091     -210672.078       -3046.470           0.179  
G07  23587439.746     -277544.630       -4021.043           0.151  
G09  23064335.207     -279465.440       -4097.677           0.157  
> 2023 05 18 00 01 23.5688020  0  7                     
G02  24433803.247       21486.460         289.592           0.144  
G03  22320897.627     -220569.338       -3100.537           0.167  
G04  23827386.914     -326868.089       -4796.023           0.149  
G05  22549189.195      -44884.785        -645.610           0.162  
G06  20672455.587     -210976.765       -3048.904           0.180  
G07  23587541.486     -277946.573       -4018.093           0.154  
G09  23064431.524     -279875.028       -4094.957           0.155  
> 2023 05 18 00 01 23.6688020  0  7                     
G02  24433801.030       21515.205         290.095           0.143  
G03  22320983.717     -220879.179       -3097.383           0.166  
G04  23827504.220     -327348.039       -4800.254           0.149  
G05  22549212.497      -44949.245        -642.153           0.162  
G06  20672533.414     -211281.562       -3047.871           0.179  
G07  23587650.143     -278348.672       -4020.742           0.151  
G09  23064545.314     -280284.853       -4096.514           0.157  
> 2023 05 18 00 01 23.7688020  0  7                     
G02  24433791.022       21543.800         287.988           0.140  
G03  22321058.005     -221189.270       -3098.815           0.166  
G04  23827623.977     -327828.031       -4799.082           0.148  
G05  22549225.677      -45013.881        -645.233           0.165  
G06  20672612.475     -211586.499       -3049.686           0.179  
G07  23587747.331     -278750.954       -4023.874           0.150  
G09  23064650.998     -280694.743       -4097.469           0.155  
> 2023 05 18 00 01 23.8688020  0  7                     
G02  24433782.872       21572.444         279.285           0.141  
G03  22321129.145     -221499.265       -3097.227           0.165  
G04  23827754.517     -328308.068       -4803.002           0.146  
G05  22549242.101      -45078.416        -644.406           0.160  
G06  20672686.099     -211891.371       -3048.876           0.179  
G07  23587841.603     -279153.073       -4013.109           0.151  
G09  23064760.404     -281104.573       -4099.621           0.155  
> 2023 05 18 00 01 23.9688020  0  7                     
G02  24433767.192       21601.315         286.932           0.142  
G03  22321203.766     -221809.151       -3098.524           0.165  
G04  23827875.373     -328787.847       -4793.921           0.149  
G05  22549256.624      -45142.846        -641.694           0.162  
G06  20672762.117     -212196.134       -3047.375           0.178  
G07  23587952.792     -279555.089       -4010.430           0.150  
G09  23064860.748     -281514.247       -4095.145           0.158  
> 2023 05 18 00 01 24.0688020  0  7                     
G02  24433767.577       21630.148         286.928           0.145  
G03  22321287.944     -222118.923       -3099.934           0.165  
G04  23827998.602     -329267.683       -4796.531           0.149  
G05  22549275.311      -45207.205        -643.811           0.163  
G06  20672837.971     -212500.766       -3047.887           0.179  
G07  23588049.275     -279957.147       -4019.194           0.148  
G09  23064960.118     -281923.869       -4097.994           0.156  
> 2023 05 18 00 01 24.1688020  0  7                     
G02  24433761.135       21659.146         291.295           0.143  
G03  22321369.278     -222428.714       -3099.651           0.165  
G04  23828116.860     -329747.424       -4798.030           0.150  
G05  22549286.446      -45271.586        -649.877           0.161  
G06  20672918.027     -212805.448       -3046.410           0.178  
G07  23588157.664     -280359.068       -4018.309           0.150  
G09  23065048.607     -282333.464       -4098.771           0.154  
> 2023 05 18 00 01 24.2688020  0  7                     
G02  24433747.272       21687.973         289.038           0.142  
G03  22321445.952     -222738.492       -3098.966           0.163  
G04  23828241.687     -330227.188       -4799.095           0.149  
G05  22549304.589      -45335.935        -646.929           0.161  
G06  20672994.850     -213110.076       -3042.878           0.178  
G07  23588259.355     -280760.993       -4017.538           0.152  
G09  23065160.822     -282743.030       -4099.236           0.152  
> 2023 05 18 00 01 24.3688020  0  7                     
G02  24433733.742       21716.822         283.230           0.141  
G03  22321525.349     -223048.286       -3100.873           0.165  
G04  23828366.666     -330707.003       -4804.045           0.147  
G05  22549318.159      -45400.250        -641.637           0.159  
G06  20673074.299     -213414.747       -3043.950           0.177  
G07  23588361.032     -281162.983       -4020.795           0.150  
G09  23065277.155     -283152.649       -4098.379           0.154  
> 2023 05 18 00 01 24.4688020  0  7                     
G02  24433735.559       21745.686         290.983           0.141  
G03  22321598.883     -223358.166       -3102.279           0.165  
G04  23828479.632     -331186.847       -4799.466           0.148  
G05  22549336.518      -45464.665        -643.235           0.160  
G06  20673153.170     -213719.521       -3047.761           0.178  
G07  23588464.898     -281565.084       -4022.543           0.148  
G09  23065382.552     -283562.354       -4101.962           0.157  
> 2023 05 18 00 01 24.5688020  0  7                     
G02  24433729.242       21774.434         294.272           0.143  
G03  22321674.489     -223668.128       -3097.209           0.167  
G04  23828605.218     -331666.780       -4795.237           0.148  
G05  22549354.635      -45529.197        -647.142           0.161  
G06  20673228.621     -214024.373       -3044.636           0.178  
G07  23588563.768     -281967.231       -4020.168           0.153  
G09  23065487.298     -283972.132       -4093.789           0.155  
> 2023 05 18 00 01 24.6688020  0  7                     
G02  24433724.753       21803.198         288.376           0.144  
G03  22321758.359     -223978.089       -3103.552           0.165  
G04  23828722.946     -332146.694       -4802.712           0.147  
G05  22549376.028      -45593.695        -647.071           0.164  
G06  20673306.881     -214329.194       -3047.255           0.179  
G07  23588664.510     -282369.339       -4024.521           0.152  
G09  23065596.112     -284381.860       -4097.405           0.153  
> 2023 05 18 00 01 24.7688020  0  7                     
G02  24433713.394       21831.402         283.640           0.145  
G03  22321844.372     -224288.546       -3104.651           0.164  
G04  23828850.707     -332627.127       -4799.629           0.144  
G05  22549388.072      -45658.730        -653.590           0.161  
G06  20673384.736     -214634.509       -3050.894           0.177  
G07  23588770.563     -282771.388       -3977.935           0.149  
G09  23065686.258     -284792.091       -4102.498           0.153  
> 2023 05 18 00 01 24.8688020  0  7                     
G02  24433699.456       21859.781         284.128           0.140  
G03  22321924.881     -224598.893       -3103.899           0.164  
G04  23828970.090     -333107.445       -4801.192           0.147  
G05  22549400.586      -45723.611        -649.744           0.162  
G06  20673461.209     -214939.723       -3047.851           0.178  
G07  23588869.126     -283174.378       -4017.384           0.148  
G09  23065794.064     -285202.187       -4095.928           0.155  
> 2023 05 18 00 01 24.9688020  0  7                     
G02  24433698.328       21888.605         290.429           0.142  
G03  22321997.144     -224908.835       -3100.828           0.164  
G04  23829087.319     -333587.373       -4803.077           0.150  
G05  22549419.436      -45788.125        -648.011           0.161  
G06  20673536.323     -215244.555       -3047.065           0.178  
G07  23588972.597     -283576.500       -4015.167           0.148  
G09  23065905.387     -285611.927       -4093.325           0.157  
> 2023 05 18 00 01 25.0688020  0  7                     
G02  24433689.923       21917.411         281.844           0.142  
G03  22322072.354     -225218.670       -3100.407           0.168  
G04  23829211.082     -334067.121       -4801.756           0.148  
G05  22549437.053      -45852.484        -647.735           0.161  
G06  20673616.593     -215549.260       -3051.111           0.180  
G07  23589070.075     -283978.539       -4022.172           0.151  
G09  23066006.917     -286021.529       -4092.008           0.156  
> 2023 05 18 00 01 25.1688020  0  7                     
G02  24433683.025       21946.175         292.061           0.143  
G03  22322151.438     -225528.442       -2947.683           0.168  
G04  23829333.004     -334547.052       -4795.240           0.150  
G05  22549451.905      -45916.701        -519.180           0.163  
G06  20673691.107     -215854.121       -3048.333           0.180  
G07  23589169.825     -284380.726       -4020.345           0.151  
G09  23066109.136     -286431.336       -4094.979           0.154  
> 2023 05 18 00 01 25.2688020  0  7                     
G02  24433671.854       21975.041         285.461           0.140  
G03  22322233.632     -225838.484       -3094.013           0.162  
G04  23829460.109     -335026.902       -4803.249           0.145  
G05  22549469.675      -45981.365        -640.110           0.161  
G06  20673769.568     -216158.883       -3047.313           0.178  
G07  23589270.465     -284782.738       -4020.526           0.150  
G09  23066204.726     -286840.967       -4096.273           0.150  
> 2023 05 18 00 01 25.3688020  0  7                     
G02  24433660.489       22003.855         288.729           0.142  
G03  22322312.209     -226148.382       -3099.063           0.162  
G04  23829581.968     -335506.712       -4799.801           0.147  
G05  22549487.582      -46045.835        -641.904           0.162  
G06  20673845.145     -216463.636       -3048.335           0.177  
G07  23589380.023     -285184.801       -4026.711           0.149  
G09  23066309.460     -287250.669       -4101.868           0.153  
> 2023 05 18 00 01 25.4688020  0  7                     
G02  24433651.203       22032.828         293.116           0.140  
G03  22322391.934     -226458.210       -3096.485           0.164  
G04  23829701.914     -335986.446       -4795.375           0.147  
G05  22549502.989      -46110.143        -642.200           0.160  
G06  20673922.748     -216768.318       -3046.633           0.177  
G07  23589486.436     -285586.753       -4016.284           0.148  
G09  23066414.023     -287660.216       -4095.695           0.156  
> 2023 05 18 00 01 25.5688020  0  7                     
G02  24433640.672       22061.618         286.980           0.143  
G03  22322472.095     -226768.146       -3097.801           0.164  
G04  23829822.838     -336466.286       -4796.927           0.148  
G05  22549515.063      -46174.596        -643.033           0.162  
G06  20674003.561     -217073.115       -3048.019           0.177  
G07  23589582.206     -285988.882       -4015.078           0.150  
G09  23066519.994     -288069.874       -4089.202           0.156  
> 2023 05 18 00 01 25.6688020  0  7                     
G02  24433633.263       22090.556         293.717           0.143  
G03  22322547.423     -227077.989       -3097.064           0.163  
G04  23829951.217     -336946.071       -4795.379           0.149  
G05  22549535.422      -46238.999        -641.514           0.162  
G06  20674083.054     -217377.789       -3045.604           0.179  
G07  23589684.179     -286390.867       -4017.754           0.152  
G09  23066623.260     -288479.526       -4096.089           0.152  
> 2023 05 18 00 01 25.7688020  0  7                     
G02  24433628.994       22119.414         286.383           0.141  
G03  22322629.575     -227387.884       -3098.191           0.163  
G04  23830067.248     -337425.842       -4792.094           0.147  
G05  22549548.053      -46303.372        -645.785           0.162  
G06  20674159.125     -217682.535       -3048.311           0.180  
G07  23589789.047     -286792.860       -4019.578           0.150  
G09  23066726.246     -288889.116       -4096.709           0.154  
> 2023 05 18 00 01 25.8688020  0  7                     
G02  24433625.302       22148.218         288.653           0.143  
G03  22322710.005     -227697.798       -3097.161           0.165  
G04  23830189.431     -337905.787       -4799.296           0.148  
G05  22549571.499      -46367.855        -643.096           0.160  
G06  20674232.923     -217987.319       -3046.536           0.179  
G07  23589892.695     -287194.976       -4018.618           0.151  
G09  23066824.971     -289298.819       -4098.819           0.158  
> 2023 05 18 00 01 25.9688020  0  7                     
G02  24433616.775       22177.143         283.471           0.143  
G03  22322787.803     -228007.463       -3105.733           0.167  
G04  23830311.863     -338385.536       -4798.818           0.146  
G05  22549582.417      -46430.482        -381.667           0.159  
G06  20674311.789     -218292.026       -3046.291           0.178  
G07  23589988.586     -287596.981       -4020.531           0.151  
G09  23066934.191     -289709.078       -4213.728           0.155  
> 2023 05 18 00 01 26.0688020  0  7                     
G02  24433603.930       22205.916         280.008           0.143  
G03  22322862.396     -228317.598       -3101.124           0.164  
G04  23830436.957     -338865.371       -4795.643           0.147  
G05  22549596.750      -46496.661        -647.199           0.163  
G06  20674388.902     -218596.836       -3046.433           0.178  
G07  23590090.446     -287999.063       -4023.895           0.151  
G09  23067048.295     -290118.095       -4096.866           0.152  
> 2023 05 18 00 01 26.1688020  0  7                     
G02  24433593.048       22234.795         281.530           0.144  
G03  22322943.841     -228627.538       -3099.767           0.164  
G04  23830558.739     -339345.207       -4799.541           0.147  
G05  22549611.834      -46561.140        -643.561           0.161  
G06  20674464.363     -218901.614       -3047.592           0.179  
G07  23590195.123     -288401.179       -4030.834           0.149  
G09  23067149.377     -290527.778       -4098.082           0.156  
> 2023 05 18 00 01 26.2688020  0  7                     
G02  24433600.386       22263.583         282.993           0.143  
G03  22323020.737     -228937.484       -3098.028           0.167  
G04  23830681.000     -339825.036       -4795.745           0.148  
G05  22549627.700      -46625.110        -572.210           0.162  
G06  20674539.913     -219206.460       -3047.471           0.178  
G07  23590297.025     -288804.180       -3974.590           0.150  
G09  23067249.598     -290937.483       -4096.500           0.157  
> 2023 05 18 00 01 26.3688020  0  7                     
G02  24433593.381       22292.459         289.773           0.144  
G03  22323098.705     -229246.890       -2951.136           0.167  
G04  23830802.009     -340304.933       -4801.720           0.148  
G05  22549644.276      -46690.078        -644.992           0.162  
G06  20674623.535     -219511.280       -3051.078           0.178  
G07  23590399.274     -289206.854       -4179.916           0.151  
G09  23067355.316     -291346.458       -4070.033           0.153  
> 2023 05 18 00 01 26.4688020  0  7                     
G02  24433586.604       22321.225         287.615           0.143  
G03  22323169.139     -229557.444       -3101.500           0.165  
G04  23830929.257     -340784.806       -4796.470           0.146  
G05  22549660.859      -46754.624        -648.347           0.163  
G06  20674698.515     -219816.124       -3048.905           0.179  
G07  23590504.216     -289607.528       -4023.952           0.149  
G09  23067467.406     -291756.893       -4098.552           0.153  
> 2023 05 18 00 01 26.5688020  0  7                     
G02  24433580.570       22350.045         289.205           0.142  
G03  22323254.753     -229867.467       -3098.962           0.165  
G04  23831046.135     -341264.732       -4796.068           0.148  
G05  22549675.741      -46819.154        -646.910           0.161  
G06  20674776.157     -220120.974       -3046.861           0.180  
G07  23590604.668     -290009.685       -4026.004           0.150  
G09  23067563.303     -292166.651       -4096.168           0.156  
> 2023 05 18 00 01 26.6688020  0  7                     
G02  24433580.048       22378.834         287.427           0.141  
G03  22323336.879     -230177.410       -3098.476           0.166  
G04  23831170.610     -341744.603       -4800.077           0.149  
G05  22549696.404      -46883.579        -643.452           0.163  
G06  20674854.143     -220425.822       -3048.061           0.179  
G07  23590708.528     -290411.770       -4023.366           0.151  
G09  23067665.939     -292576.383       -4096.592           0.156  
> 2023 05 18 00 01 26.7688020  0  7                     
G02  24433563.582       22407.734         287.061           0.142  
G03  22323412.141     -230487.295       -3099.715           0.165  
G04  23831292.559     -342224.377       -4800.148           0.148  
G05  22549710.123      -46947.953        -644.635           0.162  
G06  20674932.286     -220730.512       -3047.032           0.178  
G07  23590810.072     -290813.769       -4025.017           0.149  
G09  23067776.020     -292985.917       -4095.351           0.152  
> 2023 05 18 00 01 26.8688020  0  7                     
G02  24433556.672       22436.801         286.589           0.142  
G03  22323489.915     -230797.070       -3095.108           0.165  
G04  23831415.720     -342704.023       -4797.732           0.146  
G05  22549728.957      -47012.214        -642.179           0.161  
G06  20675007.503     -221035.153       -3048.250           0.177  
G07  23590914.806     -291215.629       -4021.027           0.150  
G09  23067880.272     -293395.407       -4096.939           0.155  
> 2023 05 18 00 01 26.9688020  0  7                     
G02  24433536.723       22465.782         290.064           0.142  
G03  22323572.267     -231106.870       -3095.808           0.165  
G04  23831537.486     -343183.756       -4795.757           0.147  
G05  22549743.408      -47076.574        -643.098           0.162  
G06  20675088.004     -221339.805       -3047.859           0.179  
G07  23591019.130     -291617.579       -4023.901           0.150  
G09  23067978.448     -293804.992       -4096.603           0.154  
> 2023 05 18 00 01 27.0688020  0  7                     
G02  24433540.802       22494.557         290.256           0.142  
G03  22323651.943     -231416.969       -3104.895           0.163  
G04  23831658.757     -343663.629       -4801.669           0.148  
G05  22549758.106      -47141.149        -649.430           0.163  
G06  20675165.534     -221644.711       -3049.485           0.179  
G07  23591123.786     -292019.773       -4022.573           0.150  
G09  23068091.450     -294214.700       -4097.253           0.154  
> 2023 05 18 00 01 27.1688020  0  7                     
G02  24433537.034       22522.935         284.899           0.143  
G03  22323728.605     -231727.374       -3107.698           0.166  
G04  23831776.158     -344143.942       -4802.176           0.148  
G05  22549779.072      -47206.028        -651.899           0.162  
G06  20675241.639     -221949.962       -3052.403           0.178  
G07  23591222.587     -292422.305       -4024.093           0.151  
G09  23068188.677     -294624.803       -4099.768           0.153  
> 2023 05 18 00 01 27.2688020  0  7                     
G02  24433522.720       22551.226         280.347           0.141  
G03  22323812.932     -232037.914       -3108.128           0.166  
G04  23831895.979     -344624.429       -4815.774           0.145  
G05  22549792.702      -47271.055        -650.877           0.162  
G06  20675320.441     -222255.356       -3055.215           0.178  
G07  23591319.501     -292824.952       -4025.593           0.151  
G09  23068287.487     -295035.069       -4100.897           0.156  
> 2023 05 18 00 01 27.3688020  0  7                     
G02  24433514.242       22579.422         283.553           0.141  
G03  22323883.731     -232348.571       -3107.966           0.165  
G04  23832017.931     -345104.885       -4811.859           0.143  
G05  22549812.550      -47336.247        -654.280           0.162  
G06  20675398.586     -222560.858       -3053.921           0.178  
G07  23591422.133     -293227.727       -4023.955           0.149  
G09  23068404.497     -295445.441       -4103.509           0.154  
> 2023 05 18 00 01 27.4688020  0  7                     
G02  24433501.211       22607.948         292.960           0.142  
G03  22323964.309     -232658.817       -3100.874           0.165  
G04  23832141.847     -345584.988       -4798.295           0.150  
G05  22549827.627      -47400.565        -704.556           0.161  
G06  20675475.676     -222865.963       -3049.414           0.179  
G07  23591529.324     -293629.943       -4139.729           0.151  
G09  23068503.926     -295855.377       -4096.621           0.153  
> 2023 05 18 00 01 27.5688020  0  7                     
G02  24433497.224       22636.952         293.802           0.143  
G03  22324042.691     -232968.673       -3097.134           0.166  
G04  23832264.169     -346064.706       -4801.394           0.148  
G05  22549846.434      -47465.313        -644.360           0.163  
G06  20675552.528     -223170.682       -3048.794           0.179  
G07  23591631.400     -294032.169       -4021.796           0.151  
G09  23068605.659     -296264.960       -4095.882           0.156  
> 2023 05 18 00 01 27.6688020  0  7                     
G02  24433498.350       22665.924         284.304           0.142  
G03  22324122.948     -233278.539       -3096.176           0.166  
G04  23832393.986     -346544.457       -4797.394           0.146  
G05  22549856.159      -47529.641        -644.693           0.160  
G06  20675629.156     -223475.383       -3047.833           0.177  
G07  23591735.157     -294434.089       -4018.887           0.150  
G09  23068715.487     -296674.495       -4096.411           0.154  
> 2023 05 18 00 01 27.7688020  0  7                     
G02  24433480.357       22694.922         292.874           0.141  
G03  22324197.662     -233588.428       -3099.182           0.163  
G04  23832515.685     -347024.184       -4798.386           0.147  
G05  22549872.888      -47594.000        -645.062           0.162  
G06  20675703.452     -223780.086       -3045.181           0.178  
G07  23591835.568     -294836.068       -4009.254           0.149  
G09  23068816.735     -297084.068       -4097.633           0.152  
> 2023 05 18 00 01 27.8688020  0  7                     
G02  24433475.721       22723.909         293.940           0.140  
G03  22324283.970     -233898.201       -3100.004           0.166  
G04  23832637.628     -347503.727       -4796.307           0.148  
G05  22549889.902      -47658.276        -644.522           0.161  
G06  20675783.882     -224084.670       -3046.365           0.178  
G07  23591935.660     -295238.027       -4020.542           0.150  
G09  23068914.419     -297493.457       -4094.842           0.156  
> 2023 05 18 00 01 27.9688020  0  7                     
G02  24433474.344       22752.947         286.911           0.142  
G03  22324361.887     -234208.042       -3099.270           0.167  
G04  23832755.530     -347983.417       -4793.236           0.151  
G05  22549903.124      -47722.548        -643.824           0.163  
G06  20675858.285     -224389.335       -3045.001           0.180  
G07  23592038.559     -295639.946       -4020.973           0.151  
G09  23069021.047     -297902.949       -4094.977           0.158  
> 2023 05 18 00 01 28.0688020  0  7                     
G02  24433466.159       22781.949         289.667           0.144  
G03  22324437.109     -234517.912       -3100.999           0.167  
G04  23832879.698     -348463.260       -4805.449           0.147  
G05  22549923.832      -47786.917        -640.213           0.164  
G06  20675938.782     -224694.117       -3049.065           0.180  
G07  23592137.547     -296041.946       -4027.380           0.153  
G09  23069129.270     -298312.544       -4095.729           0.156  
> 2023 05 18 00 01 28.1688020  0  7                     
G02  24433457.279       22810.892         289.391           0.142  
G03  22324516.558     -234827.849       -3099.165           0.165  
G04  23833002.156     -348942.963       -4798.395           0.148  
G05  22549937.615      -47851.343        -644.353           0.163  
G06  20676012.202     -224998.855       -3048.813           0.179  
G07  23592241.593     -296444.004       -4026.925           0.152  
G09  23069231.101     -298722.144       -4101.622           0.155  
> 2023 05 18 00 01 28.2688020  0  7                     
G02  24433451.784       22839.822         296.612           0.141  
G03  22324590.847     -235137.822       -3102.197           0.165  
G04  23833122.846     -349422.757       -4795.560           0.149  
G05  22549954.598      -47915.764        -646.751           0.162  
G06  20676095.064     -225303.652       -3048.442           0.179  
G07  23592345.743     -296846.040       -4026.323           0.152  
G09  23069338.466     -299131.747       -4096.111           0.155  
> 2023 05 18 00 01 28.3688020  0  7                     
G02  24433438.910       22868.678         290.007           0.144  
G03  22324670.126     -235447.812       -3102.009           0.166  
G04  23833247.775     -349902.565       -4801.984           0.148  
G05  22549972.615      -47980.201        -645.295           0.162  
G06  20676169.796     -225608.436       -3049.869           0.179  
G07  23592448.227     -297249.429       -4155.401           0.151  
G09  23069448.266     -299541.339       -4059.115           0.156  
> 2023 05 18 00 01 28.4688020  0  7                     
G02  24433429.988       22897.598         294.422           0.143  
G03  22324751.263     -235757.793       -3102.378           0.166  
G04  23833364.502     -350382.422       -4799.253           0.149  
G05  22549988.314      -48044.678        -646.547           0.162  
G06  20676249.080     -225913.241       -3044.895           0.180  
G07  23592551.492     -297650.211       -4020.669           0.150  
G09  23069549.256     -299951.040       -4093.889           0.157  
> 2023 05 18 00 01 28.5688020  0  7                     
G02  24433418.840       22926.394         288.877           0.145  
G03  22324829.232     -236067.800       -3101.221           0.166  
G04  23833489.000     -350862.287       -4805.284           0.145  
G05  22550004.443      -48109.102        -644.734           0.163  
G06  20676322.311     -226218.087       -3045.981           0.178  
G07  23592654.162     -298052.312       -4025.148           0.152  
G09  23069653.531     -300360.720       -4095.980           0.156  
> 2023 05 18 00 01 28.6688020  0  7                     
G02  24433405.723       22955.423         287.673           0.141  
G03  22324910.191     -236377.691       -3097.327           0.166  
G04  23833604.046     -351341.984       -4801.312           0.149  
G05  22550014.405      -48173.520        -641.447           0.161  
G06  20676404.018     -226522.851       -3047.808           0.178  
G07  23592752.474     -298454.365       -4022.788           0.150  
G09  23069753.391     -300770.289       -4095.429           0.155  
> 2023 05 18 00 01 28.7688020  0  7                     
G02  24433409.448       22984.177         283.071           0.142  
G03  22324992.541     -236687.843       -3103.221           0.167  
G04  23833733.242     -351821.899       -4805.387           0.149  
G05  22550031.810      -48237.036        -539.137           0.160  
G06  20676480.132     -226827.777       -3051.032           0.179  
G07  23592853.939     -298856.168       -4043.183           0.150  
G09  23069857.426     -301180.812       -4265.877           0.156  
> 2023 05 18 00 01 28.8688020  0  7                     
G02  24433395.069       23012.602         288.686           0.142  
G03  22325067.264     -236998.328       -3106.262           0.167  
G04  23833850.095     -352302.223       -4805.171           0.150  
G05  22550051.058      -48303.028        -650.172           0.163  
G06  20676560.360     -227133.125       -3053.491           0.178  
G07  23592964.032     -299259.198       -4031.926           0.150  
G09  23069963.641     -301590.204       -4101.711           0.157  
> 2023 05 18 00 01 28.9688020  0  7                     
G02  24433390.918       23041.196         285.652           0.143  
G03  22325147.161     -237308.525       -3102.958           0.167  
G04  23833975.858     -352782.238       -4800.501           0.147  
G05  22550071.301      -48367.721        -647.366           0.163  
G06  20676636.591     -227438.170       -3050.146           0.179  
G07  23593064.931     -299661.470       -4026.335           0.150  
G09  23070062.419     -302000.056       -4096.007           0.154  
> 2023 05 18 00 01 29.0688020  0  7                     
G02  24433384.532       23070.149         285.923           0.141  
G03  22325226.310     -237618.547       -3103.098           0.163  
G04  23834103.976     -353262.073       -4799.542           0.149  
G05  22550087.037      -48432.168        -644.629           0.162  
G06  20676716.778     -227742.987       -3048.915           0.178  
G07  23593167.650     -300063.551       -4021.781           0.150  
G09  23070174.280     -302410.867       -4263.820           0.157  
> 2023 05 18 00 01 29.1688020  0  7                     
G02  24433381.863       23098.883         290.997           0.142  
G03  22325306.068     -237928.743       -3102.196           0.165  
G04  23834223.329     -353742.078       -4801.866           0.148  
G05  22550098.269      -48496.786        -643.012           0.163  
G06  20676792.934     -228047.977       -3048.140           0.178  
G07  23593268.799     -300465.863       -4028.578           0.150  
G09  23070275.658     -302819.555       -4100.013           0.154  
> 2023 05 18 00 01 29.2688020  0  7                     
G02  24433381.607       23127.975         291.138           0.142  
G03  22325383.546     -238238.620       -3098.531           0.165  
G04  23834345.538     -354221.705       -4797.632           0.148  
G05  22550116.920      -48561.128        -644.526           0.163  
G06  20676870.303     -228352.692       -3045.279           0.179  
G07  23593369.881     -300867.798       -4022.782           0.151  
G09  23070381.974     -303229.080       -4099.874           0.154  
> 2023 05 18 00 01 29.3688020  0  7                     
G02  24433368.671       23156.880         281.693           0.143  
G03  22325461.836     -238548.519       -3099.474           0.165  
G04  23834472.141     -354701.425       -4801.940           0.150  
G05  22550135.104      -48625.492        -648.243           0.162  
G06  20676948.428     -228657.443       -3051.115           0.180  
G07  23593471.035     -301269.792       -4022.397           0.151  
G09  23070483.705     -303638.563       -4102.389           0.155  
> 2023 05 18 00 01 29.4688020  0  7                     
G02  24433358.129       23185.698         293.449           0.142  
G03  22325538.370     -238858.678       -3101.134           0.164  
G04  23834595.125     -355181.263       -4793.921           0.147  
G05  22550152.886      -48690.044        -643.065           0.161  
G06  20677023.726     -228962.367       -3050.979           0.178  
G07  23593572.555     -301672.016       -4021.918           0.150  
G09  23070585.291     -304048.251       -4097.808           0.157  
> 2023 05 18 00 01 29.5688020  0  7                     
G02  24433347.476       23214.389         281.489           0.142  
G03  22325619.763     -239168.920       -3105.713           0.165  
G04  23834713.370     -355661.357       -4802.502           0.147  
G05  22550166.813      -48754.753        -651.823           0.161  
G06  20677104.579     -229267.464       -3058.860           0.178  
G07  23593673.007     -302074.389       -4035.704           0.151  
G09  23070687.143     -304458.168       -4102.583           0.155  
> 2023 05 18 00 01 29.6688020  0  7                     
G02  24433332.387       23242.510         283.449           0.143  
G03  22325698.770     -239479.690       -3105.658           0.166  
G04  23834831.930     -356141.933       -4801.676           0.147  
G05  22550182.918      -48819.971        -649.145           0.159  
G06  20677175.938     -229573.048       -3053.796           0.178  
G07  23593778.969     -302477.228       -4031.634           0.151  
G09  23070796.229     -304868.539       -4100.708           0.156  
> 2023 05 18 00 01 29.7688020  0  7                     
G02  24433337.759       23270.977         285.876           0.143  
G03  22325778.998     -239790.168       -3101.083           0.166  
G04  23834946.976     -356622.195       -4801.423           0.148  
G05  22550196.791      -48884.874        -647.637           0.164  
G06  20677255.542     -229878.328       -3050.404           0.179  
G07  23593879.746     -302879.750       -4023.365           0.152  
G09  23070900.548     -305278.597       -4098.749           0.156  
> 2023 05 18 00 01 29.8688020  0  7                     
G02  24433330.942       23299.360         284.029           0.144  
G03  22325863.003     -240100.724       -3106.936           0.166  
G04  23835070.409     -357102.520       -4803.616           0.149  
G05  22550216.135      -48949.847        -648.484           0.164  
G06  20677331.423     -230183.695       -3054.423           0.179  
G07  23593983.447     -303282.374       -4021.209           0.150  
G09  23071000.952     -305688.761       -4101.748           0.156  
> 2023 05 18 00 01 29.9688020  0  7                     
G02  24433322.317       23327.789         282.139           0.141  
G03  22325936.534     -240410.448       -3056.068           0.167  
G04  23835196.406     -357582.782       -4795.443           0.148  
G05  22550236.217      -49014.896        -736.382           0.163  
G06  20677411.568     -230489.037       -3048.877           0.178  
G07  23594087.839     -303684.998       -4018.242           0.149  
G09  23071105.440     -306098.052       -3760.391           0.156  
> 2023 05 18 00 01 30.0688020  0  7                     
G02  24433310.884       23356.479         290.806           0.140  
G03  22326019.705     -240721.584       -3106.594           0.165  
G04  23835324.791     -358062.939       -4809.579           0.147  
G05  22550243.419      -49079.586        -649.782           0.160  
G06  20677489.956     -230794.177       -3050.927           0.178  
G07  23594189.437     -304087.416       -4026.826           0.149  
G09  23071209.448     -306508.823       -4097.401           0.153  
> 2023 05 18 00 01 30.1688020  0  7                     
G02  24433305.696       23385.109         295.298           0.141  
G03  22326096.780     -241031.886       -3103.055           0.165  
G04  23835438.178     -358542.989       -4802.273           0.147  
G05  22550268.210      -49144.335        -649.480           0.163  
G06  20677567.668     -231099.306       -3051.149           0.179  
G07  23594292.950     -304489.778       -4022.442           0.151  
G09  23071319.752     -306918.677       -4092.969           0.155  
> 2023 05 18 00 01 30.2688020  0  7                     
G02  24433300.335       23413.892         289.691           0.141  
G03  22326172.822     -241341.940       -3101.005           0.165  
G04  23835565.985     -359022.847       -4795.359           0.146  
G05  22550282.159      -49208.837        -648.137           0.162  
G06  20677641.124     -231404.193       -3046.421           0.179  
G07  23594392.887     -304891.889       -4021.144           0.152  
G09  23071422.570     -307328.405       -4092.506           0.156  
> 2023 05 18 00 01 30.3688020  0  7                     
G02  24433287.295       23443.085         289.017           0.142  
G03  22326253.130     -241651.826       -3102.195           0.166  
G04  23835683.706     -359502.430       -4795.562           0.147  
G05  22550298.772      -49273.116        -645.159           0.162  
G06  20677722.827     -231708.871       -3046.589           0.178  
G07  23594493.819     -305293.844       -4023.943           0.149  
G09  23071518.140     -307737.850       -4096.589           0.154  
> 2023 05 18 00 01 30.4688020  0  7                     
G02  24433276.146       23472.366         298.101           0.140  
G03  22326326.183     -241961.533       -3096.311           0.164  
G04  23835803.791     -359981.839       -4787.304           0.147  
G05  22550311.092      -49337.225        -642.150           0.161  
G06  20677795.119     -232013.400       -3045.641           0.179  
G07  23594589.124     -305695.595       -4016.331           0.149  
G09  23071627.154     -308147.129       -4094.379           0.155  
> 2023 05 18 00 01 30.5688020  0  7                     
G02  24433279.332       23501.774         295.782           0.140  
G03  22326405.577     -242271.123       -3098.915           0.165  
G04  23835935.957     -360461.246       -4796.160           0.146  
G05  22550327.597      -49401.210        -642.235           0.164  
G06  20677876.000     -232317.765       -3045.545           0.178  
G07  23594693.079     -306097.304       -4020.441           0.149  
G09  23071734.841     -308556.260       -4091.906           0.154  
> 2023 05 18 00 01 30.6688020  0  7                     
G02  24433268.903       23530.608         286.523           0.142  
G03  22326488.384     -242581.240       -3105.261           0.166  
G04  23836058.078     -360941.056       -4801.035           0.148  
G05  22550346.288      -49465.734        -652.678           0.162  
G06  20677955.555     -232622.676       -3050.045           0.179  
G07  23594800.645     -306499.459       -4020.391           0.150  
G09  23071831.282     -308965.969       -4101.227           0.156  
> 2023 05 18 00 01 30.7688020  0  7                     
G02  24433257.764       23559.435         291.189           0.143  
G03  22326565.421     -242891.359       -3102.072           0.165  
G04  23836177.809     -361420.934       -4797.675           0.147  
G05  22550363.911      -49530.253        -643.084           0.162  
G06  20678031.691     -232927.624       -3049.199           0.179  
G07  23594900.693     -306901.623       -4015.358           0.152  
G09  23071938.655     -309375.663       -4099.600           0.155  
> 2023 05 18 00 01 30.8688020  0  7                     
G02  24433250.500       23587.869         282.096           0.142  
G03  22326646.445     -243201.885       -3104.383           0.165  
G04  23836301.082     -361901.172       -4804.057           0.146  
G05  22550379.168      -49595.190        -650.039           0.161  
G06  20678111.231     -233232.941       -3053.982           0.178  
G07  23595002.289     -307304.219       -4026.031           0.151  
G09  23072049.594     -309785.768       -4106.178           0.155  
> 2023 05 18 00 01 30.9688020  0  7                     
G02  24433243.325       23616.375         281.810           0.144  
G03  22326725.142     -243512.418       -3104.866           0.165  
G04  23836419.731     -362381.432       -4798.033           0.149  
G05  22550393.209      -49660.135        -645.891           0.162  
G06  20678187.135     -233538.254       -3053.035           0.178  
G07  23595109.422     -307706.774       -4023.546           0.151  
G09  23072150.503     -310195.798       -4097.251           0.154  
> 2023 05 18 00 01 31.0688020  0  7                     
G02  24433237.331       23645.048         281.393           0.144  
G03  22326803.601     -243822.744       -3105.091           0.165  
G04  23836544.011     -362861.529       -4805.074           0.147  
G05  22550409.423      -49724.864        -648.078           0.162  
G06  20678263.069     -233843.411       -3055.154           0.179  
G07  23595207.814     -308109.186       -4027.733           0.149  
G09  23072252.016     -310605.757       -4101.681           0.153  
> 2023 05 18 00 01 31.1688020  0  7                     
G02  24433235.068       23673.850         292.398           0.144  
G03  22326884.422     -244132.942       -3100.163           0.164  
G04  23836664.492     -363341.485       -4801.098           0.149  
G05  22550427.386      -49789.514        -643.122           0.163  
G06  20678338.549     -234148.388       -3044.891           0.180  
G07  23595310.806     -308511.481       -4022.905           0.150  
G09  23072357.195     -311015.548       -4099.954           0.155  
> 2023 05 18 00 01 31.2688020  0  7                     
G02  24433227.501       23702.827         288.052           0.141  
G03  22326960.508     -244442.926       -3102.576           0.166  
G04  23836787.736     -363821.161       -4804.568           0.147  
G05  22550447.119      -49853.899        -645.082           0.162  
G06  20678419.123     -234453.173       -3046.401           0.180  
G07  23595415.587     -308913.490       -4023.531           0.151  
G09  23072466.050     -311425.054       -4097.872           0.154  
> 2023 05 18 00 01 31.3688020  0  7                     
G02  24433217.583       23731.958         295.956           0.141  
G03  22327041.928     -244752.862       -3095.750           0.166  
G04  23836908.352     -364300.814       -4790.017           0.148  
G05  22550461.936      -49918.273        -647.560           0.162  
G06  20678500.643     -234757.943       -3044.833           0.178  
G07  23595517.910     -309315.459       -4021.218           0.149  
G09  23072564.309     -311834.503       -4091.254           0.155  
> 2023 05 18 00 01 31.4688020  0  7                     
G02  24433207.958       23761.177         289.566           0.141  
G03  22327118.338     -245062.568       -3092.424           0.164  
G04  23837029.304     -364780.260       -4793.594           0.147  
G05  22550476.764      -49982.346        -639.923           0.160  
G06  20678575.168     -235062.456       -3042.506           0.178  
G07  23595619.102     -309717.274       -4017.719           0.151  
G09  23072667.578     -312243.790       -4087.948           0.155  
> 2023 05 18 00 01 31.5688020  0  7                     
G02  24433200.125       23790.643         298.769           0.141  
G03  22327197.139     -245372.217       -3100.551           0.166  
G04  23837160.212     -365259.567       -4791.089           0.147  
G05  22550488.426      -50046.356        -637.029           0.161  
G06  20678649.219     -235366.836       -3042.237           0.179  
G07  23595724.770     -310118.924       -4020.866           0.151  
G09  23072770.557     -312652.909       -4089.197           0.154  
> 2023 05 18 00 01 31.6688020  0  7                     
G02  24433194.019       23819.872         289.910           0.144  
G03  22327280.154     -245681.942       -3099.076           0.165  
G04  23837273.228     -365739.040       -4792.912           0.148  
G05  22550506.638      -50110.494        -641.912           0.164  
G06  20678729.538     -235671.408       -3047.011           0.179  
G07  23595827.723     -310520.740       -4019.521           0.151  
G09  23072870.938     -313062.236       -4094.710           0.155  
