     3.03           OBSERVATION DATA    M: Mixed            RINEX VERSION / TYPE
GNSS-SDRLIB v1.1                        20230710 134241 UTC PGM / RUN BY / DATE 
                                                            MARKER NAME         
                                                            MARKER NUMBER       
                                                            MARKER TYPE         
                                                            OBSERVER / AGENCY   
GNSS-SDRLIB         GNSS-SDRLIB         1.1                 REC # / TYPE / VERS 
                                                            ANT # / TYPE        
        0.0000        0.0000        0.0000                  APPROX POSITION XYZ 
        0.0000        0.0000        0.0000                  ANTENNA: DELTA H/E/N
G    4 C1C L1C D1C S1C                                      SYS / # / OBS TYPES 
R    4 C1C L1C D1C S1C                                      SYS / # / OBS TYPES 
E    4 C1C L1C D1C S1C                                      SYS / # / OBS TYPES 
J    4 C1C L1C D1C S1C                                      SYS / # / OBS TYPES 
S    4 C1C L1C D1C S1C                                      SYS / # / OBS TYPES 
C    4 C1C L1C D1C S1C                                      SYS / # / OBS TYPES 
I    4 C1C L1C D1C S1C                                      SYS / # / OBS TYPES 
  1970    01    01    00    00   00.0000000     GPS         TIME OF FIRST OBS   
  1970    01    01    00    00   00.0000000     GPS         TIME OF LAST OBS    
G L1C                                                       SYS / PHASE SHIFT   
R L1C                                                       SYS / PHASE SHIFT   
E L1C  0.00000                                              SYS / PHASE SHIFT   
J L1C                                                       SYS / PHASE SHIFT   
S L1C                                                       SYS / PHASE SHIFT   
C L1C  0.00000                                              SYS / PHASE SHIFT   
I L1C  0.00000                                              SYS / PHASE SHIFT   
  0                                                         GLONASS SLOT / FRQ #
 C1C    0.000 C1P    0.000 C2C    0.000 C2P    0.000        GLONASS COD/PHS/BIS 
                                                            END OF HEADER       
> 2023 05 18 00 00 36.0688020  0  1                     
G06  20640614.753      -86702.419       -3080.390           0.138  
> 2023 05 18 00 00 36.0688020  0  2                     
G03  22288466.681      -88057.297       -3125.890           0.121  
G06  20640614.753      -86702.419       -3080.390           0.138  
> 2023 05 18 00 00 36.1688020  0  2                     
G03  22288550.521      -88369.695       -3129.981           0.122  
G06  20640702.247      -87010.253       -3080.629           0.137  
> 2023 05 18 00 00 36.2688020  0  2                     
G03  22288628.716      -88682.049       -3118.686           0.123  
G06  20640779.200      -87318.011       -3075.632           0.136  
> 2023 05 18 00 00 36.3688020  0  2                     
G03  22288715.805      -88994.522       -3127.774           0.124  
G06  20640853.254      -87625.858       -3077.934           0.138  
> 2023 05 18 00 00 36.4688020  0  2                     
G03  22288796.394      -89306.889       -3122.975           0.125  
G06  20640935.362      -87933.678       -3076.869           0.139  
> 2023 05 18 00 00 36.5688020  0  2                     
G03  22288870.705      -89619.333       -3124.218           0.124  
G06  20641009.253      -88241.536       -3077.563           0.136  
> 2023 05 18 00 00 36.6688020  0  2                     
G03  22288946.265      -89931.885       -3123.041           0.124  
G06  20641089.459      -88549.426       -3074.558           0.136  
> 2023 05 18 00 00 36.7688020  0  2                     
G03  22289027.807      -90244.437       -3128.689           0.123  
G06  20641162.559      -88857.406       -3082.766           0.138  
> 2023 05 18 00 00 36.8688020  0  2                     
G03  22289108.665      -90557.479       -3129.663           0.125  
G06  20641244.885      -89165.858       -3085.687           0.139  
> 2023 05 18 00 00 36.9688020  0  2                     
G03  22289185.027      -90870.770       -3134.214           0.124  
G06  20641320.978      -89474.515       -3084.399           0.137  
> 2023 05 18 00 00 37.0688020  0  2                     
G03  22289264.483      -91184.442       -3136.205           0.127  
G06  20641399.694      -89783.586       -3090.971           0.138  
> 2023 05 18 00 00 37.1688020  0  2                     
G03  22289344.376      -91497.700       -3127.364           0.124  
G06  20641477.639      -90092.280       -3080.281           0.140  
> 2023 05 18 00 00 37.2688020  0  2                     
G03  22289430.815      -91810.730       -3131.507           0.126  
G06  20641558.467      -90400.727       -3086.917           0.139  
> 2023 05 18 00 00 37.3688020  0  2                     
G03  22289501.089      -92123.982       -3133.348           0.125  
G06  20641635.932      -90709.357       -3085.721           0.139  
> 2023 05 18 00 00 37.4688020  0  2                     
G03  22289585.814      -92437.114       -3129.738           0.127  
G06  20641721.383      -91017.822       -3079.197           0.139  
> 2023 05 18 00 00 37.5688020  0  2                     
G03  22289664.628      -92749.743       -3118.687           0.124  
G06  20641791.478      -91325.915       -3079.465           0.139  
> 2023 05 18 00 00 37.6688020  0  2                     
G03  22289748.241      -93062.185       -3120.473           0.128  
G06  20641867.704      -91633.674       -3077.535           0.141  
> 2023 05 18 00 00 37.7688020  0  2                     
G03  22289824.771      -93374.788       -3128.749           0.124  
G06  20641946.748      -91941.714       -3081.882           0.140  
> 2023 05 18 00 00 37.8688020  0  2                     
G03  22289903.341      -93688.354       -3138.295           0.125  
G06  20642026.934      -92250.598       -3086.146           0.139  
> 2023 05 18 00 00 37.9688020  0  2                     
G03  22289988.675      -94001.358       -3125.002           0.125  
G06  20642102.232      -92559.026       -3079.842           0.137  
> 2023 05 18 00 00 38.0688020  0  2                     
G03  22290060.521      -94314.058       -3126.909           0.125  
G06  20642186.703      -92867.126       -3080.950           0.138  
> 2023 05 18 00 00 38.1688020  0  2                     
G03  22290139.782      -94626.546       -3122.102           0.125  
G06  20642261.756      -93175.027       -3076.797           0.138  
> 2023 05 18 00 00 38.2688020  0  2                     
G03  22290219.123      -94938.633       -3113.529           0.124  
G06  20642338.665      -93482.486       -3072.796           0.139  
> 2023 05 18 00 00 38.3688020  0  2                     
G03  22290292.472      -95250.802       -3122.284           0.127  
G06  20642415.502      -93789.932       -3071.069           0.139  
> 2023 05 18 00 00 38.4688020  0  2                     
G03  22290372.832      -95563.055       -3120.325           0.125  
G06  20642496.887      -94097.632       -3075.635           0.139  
> 2023 05 18 00 00 38.5688020  0  2                     
G03  22290450.671      -95875.387       -3125.782           0.124  
G06  20642576.643      -94405.315       -3079.638           0.139  
> 2023 05 18 00 00 38.6688020  0  2                     
G03  22290527.079      -96187.927       -3123.875           0.126  
G06  20642659.035      -94713.217       -3079.109           0.139  
> 2023 05 18 00 00 38.7688020  0  2                     
G03  22290619.605      -96499.735       -2982.013           0.126  
G06  20642732.803      -95020.983       -3078.793           0.138  
> 2023 05 18 00 00 38.8688020  0  2                     
G03  22290693.489      -96812.759       -3123.330           0.127  
G06  20642810.763      -95328.793       -3080.802           0.136  
> 2023 05 18 00 00 38.9688020  0  2                     
G03  22290772.493      -97125.371       -3124.790           0.125  
G06  20642886.259      -95636.825       -3084.064           0.138  
> 2023 05 18 00 00 39.0688020  0  2                     
G03  22290857.200      -97437.861       -3123.975           0.124  
G06  20642963.031      -95944.613       -3079.254           0.138  
> 2023 05 18 00 00 39.1688020  0  2                     
G03  22290934.177      -97750.291       -3118.446           0.125  
G06  20643045.221      -96252.473       -3077.470           0.139  
> 2023 05 18 00 00 39.2688020  0  2                     
G03  22291011.969      -98062.631       -3121.523           0.124  
G06  20643122.999      -96560.175       -3076.817           0.138  
> 2023 05 18 00 00 39.3688020  0  2                     
G03  22291094.999      -98375.089       -3124.303           0.121  
G06  20643198.863      -96867.988       -3076.380           0.135  
> 2023 05 18 00 00 39.4688020  0  2                     
G03  22291172.345      -98687.414       -3121.321           0.121  
G06  20643280.587      -97175.686       -3073.572           0.135  
> 2023 05 18 00 00 39.5688020  0  2                     
G03  22291251.325      -98999.740       -3128.795           0.118  
G06  20643353.710      -97483.409       -3070.516           0.133  
> 2023 05 18 00 00 39.6688020  0  2                     
G03  22291333.176      -99312.259       -3122.310           0.118  
G06  20643433.843      -97791.223       -3077.973           0.131  
> 2023 05 18 00 00 39.7688020  0  2                     
G03  22291417.287      -99624.715       -3124.425           0.116  
G06  20643515.371      -98099.088       -3081.150           0.130  
> 2023 05 18 00 00 39.8688020  0  2                     
G03  22291497.924      -99937.083       -3119.856           0.116  
G06  20643595.354      -98406.776       -3078.255           0.129  
> 2023 05 18 00 00 39.9688020  0  2                     
G03  22291568.105     -100249.383       -3127.143           0.116  
G06  20643670.276      -98714.413       -3077.038           0.132  
> 2023 05 18 00 00 40.0688020  0  2                     
G03  22291650.119     -100561.763       -3123.219           0.118  
G06  20643743.919      -99022.151       -3075.737           0.133  
> 2023 05 18 00 00 40.1688020  0  2                     
G03  22291729.870     -100874.256       -3128.902           0.122  
G06  20643823.990      -99330.021       -3080.131           0.134  
> 2023 05 18 00 00 40.2688020  0  2                     
G03  22291808.875     -101186.908       -3127.179           0.120  
G06  20643907.058      -99638.090       -3079.918           0.134  
> 2023 05 18 00 00 40.3688020  0  2                     
G03  22291888.916     -101499.696       -3127.770           0.122  
G06  20643987.665      -99946.182       -3083.323           0.134  
> 2023 05 18 00 00 40.4688020  0  2                     
G03  22291969.254     -101812.122       -3122.991           0.128  
G06  20644063.387     -100253.958       -3077.327           0.137  
> 2023 05 18 00 00 40.5688020  0  2                     
G03  22292044.677     -102124.447       -3124.579           0.123  
G06  20644137.329     -100561.629       -3077.950           0.138  
> 2023 05 18 00 00 40.6688020  0  2                     
G03  22292126.144     -102436.663       -3123.736           0.126  
G06  20644217.474     -100869.222       -3077.078           0.138  
> 2023 05 18 00 00 40.7688020  0  2                     
G03  22292206.469     -102748.798       -3124.845           0.123  
G06  20644298.043     -101176.704       -3076.632           0.138  
> 2023 05 18 00 00 40.8688020  0  2                     
G03  22292284.701     -103061.049       -3123.908           0.123  
G06  20644376.892     -101484.371       -3081.021           0.138  
> 2023 05 18 00 00 40.9688020  0  2                     
G03  22292360.236     -103373.263       -3116.132           0.118  
G06  20644448.894     -101791.934       -3074.015           0.135  
> 2023 05 18 00 00 41.0688020  0  2                     
G03  22292443.325     -103685.525       -3119.748           0.119  
G06  20644532.091     -102099.505       -3079.620           0.134  
> 2023 05 18 00 00 41.1688020  0  2                     
G03  22292522.320     -103997.918       -3126.556           0.121  
G06  20644613.615     -102407.186       -3080.594           0.132  
> 2023 05 18 00 00 41.2688020  0  2                     
G03  22292598.198     -104310.243       -3120.366           0.119  
G06  20644688.486     -102714.871       -3072.641           0.133  
> 2023 05 18 00 00 41.3688020  0  2                     
G03  22292692.887     -104622.617       -3126.746           0.119  
G06  20644768.599     -103022.617       -3077.946           0.131  
> 2023 05 18 00 00 41.4688020  0  2                     
G03  22292762.513     -104935.281       -3130.151           0.120  
G06  20644842.447     -103330.595       -3081.237           0.131  
> 2023 05 18 00 00 41.5688020  0  2                     
G03  22292844.235     -105248.054       -3128.648           0.120  
G06  20644922.708     -103638.748       -3078.883           0.133  
> 2023 05 18 00 00 41.6688020  0  2                     
G03  22292917.509     -105560.680       -3122.746           0.120  
G06  20644997.481     -103946.689       -3075.788           0.133  
> 2023 05 18 00 00 41.7688020  0  2                     
G03  22292993.385     -105873.128       -3128.639           0.121  
G06  20645081.559     -104254.489       -3079.650           0.134  
> 2023 05 18 00 00 41.8688020  0  2                     
G03  22293076.200     -106185.770       -3132.406           0.117  
G06  20645162.157     -104562.445       -3083.209           0.132  
> 2023 05 18 00 00 41.9688020  0  2                     
G03  22293156.566     -106498.717       -3127.672           0.119  
G06  20645236.541     -104870.749       -3081.350           0.132  
> 2023 05 18 00 00 42.0688020  0  2                     
G03  22293242.365     -106811.179       -3126.018           0.119  
G06  20645309.986     -105178.556       -3080.217           0.134  
> 2023 05 18 00 00 42.1688020  0  2                     
G03  22293315.649     -107123.692       -3124.467           0.121  
G06  20645392.099     -105486.425       -3080.149           0.134  
> 2023 05 18 00 00 42.2688020  0  2                     
G03  22293392.612     -107436.511       -3122.059           0.118  
G06  20645469.509     -105794.603       -3083.636           0.135  
> 2023 05 18 00 00 42.3688020  0  2                     
G03  22293472.266     -107749.059       -3121.017           0.118  
G06  20645545.707     -106102.491       -3082.003           0.132  
> 2023 05 18 00 00 42.4688020  0  2                     
G03  22293546.331     -108061.231       -3121.981           0.118  
G06  20645623.068     -106409.941       -3072.388           0.130  
> 2023 05 18 00 00 42.5688020  0  2                     
G03  22293628.308     -108373.167       -3117.893           0.120  
G06  20645706.626     -106717.268       -3073.906           0.131  
> 2023 05 18 00 00 42.6688020  0  2                     
G03  22293717.942     -108685.007       -3114.381           0.119  
G06  20645786.417     -107024.468       -3068.026           0.132  
> 2023 05 18 00 00 42.7688020  0  2                     
G03  22293795.246     -108997.430       -3133.625           0.121  
G06  20645863.399     -107332.170       -3086.999           0.135  
