     3.03           OBSERVATION DATA    M: Mixed            RINEX VERSION / TYPE
GNSS-SDRLIB v1.1                        20230710 133447 UTC PGM / RUN BY / DATE 
                                                            MARKER NAME         
                                                            MARKER NUMBER       
                                                            MARKER TYPE         
                                                            OBSERVER / AGENCY   
GNSS-SDRLIB         GNSS-SDRLIB         1.1                 REC # / TYPE / VERS 
                                                            ANT # / TYPE        
        0.0000        0.0000        0.0000                  APPROX POSITION XYZ 
        0.0000        0.0000        0.0000                  ANTENNA: DELTA H/E/N
G    4 C1C L1C D1C S1C                                      SYS / # / OBS TYPES 
R    4 C1C L1C D1C S1C                                      SYS / # / OBS TYPES 
E    4 C1C L1C D1C S1C                                      SYS / # / OBS TYPES 
J    4 C1C L1C D1C S1C                                      SYS / # / OBS TYPES 
S    4 C1C L1C D1C S1C                                      SYS / # / OBS TYPES 
C    4 C1C L1C D1C S1C                                      SYS / # / OBS TYPES 
I    4 C1C L1C D1C S1C                                      SYS / # / OBS TYPES 
  1970    01    01    00    00   00.0000000     GPS         TIME OF FIRST OBS   
  1970    01    01    00    00   00.0000000     GPS         TIME OF LAST OBS    
G L1C                                                       SYS / PHASE SHIFT   
R L1C                                                       SYS / PHASE SHIFT   
E L1C  0.00000                                              SYS / PHASE SHIFT   
J L1C                                                       SYS / PHASE SHIFT   
S L1C                                                       SYS / PHASE SHIFT   
C L1C  0.00000                                              SYS / PHASE SHIFT   
I L1C  0.00000                                              SYS / PHASE SHIFT   
  0                                                         GLONASS SLOT / FRQ #
 C1C    0.000 C1P    0.000 C2C    0.000 C2P    0.000        GLONASS COD/PHS/BIS 
                                                            END OF HEADER       
> 2023 05 18 00 00 36.0688020  0  1                     
G03  20635937.250      -63337.055       -3105.306           0.118  
> 2023 05 18 00 00 36.0688020  0  3                     
G03  22283624.705      -63319.984       -3105.589           0.118  
G06  20635770.151      -57484.017       -3059.832           0.132  
G09  23014980.848      -66443.762       -4121.288           0.108  
> 2023 05 18 00 00 36.0688020  0  4                     
G03  22283624.705      -63319.984       -3105.589           0.118  
G05  22541565.381      -12488.157        -661.602           0.114  
G06  20635770.151      -57484.017       -3059.832           0.132  
G09  23014980.848      -66443.762       -4121.288           0.108  
> 2023 05 18 00 00 36.0688020  0  6                     
G03  22283624.705      -63319.984       -3105.589           0.118  
G04  23769439.601      -94301.129       -4823.942           0.100  
G05  22541565.381      -12488.157        -661.602           0.114  
G06  20635770.151      -57484.017       -3059.832           0.132  
G07  23539060.944      -72597.067       -4036.444           0.105  
G09  23014980.848      -66443.762       -4121.288           0.108  
> 2023 05 18 00 00 36.0688020  0  7                     
G02  24437397.606        6473.214         258.022           0.095  
G03  22283624.705      -63319.984       -3105.589           0.118  
G04  23769439.601      -94301.129       -4823.942           0.100  
G05  22541565.381      -12488.270        -734.323           0.114  
G06  20635770.151      -57484.017       -3059.832           0.132  
G07  23539060.944      -72597.067       -4036.444           0.105  
G09  23014980.848      -66443.841       -4106.495           0.108  
> 2023 05 18 00 00 36.1688020  0  7                     
G02  24437388.794        6499.162         261.503           0.096  
G03  22283704.473      -63630.556       -3106.664           0.118  
G04  23769556.837      -94783.423       -4824.025           0.100  
G05  22541584.054      -12554.359        -660.258           0.114  
G06  20635852.548      -57789.986       -3057.244           0.132  
G07  23539166.607      -73000.591       -4031.233           0.103  
G09  23015083.531      -66855.966       -4120.127           0.107  
> 2023 05 18 00 00 36.2688020  0  7                     
G02  24437382.481        6525.231         259.767           0.095  
G03  22283779.685      -63940.966       -3103.918           0.118  
G04  23769681.763      -95265.512       -4823.217           0.100  
G05  22541602.432      -12620.411        -661.744           0.114  
G06  20635925.585      -58095.803       -3058.691           0.131  
G07  23539268.411      -73404.068       -4037.291           0.104  
G09  23015190.945      -67267.984       -4119.711           0.107  
> 2023 05 18 00 00 36.3688020  0  7                     
G02  24437375.741        6550.624         241.227           0.094  
G03  22283862.092      -64252.106       -3119.039           0.118  
G04  23769805.450      -95748.313       -4837.887           0.100  
G05  22541617.480      -12687.199        -678.054           0.113  
G06  20636007.195      -58402.338       -3073.321           0.131  
G07  23539369.910      -73808.149       -4049.450           0.102  
G09  23015293.117      -67680.664       -4131.677           0.107  
> 2023 05 18 00 00 36.4688020  0  7                     
G02  24437368.600        6575.353         249.457           0.095  
G03  22283938.406      -64563.918       -3113.514           0.118  
G04  23769928.527      -96231.831       -4829.989           0.100  
G05  22541635.978      -12754.575        -671.278           0.114  
G06  20636084.042      -58709.554       -3070.700           0.131  
G07  23539473.298      -74212.989       -4044.892           0.104  
G09  23015396.911      -68094.112       -4131.817           0.108  
> 2023 05 18 00 00 36.5688020  0  7                     
G02  24437362.492        6600.592         254.369           0.096  
G03  22284021.286      -64875.206       -3111.248           0.118  
G04  23770054.914      -96714.808       -4828.143           0.100  
G05  22541650.610      -12821.552        -666.224           0.114  
G06  20636163.357      -59016.247       -3066.744           0.131  
G07  23539582.463      -74617.290       -4042.651           0.104  
G09  23015503.626      -68506.998       -4129.039           0.108  
> 2023 05 18 00 00 36.6688020  0  7                     
G02  24437360.800        6626.155         259.117           0.094  
G03  22284102.390      -65186.187       -3108.617           0.117  
G04  23770176.044      -97197.473       -4824.899           0.101  
G05  22541669.032      -12888.134        -665.234           0.115  
G06  20636240.751      -59322.609       -3063.061           0.131  
G07  23539681.215      -75021.247       -4039.755           0.104  
G09  23015608.863      -68919.556       -4126.806           0.108  
> 2023 05 18 00 00 36.7688020  0  7                     
G02  24437354.281        6651.529         250.800           0.095  
G03  22284179.111      -65497.358       -3113.704           0.118  
G04  23770298.568      -97680.332       -4831.208           0.102  
G05  22541685.957      -12954.960        -669.899           0.114  
G06  20636317.692      -59629.192       -3068.000           0.131  
G07  23539782.961      -75425.386       -4042.427           0.103  
G09  23015715.519      -69332.317       -4130.553           0.109  
> 2023 05 18 00 00 36.8688020  0  7                     
G02  24437346.578        6676.836         253.909           0.095  
G03  22284261.472      -65808.602       -3111.308           0.117  
G04  23770418.570      -98163.244       -4827.372           0.100  
G05  22541700.625      -13021.755        -667.255           0.115  
G06  20636397.094      -59935.842       -3066.511           0.131  
G07  23539887.965      -75829.657       -4044.172           0.105  
G09  23015823.106      -69745.095       -4125.979           0.108  
> 2023 05 18 00 00 36.9688020  0  7                     
G02  24437340.053        6702.279         255.802           0.095  
G03  22284339.674      -66119.709       -3111.460           0.119  
G04  23770534.750      -98645.991       -4825.297           0.099  
G05  22541719.804      -13088.505        -666.255           0.115  
G06  20636472.098      -60242.313       -3066.011           0.131  
G07  23539986.108      -76233.702       -4040.989           0.103  
G09  23015925.503      -70157.769       -4127.496           0.108  
> 2023 05 18 00 00 37.0688020  0  7                     
G02  24437332.950        6727.821         256.376           0.096  
G03  22284416.311      -66430.705       -3109.352           0.119  
G04  23770658.492      -99128.659       -4824.057           0.101  
G05  22541736.770      -13155.107        -664.766           0.114  
G06  20636551.090      -60548.711       -3061.402           0.131  
G07  23540089.461      -76637.670       -4040.835           0.104  
G09  23016028.287      -70570.301       -4125.274           0.108  
> 2023 05 18 00 00 37.1688020  0  7                     
G02  24437322.935        6753.487         250.977           0.096  
G03  22284492.283      -66741.591       -3110.652           0.118  
G04  23770784.498      -99611.283       -4827.492           0.101  
G05  22541752.098      -13221.611        -664.512           0.114  
G06  20636628.433      -60855.008       -3064.388           0.130  
G07  23540193.476      -77041.602       -4042.322           0.104  
G09  23016134.482      -70982.790       -4128.779           0.107  
> 2023 05 18 00 00 37.2688020  0  7                     
G02  24437315.223        6778.604         247.851           0.093  
G03  22284572.290      -67053.016       -3113.392           0.118  
G04  23770909.982     -100094.362       -4829.935           0.101  
G05  22541767.187      -13288.687        -670.816           0.114  
G06  20636707.476      -61161.849       -3070.778           0.130  
G07  23540295.698      -77445.977       -4045.251           0.103  
G09  23016238.364      -71395.748       -4130.462           0.108  
> 2023 05 18 00 00 37.3688020  0  7                     
G02  24437308.631        6803.014         236.957           0.095  
G03  22284649.258      -67365.143       -3122.535           0.117  
G04  23771031.469     -100578.140       -4838.258           0.101  
G05  22541787.507      -13356.382        -675.690           0.114  
G06  20636785.283      -61469.334       -3073.848           0.131  
G07  23540398.198      -77851.111       -4053.182           0.102  
G09  23016341.293      -71809.430       -4137.560           0.106  
> 2023 05 18 00 00 37.4688020  0  7                     
G02  24437304.095        6827.152         240.544           0.095  
G03  22284733.950      -67677.611       -3124.370           0.117  
G04  23771155.622     -101062.247       -4842.724           0.101  
G05  22541807.358      -13424.509        -681.449           0.115  
G06  20636864.198      -61777.197       -3078.020           0.131  
G07  23540498.821      -78256.520       -4053.911           0.103  
G09  23016450.381      -72223.472       -4142.382           0.107  
> 2023 05 18 00 00 37.5688020  0  7                     
G02  24437296.980        6851.761         248.310           0.096  
G03  22284811.747      -67989.585       -3118.810           0.117  
G04  23771278.341     -101545.833       -4834.019           0.100  
G05  22541819.162      -13492.060        -673.941           0.114  
G06  20636938.832      -62084.555       -3072.704           0.131  
G07  23540606.108      -78661.468       -4050.566           0.103  
G09  23016557.281      -72636.962       -4132.625           0.107  
> 2023 05 18 00 00 37.6688020  0  7                     
G02  24437288.555        6876.938         254.875           0.095  
G03  22284893.784      -68300.956       -3107.498           0.117  
G04  23771402.523     -102028.861       -4824.490           0.100  
G05  22541836.387      -13559.018        -668.305           0.114  
G06  20637021.036      -62391.297       -3061.511           0.131  
G07  23540706.962      -79065.833       -4034.574           0.103  
G09  23016657.528      -73049.884       -4126.915           0.108  
> 2023 05 18 00 00 37.7688020  0  7                     
G02  24437279.590        6902.806         257.868           0.095  
G03  22284973.434      -68611.721       -3105.810           0.118  
G04  23771527.315     -102511.296       -4823.276           0.101  
G05  22541852.867      -13625.390        -661.374           0.114  
G06  20637095.974      -62697.451       -3059.929           0.131  
G07  23540810.043      -79469.532       -4034.040           0.104  
G09  23016764.760      -73462.232       -4122.451           0.108  
> 2023 05 18 00 00 37.8688020  0  7                     
G02  24437276.129        6928.741         258.311           0.095  
G03  22285050.815      -68922.349       -3104.370           0.118  
G04  23771651.472     -102993.559       -4823.035           0.101  
G05  22541868.345      -13691.636        -663.902           0.114  
G06  20637174.665      -63003.496       -3062.493           0.131  
G07  23540915.590      -79873.153       -4034.540           0.104  
G09  23016870.473      -73874.382       -4124.602           0.108  
> 2023 05 18 00 00 37.9688020  0  7                     
G02  24437275.456        6954.577         258.243           0.096  
G03  22285128.518      -69233.131       -3107.344           0.118  
G04  23771770.406     -103475.953       -4823.422           0.101  
G05  22541887.307      -13757.968        -664.910           0.115  
G06  20637250.925      -63309.639       -3061.733           0.131  
G07  23541015.277      -80276.911       -4038.020           0.104  
G09  23016973.680      -74286.669       -4122.876           0.108  
> 2023 05 18 00 00 38.0688020  0  7                     
G02  24437266.362        6980.062         254.834           0.094  
G03  22285210.518      -69544.000       -3077.884           0.117  
G04  23771896.402     -103958.698       -4830.256           0.101  
G05  22541901.405      -13824.459        -571.798           0.115  
G06  20637332.459      -63616.122       -3067.763           0.131  
G07  23541121.324      -80680.656       -4004.804           0.104  
G09  23017075.825      -74699.610       -4138.787           0.108  
> 2023 05 18 00 00 38.1688020  0  7                     
G02  24437256.196        7005.501         252.868           0.096  
G03  22285291.857      -69855.355       -3110.612           0.118  
G04  23772014.366     -104441.474       -4826.583           0.101  
G05  22541922.206      -13891.393        -664.812           0.114  
G06  20637410.522      -63922.649       -3064.860           0.131  
G07  23541221.570      -81085.096       -4040.984           0.104  
G09  23017180.997      -75111.980       -4126.762           0.108  
> 2023 05 18 00 00 38.2688020  0  7                     
G02  24437245.649        7031.247         262.222           0.096  
G03  22285364.506      -70166.214       -3104.582           0.118  
G04  23772137.997     -104924.009       -4825.740           0.100  
G05  22541935.184      -13957.869        -663.029           0.115  
G06  20637486.468      -64228.881       -3058.396           0.131  
G07  23541330.511      -81488.943       -4036.886           0.103  
G09  23017285.993      -75524.378       -4120.651           0.108  
> 2023 05 18 00 00 38.3688020  0  7                     
G02  24437241.950        7057.522         263.561           0.096  
G03  22285442.476      -70476.591       -3101.309           0.118  
G04  23772258.059     -105405.949       -4817.827           0.100  
G05  22541956.236      -14023.800        -657.082           0.114  
G06  20637563.258      -64534.617       -3054.150           0.131  
G07  23541424.273      -81892.259       -4031.989           0.104  
G09  23017391.407      -75936.239       -4118.463           0.108  
> 2023 05 18 00 00 38.4688020  0  7                     
G02  24437233.211        7083.909         261.450           0.096  
G03  22285523.478      -70786.793       -3102.825           0.118  
G04  23772385.822     -105887.784       -4819.414           0.101  
G05  22541971.664      -14089.601        -656.445           0.114  
G06  20637640.737      -64840.213       -3057.675           0.131  
G07  23541528.511      -82295.409       -4032.560           0.105  
G09  23017502.828      -76347.936       -4117.408           0.107  
> 2023 05 18 00 00 38.5688020  0  7                     
G02  24437225.666        7110.254         260.817           0.095  
G03  22285603.808      -71097.087       -3104.738           0.118  
G04  23772506.337     -106369.670       -4818.582           0.101  
G05  22541986.980      -14155.462        -656.769           0.114  
G06  20637718.865      -65145.861       -3058.122           0.131  
G07  23541629.763      -82698.668       -4034.880           0.105  
G09  23017604.020      -76759.737       -4117.918           0.108  
> 2023 05 18 00 00 38.6688020  0  7                     
G02  24437221.592        7136.482         262.271           0.095  
G03  22285680.321      -71407.499       -3106.154           0.118  
G04  23772624.932     -106851.716       -4821.938           0.101  
G05  22542003.124      -14221.480        -659.082           0.114  
G06  20637796.902      -65451.643       -3058.481           0.131  
G07  23541735.025      -83102.000       -4031.134           0.104  
G09  23017705.616      -77171.663       -4120.491           0.108  
> 2023 05 18 00 00 38.7688020  0  7                     
G02  24437214.272        7162.490         262.186           0.096  
G03  22285759.515      -71718.117       -3105.408           0.118  
G04  23772751.222     -107333.964       -4823.572           0.100  
G05  22542021.303      -14287.687        -660.946           0.115  
G06  20637875.100      -65757.653       -3061.110           0.131  
G07  23541837.510      -83505.600       -4034.305           0.104  
G09  23017811.474      -77583.784       -4120.169           0.108  
> 2023 05 18 00 00 38.8688020  0  7                     
G02  24437209.543        7188.346         259.192           0.096  
G03  22285841.009      -72028.894       -3108.887           0.118  
G04  23772869.906     -107816.337       -4822.603           0.100  
G05  22542035.350      -14354.036        -663.317           0.115  
G06  20637952.483      -66063.778       -3060.620           0.131  
G07  23541940.520      -83909.324       -4037.615           0.104  
G09  23017922.910      -77996.017       -4118.912           0.107  
> 2023 05 18 00 00 38.9688020  0  7                     
G02  24437201.698        7214.025         257.437           0.096  
G03  22285917.544      -72339.813       -3108.432           0.118  
G04  23772995.650     -108298.877       -4822.544           0.099  
G05  22542052.753      -14420.547        -664.068           0.113  
G06  20638033.377      -66370.070       -3060.742           0.131  
G07  23542045.553      -84313.233       -4042.521           0.102  
G09  23018020.896      -78408.466       -4122.795           0.107  
> 2023 05 18 00 00 39.0688020  0  7                     
G02  24437194.101        7239.845         261.701           0.096  
G03  22285994.707      -72650.675       -3106.451           0.118  
G04  23773121.106     -108781.322       -4821.198           0.100  
G05  22542067.803      -14486.940        -662.928           0.114  
G06  20638111.454      -66676.329       -3061.818           0.131  
G07  23542148.013      -84717.037       -4039.208           0.103  
G09  23018118.724      -78820.834       -4123.674           0.108  
> 2023 05 18 00 00 39.1688020  0  7                     
G02  24437186.385        7265.484         249.914           0.095  
G03  22286075.410      -72961.619       -3110.917           0.118  
G04  23773246.152     -109263.841       -4824.434           0.100  
G05  22542087.564      -14553.466        -667.936           0.115  
G06  20638188.154      -66982.629       -3065.064           0.131  
G07  23542250.729      -85120.919       -4042.760           0.101  
G09  23018232.818      -79233.245       -4125.058           0.107  
> 2023 05 18 00 00 39.2688020  0  7                     
G02  24437183.146        7290.364         242.706           0.095  
G03  22286153.493      -73273.451       -3121.321           0.117  
G04  23773368.316     -109747.273       -4835.368           0.100  
G05  22542103.326      -14620.887        -678.526           0.112  
G06  20638265.285      -67289.834       -3075.040           0.130  
G07  23542351.578      -85525.663       -4050.320           0.103  
G09  23018339.364      -79646.566       -4137.443           0.107  
> 2023 05 18 00 00 39.3688020  0  7                     
G02  24437171.380        7314.345         235.392           0.093  
G03  22286233.509      -73586.102       -3127.828           0.117  
G04  23773488.998     -110231.540       -4844.800           0.100  
G05  22542118.948      -14688.474        -542.009           0.114  
G06  20638344.760      -67597.857       -3082.970           0.131  
G07  23542458.053      -85930.797       -4234.502           0.102  
G09  23018441.408      -80059.508       -4222.886           0.107  
> 2023 05 18 00 00 39.4688020  0  7                     
G02  24437165.694        7338.458         237.280           0.094  
G03  22286312.144      -73898.649       -3123.897           0.117  
G04  23773614.730     -110715.657       -4839.284           0.100  
G05  22542136.447      -14757.161        -676.838           0.114  
G06  20638420.739      -67905.775       -3076.528           0.131  
G07  23542553.561      -86336.777       -4056.350           0.103  
G09  23018548.406      -80474.727       -4139.373           0.108  
> 2023 05 18 00 00 39.5688020  0  7                     
G02  24437165.910        7363.040         243.021           0.095  
G03  22286390.033      -74210.759       -3128.055           0.117  
G04  23773732.085     -111199.346       -4843.101           0.100  
G05  22542154.768      -14824.846        -679.394           0.114  
G06  20638497.293      -68213.233       -3078.890           0.131  
G07  23542656.897      -86741.812       -4055.044           0.101  
G09  23018654.710      -80888.306       -4142.662           0.108  
> 2023 05 18 00 00 39.6688020  0  7                     
G02  24437153.365        7387.009         240.972           0.095  
G03  22286472.708      -74523.434       -3125.176           0.117  
G04  23773858.042     -111683.603       -4842.072           0.100  
G05  22542171.548      -14893.104        -681.924           0.114  
G06  20638577.300      -68521.295       -3078.848           0.130  
G07  23542764.945      -87147.455       -4055.072           0.104  
G09  23018760.830      -81302.445       -4140.108           0.107  
> 2023 05 18 00 00 39.7688020  0  7                     
G02  24437144.030        7411.014         238.260           0.094  
G03  22286550.961      -74836.099       -3125.077           0.116  
G04  23773982.923     -112167.792       -4837.134           0.099  
G05  22542190.092      -14961.316        -682.217           0.113  
G06  20638656.143      -68829.312       -3077.636           0.130  
G07  23542863.564      -87553.032       -4051.740           0.103  
G09  23018864.570      -81716.553       -4139.462           0.106  
> 2023 05 18 00 00 39.8688020  0  7                     
G02  24437137.330        7436.023         253.710           0.092  
G03  22286629.668      -75147.735       -3109.180           0.116  
G04  23774106.337     -112651.034       -4826.147           0.097  
G05  22542205.929      -15028.531        -667.017           0.113  
G06  20638735.433      -69136.344       -3063.973           0.129  
G07  23542968.406      -87957.693       -4040.456           0.102  
G09  23018970.074      -82129.719       -4128.222           0.107  
> 2023 05 18 00 00 39.9688020  0  7                     
G02  24437137.010        7461.521         256.422           0.092  
G03  22286709.417      -75458.935       -3109.045           0.115  
G04  23774227.190     -113133.795       -4825.038           0.098  
G05  22542223.555      -15095.276        -664.289           0.113  
G06  20638811.190      -69442.896       -3063.085           0.129  
G07  23543073.140      -88361.801       -4038.427           0.100  
G09  23019073.861      -82542.347       -4124.780           0.107  
> 2023 05 18 00 00 40.0688020  0  7                     
G02  24437130.099        7487.435         264.063           0.092  
G03  22286793.508      -75769.787       -3106.670           0.116  
G04  23774346.499     -113616.190       -4821.995           0.098  
G05  22542239.055      -15161.615        -660.915           0.112  
G06  20638889.508      -69749.064       -3061.587           0.128  
G07  23543175.466      -88765.516       -4034.841           0.100  
G09  23019177.435      -82954.582       -4119.608           0.105  
> 2023 05 18 00 00 40.1688020  0  7                     
G02  24437124.602        7513.575         262.866           0.091  
G03  22286868.057      -76080.324       -3106.348           0.114  
G04  23774472.831     -114098.273       -4822.665           0.097  
G05  22542256.419      -15227.736        -664.966           0.109  
G06  20638966.834      -70054.965       -3059.565           0.127  
G07  23543277.172      -89169.008       -4035.699           0.101  
G09  23019282.950      -83366.588       -4121.028           0.104  
> 2023 05 18 00 00 40.2688020  0  7                     
G02  24437114.474        7539.657         258.463           0.089  
G03  22286947.985      -76390.930       -3107.154           0.113  
G04  23774594.020     -114580.457       -4823.814           0.095  
G05  22542275.373      -15293.864        -662.782           0.111  
G06  20639046.764      -70360.932       -3059.739           0.127  
G07  23543381.764      -89572.559       -4035.783           0.099  
G09  23019390.622      -83778.675       -4122.240           0.105  
> 2023 05 18 00 00 40.3688020  0  7                     
G02  24437112.377        7565.725         259.699           0.089  
G03  22287026.453      -76701.572       -3107.470           0.113  
G04  23774720.436     -115062.663       -4821.748           0.096  
G05  22542287.952      -15360.080        -663.616           0.110  
G06  20639121.844      -70666.934       -3059.447           0.126  
G07  23543484.470      -89976.127       -4034.872           0.100  
G09  23019494.973      -84190.752       -4121.522           0.105  
> 2023 05 18 00 00 40.4688020  0  7                     
G02  24437101.558        7591.754         254.669           0.091  
G03  22287103.208      -77012.242       -3106.048           0.113  
G04  23774840.879     -115544.870       -4820.986           0.096  
G05  22542306.941      -15426.284        -663.163           0.110  
G06  20639203.031      -70972.948       -3060.018           0.126  
G07  23543586.069      -90379.716       -4035.612           0.100  
G09  23019598.525      -84602.864       -4122.037           0.103  
> 2023 05 18 00 00 40.5688020  0  7                     
G02  24437096.200        7617.859         261.197           0.089  
G03  22287182.479      -77322.872       -3106.403           0.112  
G04  23774964.157     -116027.063       -4821.949           0.096  
G05  22542325.883      -15492.442        -661.462           0.110  
G06  20639277.950      -71278.956       -3059.706           0.125  
G07  23543686.995      -90783.254       -4029.825           0.097  
G09  23019702.762      -85014.903       -4075.710           0.103  
> 2023 05 18 00 00 40.6688020  0  7                     
G02  24437089.978        7643.930         261.921           0.090  
G03  22287260.530      -77633.543       -3106.965           0.112  
G04  23775084.699     -116509.244       -4823.122           0.096  
G05  22542342.100      -15558.636        -664.918           0.109  
G06  20639356.018      -71584.964       -3059.514           0.125  
G07  23543792.262      -91186.850       -4035.083           0.098  
G09  23019806.027      -85427.020       -4123.324           0.101  
> 2023 05 18 00 00 40.7688020  0  7                     
G02  24437081.314        7669.828         262.055           0.088  
G03  22287345.526      -77944.347       -3109.472           0.112  
G04  23775210.088     -116991.557       -4820.718           0.092  
G05  22542357.564      -15624.941        -664.538           0.106  
G06  20639433.745      -71891.096       -3059.592           0.124  
G07  23543894.863      -91590.560       -4038.335           0.097  
G09  23019910.842      -85839.206       -4122.799           0.101  
> 2023 05 18 00 00 40.8688020  0  7                     
G02  24437079.308        7695.673         262.159           0.090  
G03  22287424.123      -78255.193       -3110.457           0.110  
G04  23775330.816     -117474.004       -4823.993           0.095  
G05  22542372.056      -15691.341        -664.291           0.109  
G06  20639512.364      -72197.329       -3061.719           0.123  
G07  23543994.762      -91994.342       -4036.314           0.096  
G09  23020018.574      -86251.520       -4121.982           0.101  
> 2023 05 18 00 00 40.9688020  0  7                     
G02  24437076.215        7721.303         249.721           0.091  
G03  22287501.253      -78566.282       -3115.029           0.112  
G04  23775454.076     -117956.610       -4829.375           0.096  
G05  22542391.074      -15757.496        -705.388           0.110  
G06  20639588.956      -72503.794       -3070.670           0.126  
G07  23544099.815      -92399.253       -4033.046           0.098  
G09  23020117.794      -86663.959       -4081.115           0.102  
> 2023 05 18 00 00 41.0688020  0  7                     
G02  24437063.489        7745.596         237.234           0.088  
G03  22287579.130      -78878.751       -3128.319           0.112  
G04  23775579.702     -118440.619       -4844.029           0.096  
G05  22542407.961      -15826.037        -690.381           0.109  
G06  20639669.363      -72811.589       -3082.355           0.125  
G07  23544203.952      -92803.764       -4058.493           0.097  
G09  23020221.370      -87077.912       -4144.938           0.101  
> 2023 05 18 00 00 41.1688020  0  7                     
G02  24437056.042        7769.249         240.010           0.090  
G03  22287660.550      -79191.824       -3129.143           0.112  
G04  23775702.796     -118925.195       -4845.557           0.096  
G05  22542424.015      -15894.587        -683.845           0.109  
G06  20639745.263      -73119.994       -3082.593           0.125  
G07  23544304.526      -93209.717       -4059.027           0.098  
G09  23020331.513      -87492.400       -4145.596           0.101  
> 2023 05 18 00 00 41.2688020  0  7                     
G02  24437047.761        7793.567         252.064           0.089  
G03  22287737.741      -79504.234       -3118.665           0.112  
G04  23775825.752     -119409.123       -4833.480           0.095  
G05  22542437.957      -15962.533        -673.328           0.109  
G06  20639824.951      -73427.771       -3073.312           0.126  
G07  23544408.050      -93615.292       -4012.096           0.098  
G09  23020438.650      -87906.506       -4161.022           0.102  
> 2023 05 18 00 00 41.3688020  0  7                     
G02  24437051.040        7818.659         254.600           0.088  
G03  22287821.111      -79815.895       -3114.916           0.112  
G04  23775951.021     -119892.275       -4830.592           0.095  
G05  22542460.151      -16029.749        -674.127           0.109  
G06  20639905.657      -73734.786       -3071.422           0.125  
G07  23544511.634      -94019.670       -4050.363           0.096  
G09  23020545.113      -88319.312       -4131.819           0.102  
> 2023 05 18 00 00 41.4688020  0  7                     
G02  24437042.086        7844.148         256.024           0.090  
G03  22287898.293      -80127.149       -3111.487           0.112  
G04  23776067.579     -120375.077       -4829.252           0.095  
G05  22542477.912      -16096.452        -663.626           0.107  
G06  20639980.034      -74041.363       -3065.667           0.125  
G07  23544611.123      -94423.786       -4038.643           0.098  
G09  23020648.316      -88731.956       -4122.809           0.102  
> 2023 05 18 00 00 41.5688020  0  7                     
G02  24437029.856        7870.016         260.615           0.089  
G03  22287976.677      -80438.038       -3105.941           0.112  
G04  23776188.959     -120857.467       -4824.397           0.094  
G05  22542496.527      -16162.846        -663.452           0.108  
G06  20640058.655      -74347.600       -3061.574           0.125  
G07  23544717.354      -94827.618       -4036.810           0.097  
G09  23020752.537      -89144.240       -4120.992           0.102  
> 2023 05 18 00 00 41.6688020  0  7                     
G02  24437021.820        7896.074         263.041           0.091  
G03  22288053.466      -80748.746       -3106.988           0.112  
G04  23776313.525     -121339.684       -4821.001           0.096  
G05  22542512.572      -16229.087        -664.050           0.109  
G06  20640135.172      -74653.663       -3061.332           0.125  
G07  23544817.121      -95231.194       -4035.593           0.097  
G09  23020859.745      -89556.356       -4122.912           0.103  
> 2023 05 18 00 00 41.7688020  0  7                     
G02  24437014.905        7922.156         258.004           0.091  
G03  22288134.113      -81059.431       -3107.497           0.113  
G04  23776435.690     -121821.910       -4822.045           0.095  
G05  22542523.922      -16295.314        -663.421           0.109  
G06  20640213.920      -74959.678       -3060.621           0.125  
G07  23544923.346      -95634.810       -4035.010           0.099  
G09  23020965.213      -89968.414       -4120.272           0.103  
> 2023 05 18 00 00 41.8688020  0  7                     
G02  24437013.348        7948.194         259.433           0.090  
G03  22288213.599      -81370.203       -3107.886           0.113  
G04  23776559.667     -122304.138       -4820.471           0.095  
G05  22542542.611      -16361.575        -663.480           0.111  
G06  20640292.460      -75265.777       -3062.620           0.126  
G07  23545027.631      -96038.429       -4039.234           0.099  
G09  23021070.021      -90380.559       -4121.662           0.103  
> 2023 05 18 00 00 41.9688020  0  7                     
G02  24437004.845        7974.073         260.870           0.092  
G03  22288290.421      -81681.086       -3111.674           0.113  
G04  23776681.841     -122786.524       -4826.590           0.095  
G05  22542558.176      -16427.924        -665.479           0.111  
G06  20640372.208      -75572.001       -3063.767           0.126  
G07  23545129.806      -96442.241       -4042.215           0.098  
G09  23021169.934      -90792.828       -4124.716           0.103  
> 2023 05 18 00 00 42.0688020  0  7                     
G02  24436993.216        7999.868         254.630           0.091  
G03  22288371.036      -81992.042       -3108.913           0.114  
G04  23776804.560     -123268.946       -4823.348           0.098  
G05  22542576.020      -16494.378        -662.428           0.112  
G06  20640447.223      -75878.285       -3061.132           0.128  
G07  23545233.111      -96846.065       -4037.610           0.101  
G09  23021277.847      -91205.151       -4123.845           0.104  
> 2023 05 18 00 00 42.1688020  0  7                     
G02  24436990.271        8025.645         255.608           0.093  
G03  22288450.373      -82303.051       -3109.782           0.116  
G04  23776927.869     -123751.461       -4826.199           0.097  
G05  22542592.037      -16560.903        -664.816           0.112  
G06  20640526.652      -76184.653       -3062.175           0.128  
G07  23545330.873      -97249.986       -4040.110           0.100  
G09  23021381.297      -91617.535       -4122.737           0.105  
> 2023 05 18 00 00 42.2688020  0  7                     
G02  24436978.375        8051.586         257.568           0.093  
G03  22288530.243      -82613.883       -3108.734           0.117  
G04  23777053.104     -124233.796       -4823.324           0.100  
G05  22542609.415      -16627.248        -662.424           0.113  
G06  20640602.218      -76490.817       -3060.224           0.128  
G07  23545435.688      -97653.748       -4043.507           0.102  
G09  23021486.069      -92029.719       -4119.955           0.106  
> 2023 05 18 00 00 42.3688020  0  7                     
G02  24436972.013        8077.330         257.104           0.094  
G03  22288609.602      -82924.930       -3108.373           0.117  
G04  23777170.813     -124716.328       -4824.500           0.099  
G05  22542627.206      -16693.833        -666.206           0.113  
G06  20640680.658      -76797.197       -3062.022           0.129  
G07  23545534.164      -98057.696       -4044.526           0.102  
G09  23021591.726      -92442.181       -4126.453           0.106  
> 2023 05 18 00 00 42.4688020  0  7                     
G02  24436968.571        8103.098         260.074           0.094  
G03  22288689.265      -83235.973       -3109.254           0.116  
G04  23777293.320     -125198.832       -4823.325           0.100  
G05  22542642.733      -16760.308        -663.820           0.113  
G06  20640756.759      -77103.584       -3062.654           0.130  
G07  23545639.822      -98461.592       -4037.908           0.102  
G09  23021696.028      -92854.546       -4120.204           0.106  
> 2023 05 18 00 00 42.5688020  0  7                     
G02  24436959.540        8128.837         256.048           0.094  
G03  22288765.411      -83547.036       -3115.413           0.116  
G04  23777418.577     -125681.349       -4831.067           0.099  
G05  22542661.013      -16826.909        -672.378           0.112  
G06  20640835.926      -77410.000       -3069.126           0.130  
G07  23545743.802      -98865.563       -4045.971           0.103  
G09  23021800.700      -93266.974       -4129.724           0.106  
> 2023 05 18 00 00 42.6688020  0  7                     
G02  24436954.329        8153.581         247.946           0.093  
G03  22288844.595      -83859.103       -3122.275           0.116  
G04  23777541.444     -126164.904       -4831.819           0.098  
G05  22542677.476      -16894.414        -676.484           0.112  
G06  20640913.304      -77717.398       -3075.109           0.128  
G07  23545844.688      -99270.581       -4053.182           0.100  
G09  23021905.213      -93680.405       -4136.020           0.106  
> 2023 05 18 00 00 42.7688020  0  7                     
G02  24436949.909        8177.656         244.056           0.094  
G03  22288922.338      -84171.842       -3125.553           0.116  
G04  23777664.438     -126649.115       -4839.142           0.098  
G05  22542692.574      -16962.689        -680.419           0.114  
G06  20640993.991      -78025.472       -3077.303           0.128  
G07  23545950.518      -99676.154       -4054.168           0.100  
G09  23022009.055      -94094.498       -4139.117           0.105  
> 2023 05 18 00 00 42.8688020  0  7                     
G02  24436941.603        8202.016         250.572           0.093  
G03  22289004.300      -84484.273       -3119.272           0.116  
G04  23777788.725     -127133.018       -4835.914           0.098  
G05  22542710.374      -17030.627        -674.805           0.111  
G06  20641071.440      -78333.227       -3073.984           0.129  
G07  23546052.229     -100081.467       -4049.499           0.101  
G09  23022116.797      -94508.280       -4132.123           0.106  
> 2023 05 18 00 00 42.9688020  0  7                     
G02  24436933.523        8227.119         251.529           0.093  
G03  22289083.324      -84796.009       -3115.587           0.115  
G04  23777910.624     -127616.225       -4830.333           0.098  
G05  22542723.440      -17097.812        -669.303           0.113  
G06  20641148.549      -78640.301       -3068.477           0.130  
G07  23546154.215     -100487.189       -4174.381           0.102  
G09  23022220.716      -94921.360       -4129.306           0.105  
> 2023 05 18 00 00 43.0688020  0  7                     
G02  24436927.743        8252.329         252.019           0.092  
G03  22289163.568      -85107.619       -3114.726           0.114  
G04  23778033.168     -128099.271       -4829.477           0.097  
G05  22542745.807      -17164.922        -671.939           0.111  
G06  20641227.781      -78947.236       -3067.907           0.128  
G07  23546254.149     -100890.609       -4045.928           0.100  
G09  23022326.592      -95334.309       -4128.711           0.105  
> 2023 05 18 00 00 43.1688020  0  7                     
G02  24436919.441        8277.737         255.919           0.091  
G03  22289244.493      -85419.036       -3114.306           0.114  
G04  23778160.119     -128582.166       -4832.009           0.095  
G05  22542761.212      -17231.786        -672.287           0.110  
G06  20641305.641      -79253.959       -3068.612           0.128  
G07  23546357.268     -101294.886       -4043.363           0.100  
G09  23022428.581      -95747.022       -4122.618           0.104  
> 2023 05 18 00 00 43.2688020  0  7                     
G02  24436913.194        8303.213         251.073           0.092  
G03  22289319.225      -85730.389       -3116.760           0.114  
G04  23778280.794     -129064.940       -4833.803           0.096  
G05  22542777.288      -17298.564        -668.522           0.109  
G06  20641386.774      -79560.640       -3068.376           0.127  
G07  23546461.759     -101699.103       -4045.415           0.099  
G09  23022536.256      -96159.745       -4129.597           0.103  
> 2023 05 18 00 00 43.3688020  0  7                     
G02  24436901.126        8328.624         254.177           0.090  
G03  22289399.959      -86041.851       -3111.094           0.114  
G04  23778401.258     -129547.840       -4824.318           0.095  
G05  22542795.527      -17365.543        -663.284           0.110  
G06  20641462.380      -79867.416       -3064.021           0.126  
G07  23546567.256     -102103.412       -4039.146           0.098  
G09  23022640.332      -96572.522       -4124.198           0.104  
> 2023 05 18 00 00 43.4688020  0  7                     
G02  24436901.878        8354.653         262.262           0.092  
G03  22289482.575      -86352.672       -3107.059           0.113  
G04  23778523.797     -130030.097       -4824.269           0.098  
G05  22542813.051      -17431.828        -664.595           0.111  
G06  20641540.210      -80173.561       -3058.142           0.127  
G07  23546669.151     -102507.120       -4034.973           0.098  
G09  23022745.435      -96984.688       -4121.827           0.104  
> 2023 05 18 00 00 43.5688020  0  7                     
G02  24436900.993        8380.841         261.870           0.093  
G03  22289560.079      -86663.324       -3106.779           0.115  
G04  23778645.665     -130512.184       -4820.881           0.097  
G05  22542830.410      -17497.971        -660.439           0.112  
G06  20641615.841      -80479.560       -3060.888           0.128  
G07  23546770.748     -102910.679       -4039.553           0.101  
G09  23022853.138      -97396.635       -4120.489           0.105  
> 2023 05 18 00 00 43.6688020  0  7                     
G02  24436887.555        8407.157         265.495           0.093  
G03  22289633.111      -86973.904       -3106.077           0.115  
G04  23778771.052     -130994.177       -4824.523           0.098  
G05  22542842.005      -17563.996        -660.477           0.111  
G06  20641694.595      -80785.426       -3058.831           0.128  
G07  23546872.458     -103314.080       -4035.280           0.100  
G09  23022954.183      -97808.552       -4119.015           0.105  
> 2023 05 18 00 00 43.7688020  0  7                     
G02  24436882.502        8432.108         245.364           0.092  
G03  22289717.030      -87285.759       -3124.556           0.115  
G04  23778891.248     -131477.480       -4838.383           0.098  
G05  22542863.403      -17631.322        -679.679           0.112  
G06  20641771.116      -81092.620       -3078.361           0.127  
G07  23546974.165     -103718.869       -4055.360           0.099  
G09  23023056.740      -98221.759       -4140.058           0.104  
> 2023 05 18 00 00 43.8688020  0  7                     
G02  24436874.466        8456.906         249.447           0.093  
G03  22289793.252      -87597.828       -3121.110           0.114  
G04  23779015.521     -131960.967       -4832.336           0.097  
G05  22542879.047      -17698.842        -675.061           0.112  
G06  20641852.635      -81399.978       -3073.719           0.128  
G07  23547081.546     -104123.789       -4050.525           0.100  
G09  23023165.084      -98635.111       -4132.420           0.104  
> 2023 05 18 00 00 43.9688020  0  7                     
G02  24436868.456        8482.173         250.681           0.091  
G03  22289875.265      -87909.418       -3115.658           0.114  
G04  23779136.808     -132443.944       -4827.748           0.097  
G05  22542898.211      -17765.896        -668.972           0.110  
G06  20641927.008      -81706.895       -3066.951           0.128  
G07  23547184.157     -104528.287       -4045.237           0.100  
G09  23023273.704      -99048.015       -4130.437           0.104  
> 2023 05 18 00 00 44.0688020  0  7                     
G02  24436855.609        8507.335         249.021           0.091  
G03  22289953.761      -88221.111       -3117.891           0.115  
G04  23779264.516     -132927.084       -4830.053           0.096  
G05  22542912.830      -17833.091        -671.335           0.110  
G06  20642008.194      -82013.909       -3069.183           0.127  
G07  23547287.913     -104932.816       -4047.227           0.100  
G09  23023374.090      -99460.998       -4127.806           0.103  
> 2023 05 18 00 00 44.1688020  0  7                     
G02  24436849.577        8532.901         257.708           0.092  
G03  22290036.543      -88532.430       -3110.767           0.114  
G04  23779383.236     -133409.822       -4823.089           0.097  
G05  22542928.204      -17899.851        -668.266           0.112  
G06  20642086.382      -82320.556       -3064.369           0.127  
G07  23547394.040     -105337.023       -4044.918           0.099  
G09  23023481.243      -99873.619       -4123.597           0.103  
> 2023 05 18 00 00 44.2688020  0  7                     
G02  24436844.714        8558.669         260.375           0.093  
G03  22290112.718      -88843.544       -3111.784           0.115  
G04  23779506.757     -133892.366       -4825.122           0.097  
G05  22542946.575      -17966.432        -663.497           0.111  
G06  20642165.549      -82626.995       -3064.260           0.128  
G07  23547495.960     -105741.031       -4041.802           0.100  
G09  23023586.389     -100286.049       -4123.462           0.105  
> 2023 05 18 00 00 44.3688020  0  7                     
G02  24436841.384        8584.714         262.396           0.092  
G03  22290190.926      -89154.397       -3105.717           0.115  
G04  23779630.940     -134374.639       -4820.295           0.098  
G05  22542962.245      -18032.750        -661.406           0.112  
G06  20642239.182      -82933.157       -3060.420           0.128  
G07  23547598.814     -106144.716       -4033.751           0.101  
G09  23023692.780     -100698.168       -4119.412           0.104  
> 2023 05 18 00 00 44.4688020  0  7                     
G02  24436833.337        8610.980         262.629           0.093  
G03  22290272.902      -89465.000       -3107.075           0.115  
G04  23779754.277     -134856.660       -4825.615           0.097  
G05  22542981.821      -18098.772        -663.501           0.113  
G06  20642315.582      -83239.079       -3061.331           0.129  
G07  23547702.554     -106548.196       -4037.843           0.101  
G09  23023798.594     -101110.091       -4120.281           0.106  
> 2023 05 18 00 00 44.5688020  0  7                     
G02  24436832.454        8636.855         256.430           0.092  
G03  22290348.880      -89776.030       -3111.434           0.116  
G04  23779877.020     -135339.125       -4828.873           0.099  
G05  22542994.683      -18165.238        -665.145           0.112  
G06  20642394.738      -83545.404       -3064.197           0.129  
G07  23547801.402     -106952.085       -4041.193           0.100  
G09  23023896.738     -101522.398       -4124.271           0.106  
> 2023 05 18 00 00 44.6688020  0  7                     
G02  24436825.260        8662.693         255.124           0.092  
G03  22290427.871      -90087.100       -3113.025           0.116  
G04  23779997.881     -135821.556       -4828.503           0.098  
G05  22543009.556      -18231.771        -664.214           0.111  
G06  20642474.060      -83851.762       -3062.719           0.128  
G07  23547901.394     -107355.993       -4039.074           0.101  
G09  23024001.853     -101934.722       -4122.961           0.105  
> 2023 05 18 00 00 44.7688020  0  7                     
G02  24436816.381        8688.444         255.186           0.091  
G03  22290503.750      -90398.209       -3112.176           0.115  
G04  23780121.796     -136304.074       -4827.997           0.097  
G05  22543028.241      -18298.339        -666.061           0.110  
G06  20642552.897      -84158.208       -3062.410           0.128  
G07  23548002.038     -107759.958       -4040.118           0.101  
G09  23024112.376     -102347.185       -4123.785           0.106  
> 2023 05 18 00 00 44.8688020  0  7                     
G02  24436805.721        8714.136         257.626           0.089  
G03  22290586.943      -90709.412       -3109.344           0.114  
G04  23780243.821     -136786.679       -4824.169           0.096  
G05  22543046.225      -18364.976        -666.093           0.110  
G06  20642629.538      -84464.727       -3063.301           0.126  
G07  23548105.313     -108164.053       -4041.178           0.100  
G09  23024215.012     -102759.671       -4124.695           0.103  
> 2023 05 18 00 00 44.9688020  0  7                     
G02  24436798.507        8739.773         256.504           0.090  
G03  22290662.929      -91020.714       -3110.672           0.112  
G04  23780366.596     -137269.357       -4827.030           0.096  
G05  22543064.153      -18431.691        -665.773           0.109  
G06  20642710.394      -84771.340       -3065.503           0.126  
G07  23548214.798     -108568.167       -4040.283           0.098  
G09  23024314.661     -103172.228       -4125.785           0.103  
> 2023 05 18 00 00 45.0688020  0  7                     
G02  24436795.740        8765.344         257.898           0.091  
G03  22290742.644      -91332.089       -3114.583           0.113  
G04  23780486.498     -137752.111       -4828.738           0.095  
G05  22543079.372      -18498.514        -668.864           0.108  
G06  20642783.176      -85078.006       -3066.032           0.126  
G07  23548314.778     -108972.408       -4045.977           0.099  
G09  23024426.087     -103584.856       -4127.498           0.103  
> 2023 05 18 00 00 45.1688020  0  7                     
G02  24436788.656        8790.936         257.648           0.091  
G03  22290825.335      -91643.441       -3113.346           0.113  
G04  23780611.382     -138234.827       -4827.418           0.098  
G05  22543097.445      -18565.351        -671.503           0.110  
G06  20642865.463      -85384.651       -3065.560           0.127  
G07  23548417.094     -109376.568       -4044.693           0.099  
G09  23024525.751     -103997.468       -4128.913           0.105  
> 2023 05 18 00 00 45.2688020  0  7                     
G02  24436778.521        8816.116         250.800           0.092  
G03  22290904.296      -91955.160       -3118.234           0.115  
G04  23780733.875     -138717.961       -4838.331           0.097  
G05  22543112.636      -18632.508        -676.881           0.109  
G06  20642940.243      -85691.687       -3071.670           0.127  
G07  23548517.432     -109781.160       -4048.189           0.101  
G09  23024632.631     -104410.418       -4131.077           0.104  
> 2023 05 18 00 00 45.3688020  0  7                     
G02  24436774.962        8841.182         251.855           0.092  
G03  22290984.324      -92266.581       -3133.944           0.115  
G04  23780859.391     -139201.143       -4828.686           0.097  
G05  22543128.997      -18699.787        -625.019           0.113  
G06  20643022.884      -85998.828       -3068.301           0.128  
G07  23548619.175     -110184.284       -3905.324           0.102  
G09  23024737.433     -104823.545       -4128.767           0.105  
> 2023 05 18 00 00 45.4688020  0  7                     
G02  24436765.802        8866.565         253.944           0.093  
G03  22291062.727      -92578.563       -3115.933           0.115  
G04  23780982.307     -139684.082       -4829.526           0.098  
G05  22543148.376      -18766.692        -667.850           0.112  
G06  20643097.799      -86305.715       -3068.333           0.128  
G07  23548722.791     -110590.196       -4045.252           0.101  
G09  23024845.947     -105236.345       -4126.016           0.106  
> 2023 05 18 00 00 45.5688020  0  7                     
G02  24436757.784        8891.980         252.165           0.092  
G03  22291141.319      -92890.054       -3114.493           0.115  
G04  23781099.231     -140166.945       -4828.099           0.098  
G05  22543162.035      -18833.630        -667.714           0.111  
G06  20643176.791      -86612.515       -3068.585           0.128  
G07  23548831.892     -110994.589       -4043.470           0.099  
G09  23024950.422     -105649.137       -4128.571           0.106  
> 2023 05 18 00 00 45.6688020  0  7                     
G02  24436751.263        8917.460         255.887           0.092  
G03  22291220.148      -93201.583       -3117.286           0.115  
G04  23781224.994     -140649.803       -4829.368           0.097  
G05  22543180.596      -18900.554        -667.868           0.112  
G06  20643252.039      -86919.313       -3070.027           0.128  
G07  23548929.871     -111398.931       -4044.815           0.101  
G09  23025054.877     -106061.857       -4126.595           0.105  
> 2023 05 18 00 00 45.7688020  0  7                     
G02  24436749.094        8942.758         252.649           0.092  
G03  22291296.131      -93513.106       -3160.451           0.115  
G04  23781349.943     -141132.784       -4829.197           0.096  
G05  22543196.091      -18967.606        -673.868           0.110  
G06  20643331.232      -87226.236       -3071.862           0.128  
G07  23549032.402     -111804.280       -4148.673           0.100  
G09  23025163.544     -106474.717       -4128.204           0.103  
> 2023 05 18 00 00 45.8688020  0  7                     
G02  24436738.563        8966.944         235.521           0.090  
G03  22291375.486      -93825.958       -3133.885           0.114  
G04  23781474.770     -141616.925       -4848.557           0.097  
G05  22543218.924      -19035.807        -689.618           0.110  
G06  20643405.468      -87534.290       -3088.481           0.126  
G07  23549138.325     -112208.961       -4057.263           0.099  
G09  23025260.600     -106888.711       -4148.154           0.102  
> 2023 05 18 00 00 45.9688020  0  7                     
G02  24436734.739        8990.598         237.832           0.092  
G03  22291460.070      -94139.265       -3130.040           0.113  
G04  23781598.803     -142101.541       -4841.881           0.095  
G05  22543233.399      -19104.527        -682.153           0.111  
G06  20643488.279      -87842.886       -3083.302           0.127  
G07  23549238.972     -112615.140       -4057.842           0.099  
G09  23025365.588     -107303.277       -4142.678           0.102  
> 2023 05 18 00 00 46.0688020  0  7                     
G02  24436723.726        9014.850         245.829           0.091  
G03  22291534.852      -94451.949       -3124.537           0.113  
G04  23781724.077     -142585.593       -4836.647           0.096  
G05  22543249.326      -19172.628        -679.499           0.110  
G06  20643565.893      -88150.866       -3076.322           0.126  
G07  23549340.991     -113020.612       -4048.392           0.098  
G09  23025472.627     -107717.187       -4136.864           0.103  
> 2023 05 18 00 00 46.1688020  0  7                     
G02  24436718.243        9040.006         249.852           0.089  
G03  22291616.152      -94763.769       -3113.656           0.112  
G04  23781842.308     -143068.768       -4829.139           0.094  
G05  22543265.356      -19239.850        -670.961           0.110  
G06  20643641.419      -88457.976       -3066.841           0.126  
G07  23549445.329     -113425.293       -4047.667           0.099  
G09  23025580.603     -108130.242       -4128.629           0.102  
> 2023 05 18 00 00 46.2688020  0  7                     
G02  24436709.352        9065.545         250.006           0.089  
G03  22291698.779      -95075.191       -3115.361           0.112  
G04  23781965.099     -143551.531       -4828.005           0.094  
G05  22543283.213      -19306.660        -668.448           0.110  
G06  20643722.961      -88764.678       -3066.542           0.126  
G07  23549547.232     -113829.518       -4043.202           0.097  
G09  23025684.090     -108542.879       -4125.966           0.103  
> 2023 05 18 00 00 46.3688020  0  7                     
G02  24436706.286        9091.274         253.761           0.090  
G03  22291778.662      -95386.431       -3112.135           0.112  
G04  23782088.467     -144034.146       -4829.204           0.095  
G05  22543302.750      -19373.313        -665.742           0.108  
G06  20643800.851      -89071.243       -3067.143           0.126  
G07  23549648.279     -114233.614       -4042.003           0.099  
G09  23025791.862     -108955.371       -4126.251           0.103  
> 2023 05 18 00 00 46.4688020  0  7                     
G02  24436704.987        9116.740         253.526           0.091  
G03  22291853.979      -95697.956       -3112.783           0.114  
G04  23782212.665     -144516.962       -4826.514           0.096  
G05  22543318.881      -19440.246        -669.552           0.111  
G06  20643881.771      -89378.049       -3069.375           0.126  
G07  23549756.629     -114637.937       -4041.477           0.099  
G09  23025894.123     -109368.117       -4125.925           0.103  
> 2023 05 18 00 00 46.5688020  0  7                     
G02  24436699.766        9142.396         260.309           0.091  
G03  22291932.832      -96009.294       -3112.025           0.115  
G04  23782334.789     -144999.654       -4831.329           0.096  
G05  22543335.595      -19507.295        -804.249           0.112  
G06  20643956.409      -89684.665       -3066.172           0.127  
G07  23549859.871     -115040.144       -3922.266           0.100  
G09  23026003.947     -109780.103       -4085.856           0.103  
> 2023 05 18 00 00 46.6688020  0  7                     
G02  24436691.844        9168.142         260.639           0.092  
G03  22292011.931      -96320.560       -3112.860           0.116  
G04  23782457.853     -145482.188       -4823.790           0.098  
G05  22543350.015      -19573.652        -666.526           0.111  
G06  20644036.737      -89991.207       -3064.777           0.128  
G07  23549961.066     -115446.175       -4044.925           0.099  
G09  23026109.347     -110193.131       -4126.995           0.105  
> 2023 05 18 00 00 46.7688020  0  7                     
G02  24436683.474        9193.817         256.421           0.093  
G03  22292093.301      -96631.880       -3116.172           0.116  
G04  23782578.112     -145964.817       -4825.747           0.099  
G05  22543366.579      -19640.347        -666.512           0.112  
G06  20644111.006      -90297.787       -3064.822           0.129  
G07  23550064.727     -115850.306       -4044.656           0.101  
G09  23026209.498     -110605.631       -4125.621           0.105  
> 2023 05 18 00 00 46.8688020  0  7                     
G02  24436672.505        9219.421         252.675           0.093  
G03  22292172.297      -96942.826       -3078.817           0.115  
G04  23782701.959     -146447.576       -4829.285           0.098  
G05  22543384.891      -19706.897        -714.861           0.111  
G06  20644190.415      -90604.477       -3066.950           0.129  
G07  23550165.429     -116254.881       -4071.738           0.101  
G09  23026316.907     -111018.254       -4127.750           0.106  
> 2023 05 18 00 00 46.9688020  0  7                     
G02  24436666.885        9244.948         254.499           0.093  
G03  22292248.449      -97254.804       -3135.011           0.117  
G04  23782824.791     -146930.332       -4828.127           0.099  
G05  22543400.925      -19773.981        -610.830           0.113  
G06  20644265.891      -90911.234       -3069.005           0.129  
G07  23550270.998     -116658.271       -3937.023           0.100  
G09  23026422.825     -111431.741       -4141.647           0.106  
> 2023 05 18 00 00 47.0688020  0  7                     
G02  24436660.287        9270.433         251.227           0.093  
G03  22292328.178      -97566.282       -3116.608           0.116  
G04  23782946.502     -147413.227       -4831.185           0.099  
G05  22543416.403      -19840.953        -672.161           0.113  
G06  20644346.103      -91218.084       -3070.618           0.128  
G07  23550372.607     -117063.126       -4043.837           0.101  
G09  23026526.958     -111843.633       -4125.819           0.106  
> 2023 05 18 00 00 47.1688020  0  7                     
G02  24436654.707        9295.562         253.970           0.091  
G03  22292404.704      -97878.159       -3119.490           0.115  
G04  23783071.070     -147896.378       -4831.062           0.098  
G05  22543436.425      -19908.221        -674.384           0.112  
G06  20644424.539      -91525.235       -3072.179           0.129  
G07  23550468.800     -117467.833       -4045.163           0.101  
G09  23026627.344     -112256.684       -4130.358           0.105  
> 2023 05 18 00 00 47.2688020  0  7                     
G02  24436650.637        9320.651         258.140           0.092  
G03  22292489.687      -98189.689       -3025.193           0.115  
G04  23783194.150     -148379.644       -4830.411           0.097  
G05  22543452.225      -19975.617        -718.571           0.112  
G06  20644502.513      -91832.459       -3072.044           0.128  
G07  23550578.369     -117872.929       -4057.395           0.102  
G09  23026737.758     -112669.956       -4078.000           0.106  
> 2023 05 18 00 00 47.3688020  0  7                     
G02  24436641.930        9345.715         253.367           0.093  
G03  22292568.097      -98502.032       -3118.098           0.115  
G04  23783320.016     -148862.887       -4828.227           0.098  
G05  22543467.277      -20042.848        -673.379           0.112  
G06  20644578.899      -92139.662       -3070.344           0.128  
G07  23550682.605     -118277.361       -4049.045           0.102  
G09  23026844.026     -113082.967       -4130.189           0.104  
> 2023 05 18 00 00 47.4688020  0  7                     
G02  24436635.712        9370.873         253.202           0.093  
G03  22292649.880      -98813.906       -3118.201           0.116  
G04  23783439.190     -149346.103       -4833.149           0.099  
G05  22543486.945      -20110.129        -672.785           0.114  
G06  20644657.257      -92446.830       -3069.758           0.128  
G07  23550780.419     -118682.044       -4046.842           0.102  
G09  23026946.311     -113496.017       -4130.000           0.107  
> 2023 05 18 00 00 47.5688020  0  7                     
G02  24436634.415        9396.094         254.073           0.094  
G03  22292727.251      -99125.687       -3115.728           0.116  
G04  23783563.507     -149829.125       -4828.291           0.099  
G05  22543502.273      -20177.289        -670.492           0.113  
G06  20644736.723      -92753.886       -3070.141           0.129  
G07  23550885.271     -119086.626       -4046.575           0.102  
G09  23027052.199     -113908.984       -4130.755           0.107  
> 2023 05 18 00 00 47.6688020  0  7                     
G02  24436622.144        9421.468         250.180           0.093  
G03  22292806.332      -99437.356       -3118.837           0.115  
G04  23783683.668     -150312.085       -4831.909           0.099  
G05  22543518.765      -20244.292        -670.024           0.113  
G06  20644814.634      -93060.827       -3071.204           0.129  
G07  23550989.303     -119491.066       -4044.727           0.101  
G09  23027159.245     -114321.753       -4127.207           0.105  
> 2023 05 18 00 00 47.7688020  0  7                     
G02  24436611.432        9446.974         256.334           0.093  
G03  22292883.645      -99748.958       -3115.175           0.116  
G04  23783803.604     -150794.967       -4826.496           0.097  
G05  22543540.650      -20311.270        -667.171           0.113  
G06  20644892.592      -93367.687       -3068.631           0.129  
G07  23551094.174     -119895.454       -4041.150           0.100  
G09  23027261.198     -114734.503       -4124.668           0.105  
> 2023 05 18 00 00 47.8688020  0  7                     
G02  24436606.230        9472.460         253.783           0.093  
G03  22292962.273     -100060.469       -3118.179           0.116  
G04  23783923.453     -151277.788       -4830.310           0.099  
G05  22543551.310      -20378.139        -667.985           0.112  
G06  20644969.642      -93674.468       -3070.685           0.129  
G07  23551193.248     -120299.746       -4040.953           0.102  
G09  23027364.938     -115147.228       -4129.262           0.105  
> 2023 05 18 00 00 47.9688020  0  7                     
G02  24436598.976        9497.538         252.251           0.092  
G03  22293042.107     -100372.436       -3118.823           0.116  
G04  23784054.635     -151761.046       -4832.833           0.097  
G05  22543571.858      -20445.494        -670.669           0.109  
G06  20645049.323      -93981.751       -3070.714           0.127  
G07  23551300.136     -120704.553       -4045.762           0.100  
G09  23027472.274     -115560.346       -4130.756           0.105  
> 2023 05 18 00 00 48.0688020  0  7                     
G02  24436592.629        9522.732         254.135           0.091  
G03  22293120.338     -100684.060       -3069.278           0.114  
G04  23784178.484     -152244.163       -4832.925           0.096  
G05  22543586.742      -20512.998        -738.040           0.109  
G06  20645122.978      -94288.883       -3069.996           0.126  
G07  23551399.063     -121108.576       -3947.001           0.099  
G09  23027577.792     -115973.377       -4132.119           0.103  
> 2023 05 18 00 00 48.1688020  0  7                     
G02  24436588.970        9548.094         256.921           0.090  
G03  22293201.814     -100995.974       -3115.075           0.112  
G04  23784301.646     -152727.122       -4829.786           0.095  
G05  22543602.013      -20579.830        -672.427           0.111  
G06  20645204.579      -94595.862       -3068.265           0.126  
G07  23551501.669     -121513.715       -4044.677           0.099  
G09  23027680.676     -116386.266       -4129.373           0.102  
> 2023 05 18 00 00 48.2688020  0  7                     
G02  24436582.165        9573.475         254.493           0.090  
G03  22293278.761     -101307.639       -3112.495           0.113  
G04  23784423.113     -153210.067       -4832.150           0.096  
G05  22543619.886      -20646.860        -674.241           0.109  
G06  20645280.274      -94902.792       -3069.286           0.126  
G07  23551608.394     -121918.167       -4045.369           0.099  
G09  23027787.171     -116799.047       -4127.428           0.102  
> 2023 05 18 00 00 48.3688020  0  7                     
G02  24436570.236        9598.920         251.730           0.091  
G03  22293359.356     -101619.312       -3117.678           0.113  
G04  23784545.703     -153692.970       -4829.577           0.096  
G05  22543636.614      -20713.880        -676.263           0.111  
G06  20645360.351      -95209.712       -3071.307           0.126  
G07  23551709.534     -122322.596       -4044.067           0.099  
G09  23027890.716     -117211.844       -4130.488           0.103  
> 2023 05 18 00 00 48.4688020  0  7                     
G02  24436567.276        9624.211         256.984           0.092  
G03  22293438.119     -101931.091       -3117.812           0.114  
G04  23784666.666     -154176.021       -4828.228           0.097  
G05  22543656.334      -20780.984        -669.445           0.111  
G06  20645436.701      -95516.755       -3069.225           0.126  
G07  23551813.077     -122727.191       -4045.616           0.100  
G09  23027994.862     -117624.776       -4128.918           0.104  
> 2023 05 18 00 00 48.5688020  0  7                     
G02  24436559.244        9648.794         236.431           0.089  
G03  22293519.217     -102243.576       -3132.400           0.113  
G04  23784789.811     -154659.770       -4847.420           0.095  
G05  22543671.458      -20848.803        -688.420           0.109  
G06  20645515.518      -95824.500       -3085.978           0.127  
G07  23551915.326     -123132.397       -4051.838           0.099  
G09  23028100.354     -118038.382       -4144.872           0.103  
> 2023 05 18 00 00 48.6688020  0  7                     
G02  24436555.231        9672.322         234.229           0.092  
G03  22293597.574     -102557.094       -3133.743           0.115  
G04  23784912.995     -155144.569       -4847.484           0.097  
G05  22543688.820      -20917.727        -688.086           0.112  
G06  20645594.492      -96133.307       -3086.473           0.126  
G07  23552022.179     -123538.757       -4059.671           0.098  
G09  23028207.950     -118453.053       -4144.569           0.103  
> 2023 05 18 00 00 48.7688020  0  7                     
G02  24436549.306        9696.650         246.000           0.092  
G03  22293678.814     -102869.886       -3124.501           0.115  
G04  23785032.870     -155628.581       -4835.798           0.097  
G05  22543704.645      -20985.851        -678.644           0.111  
G06  20645672.313      -96441.326       -3076.318           0.127  
G07  23552124.028     -123944.315       -4054.788           0.100  
G09  23028311.321     -118866.931       -4133.835           0.105  
> 2023 05 18 00 00 48.8688020  0  7                     
G02  24436543.644        9721.703         249.238           0.090  
G03  22293758.365     -103181.919       -3119.194           0.114  
G04  23785159.457     -156111.884       -4831.454           0.097  
G05  22543721.671      -21053.212        -666.629           0.109  
G06  20645750.175      -96748.621       -3069.353           0.127  
G07  23552224.940     -124349.129       -4046.120           0.100  
G09  23028417.187     -119279.353       -4026.011           0.104  
> 2023 05 18 00 00 48.9688020  0  7                     
G02  24436537.505        9747.095         254.695           0.091  
G03  22293836.590     -103493.613       -3117.446           0.114  
G04  23785284.131     -156594.806       -4827.595           0.097  
G05  22543738.804      -21120.244        -668.809           0.111  
G06  20645828.826      -97055.584       -3069.116           0.127  
G07  23552326.861     -124753.591       -4041.176           0.100  
G09  23028523.821     -119692.914       -4124.919           0.104  
> 2023 05 18 00 00 49.0688020  0  7                     
G02  24436528.600        9772.630         259.070           0.091  
G03  22293913.763     -103805.215       -3114.955           0.113  
G04  23785407.185     -157077.629       -4827.221           0.096  
G05  22543754.381      -21187.197        -669.917           0.110  
G06  20645907.741      -97362.426       -3067.774           0.127  
G07  23552432.456     -125157.970       -4042.310           0.098  
G09  23028627.603     -120105.622       -4124.625           0.104  
> 2023 05 18 00 00 49.1688020  0  7                     
G02  24436526.581        9798.240         263.261           0.090  
G03  22293989.726     -104116.696       -3113.426           0.113  
G04  23785526.801     -157560.380       -4825.491           0.095  
G05  22543774.681      -21254.066        -669.360           0.109  
G06  20645983.515      -97669.206       -3066.180           0.126  
G07  23552528.444     -125562.287       -4042.548           0.100  
G09  23028729.913     -120518.283       -4125.252           0.104  
> 2023 05 18 00 00 49.2688020  0  7                     
G02  24436516.186        9823.806         257.750           0.090  
G03  22294068.548     -104428.236       -3111.868           0.113  
G04  23785648.247     -158043.140       -4825.952           0.096  
G05  22543791.396      -21320.902        -667.829           0.109  
G06  20646062.200      -97975.980       -3067.946           0.126  
G07  23552637.250     -125966.558       -4040.080           0.098  
G09  23028838.533     -120930.887       -4126.637           0.103  
> 2023 05 18 00 00 49.3688020  0  7                     
G02  24436507.004        9849.574         259.538           0.091  
G03  22294150.527     -104739.585       -3112.107           0.113  
G04  23785775.417     -158525.713       -4827.406           0.094  
G05  22543809.281      -21386.568        -621.135           0.110  
G06  20646139.457      -98282.590       -3065.488           0.126  
G07  23552738.585     -126370.687       -4040.043           0.098  
G09  23028943.595     -121343.338       -4123.745           0.103  
> 2023 05 18 00 00 49.4688020  0  7                     
G02  24436500.877        9875.396         257.037           0.092  
G03  22294233.941     -105050.866       -3114.031           0.113  
G04  23785898.431     -159008.249       -4825.011           0.096  
G05  22543823.937      -21454.230        -669.734           0.110  
G06  20646219.944      -98589.166       -3065.925           0.126  
G07  23552841.022     -126774.728       -4042.105           0.100  
G09  23029044.365     -121755.755       -4125.304           0.102  
> 2023 05 18 00 00 49.5688020  0  7                     
G02  24436493.619        9901.191         256.377           0.092  
G03  22294312.173     -105362.218       -3116.400           0.113  
G04  23786020.348     -159490.796       -4827.674           0.098  
G05  22543842.303      -21520.880        -665.737           0.112  
G06  20646295.986      -98895.727       -3067.540           0.127  
G07  23552943.422     -127178.856       -4041.612           0.100  
G09  23029149.121     -122168.160       -4123.005           0.102  
> 2023 05 18 00 00 49.6688020  0  7                     
G02  24436489.940        9926.868         258.870           0.093  
G03  22294392.966     -105673.672       -3117.240           0.114  
G04  23786144.040     -159973.440       -4827.273           0.097  
G05  22543857.454      -21587.674        -670.534           0.112  
G06  20646375.646      -99202.444       -3067.227           0.127  
G07  23553047.276     -127583.064       -4041.109           0.100  
G09  23029257.090     -122580.691       -4123.688           0.105  
> 2023 05 18 00 00 49.7688020  0  7                     
G02  24436480.252        9952.531         256.245           0.094  
G03  22294469.214     -105985.107       -3116.031           0.115  
G04  23786270.137     -160456.111       -4823.917           0.099  
G05  22543875.625      -21654.447        -669.157           0.113  
G06  20646449.897      -99509.153       -3067.411           0.128  
G07  23553153.007     -127987.281       -4038.870           0.100  
G09  23029358.066     -122993.266       -4122.388           0.106  
> 2023 05 18 00 00 49.8688020  0  7                     
G02  24436475.130        9978.133         256.303           0.093  
G03  22294550.325     -106296.659       -3114.904           0.116  
G04  23786388.314     -160938.866       -4825.633           0.099  
G05  22543892.726      -21721.317        -670.005           0.113  
G06  20646531.197      -99815.964       -3068.162           0.129  
G07  23553256.363     -128391.620       -4047.174           0.101  
G09  23029465.587     -123405.891       -4124.352           0.106  
> 2023 05 18 00 00 49.9688020  0  7                     
G02  24436468.746       10003.499         251.839           0.094  
G03  22294625.578     -106608.404       -3116.922           0.116  
G04  23786512.184     -161421.861       -4832.195           0.098  
G05  22543906.830      -21788.411        -673.388           0.113  
G06  20646607.522     -100122.956       -3070.913           0.129  
G07  23553356.691     -128796.123       -4045.906           0.102  
G09  23029570.955     -123818.753       -4128.987           0.106  
> 2023 05 18 00 00 50.0688020  0  7                     
G02  24436464.030       10028.639         255.464           0.094  
G03  22294707.863     -106920.452       -3120.389           0.116  
G04  23786630.508     -161905.077       -4833.897           0.098  
G05  22543927.328      -21855.732        -672.145           0.112  
G06  20646688.252     -100430.228       -3071.981           0.129  
G07  23553461.092     -129201.098       -4179.381           0.101  
G09  23029675.966     -124232.247       -4171.058           0.106  
> 2023 05 18 00 00 50.1688020  0  7                     
G02  24436456.369       10053.577         249.706           0.092  
G03  22294784.905     -107232.647       -3121.780           0.116  
G04  23786758.780     -162388.490       -4837.191           0.098  
G05  22543944.289      -21923.264        -674.976           0.112  
G06  20646763.154     -100737.691       -3073.658           0.128  
G07  23553560.409     -129605.851       -4050.023           0.102  
G09  23029780.878     -124645.121       -4131.204           0.104  
> 2023 05 18 00 00 50.2688020  0  7                     
G02  24436446.539       10078.013         242.400           0.093  
G03  22294866.332     -107545.358       -3129.569           0.115  
G04  23786882.953     -162872.381       -4840.954           0.098  
G05  22543959.831      -21991.306        -682.342           0.112  
G06  20646842.781     -101045.640       -3080.988           0.128  
G07  23553661.661     -130011.340       -4060.774           0.101  
G09  23029887.800     -125058.903       -4137.069           0.106  
> 2023 05 18 00 00 50.3688020  0  7                     
G02  24436439.614       10102.171         241.352           0.092  
G03  22294946.022     -107858.355       -3132.966           0.115  
G04  23787005.270     -163356.558       -4841.490           0.097  
G05  22543979.327      -22059.633        -683.155           0.114  
G06  20646921.287     -101353.879       -3082.221           0.129  
G07  23553770.518     -130417.100       -4059.217           0.101  
G09  23029992.332     -125472.962       -4138.935           0.106  
> 2023 05 18 00 00 50.4688020  0  7                     
G02  24436438.429       10126.648         244.991           0.093  
G03  22295022.549     -108170.992       -3121.328           0.115  
G04  23787126.212     -163840.398       -4832.528           0.098  
G05  22543993.627      -22127.606        -675.530           0.112  
G06  20647000.797     -101661.790       -3074.308           0.129  
G07  23553869.825     -130823.082       -4156.748           0.101  
G09  23030096.959     -125886.399       -4091.244           0.106  
> 2023 05 18 00 00 50.5688020  0  7                     
G02  24436429.551       10151.068         242.498           0.093  
G03  22295105.058     -108483.763       -3127.739           0.115  
G04  23787246.966     -164324.352       -4837.104           0.099  
G05  22544010.526      -22195.706        -683.497           0.112  
G06  20647077.609     -101969.805       -3080.106           0.128  
G07  23553976.082     -131228.042       -4055.160           0.102  
G09  23030202.008     -126300.531       -4139.888           0.105  
> 2023 05 18 00 00 50.6688020  0  7                     
G02  24436424.289       10175.584         252.844           0.093  
G03  22295182.897     -108796.461       -3124.667           0.116  
G04  23787366.927     -164808.255       -4839.758           0.099  
G05  22544025.864      -22263.672        -678.511           0.111  
G06  20647156.104     -102277.743       -3077.708           0.129  
G07  23554076.007     -131633.478       -4055.302           0.102  
G09  23030308.262     -126714.255       -4132.011           0.105  
> 2023 05 18 00 00 50.7688020  0  7                     
G02  24436410.501       10200.175         244.533           0.094  
G03  22295264.506     -109108.995       -3127.007           0.116  
G04  23787495.147     -165291.991       -4839.237           0.098  
G05  22544043.387      -22331.566        -681.126           0.113  
G06  20647234.752     -102585.541       -3079.497           0.128  
G07  23554182.302     -132038.782       -4056.307           0.101  
G09  23030410.951     -127127.877       -4135.689           0.106  
> 2023 05 18 00 00 50.8688020  0  7                     
G02  24436405.770       10224.771         251.009           0.093  
G03  22295344.463     -109421.599       -3124.775           0.116  
G04  23787620.784     -165775.768       -4836.861           0.098  
G05  22544060.482      -22399.422        -677.343           0.113  
G06  20647312.602     -102893.365       -3077.164           0.129  
G07  23554279.531     -132444.086       -4049.857           0.101  
G09  23030519.564     -127541.544       -4136.433           0.106  
> 2023 05 18 00 00 50.9688020  0  7                     
G02  24436403.508       10249.358         242.221           0.092  
G03  22295423.605     -109734.148       -3128.490           0.114  
G04  23787741.562     -166259.469       -4838.453           0.096  
G05  22544077.840      -22467.274        -681.276           0.111  
G06  20647391.577     -103201.180       -3081.190           0.128  
G07  23554387.584     -132849.419       -4055.496           0.101  
G09  23030623.263     -127955.441       -4196.840           0.104  
> 2023 05 18 00 00 51.0688020  0  7                     
G02  24436399.000       10273.788         246.151           0.091  
G03  22295499.286     -110046.929       -3124.145           0.114  
G04  23787862.710     -166743.451       -4838.311           0.096  
G05  22544093.802      -22535.365        -675.127           0.110  
G06  20647467.940     -103509.173       -3076.958           0.127  
G07  23554495.917     -133254.945       -4055.490           0.099  
G09  23030728.739     -128368.982       -4136.957           0.103  
> 2023 05 18 00 00 51.1688020  0  7                     
G02  24436388.613       10298.362         246.405           0.090  
G03  22295580.920     -110359.571       -3123.682           0.114  
G04  23787981.825     -167227.230       -4839.341           0.096  
G05  22544111.636      -22603.304        -677.475           0.110  
G06  20647548.306     -103817.061       -3076.284           0.126  
G07  23554596.373     -133660.327       -4055.938           0.098  
G09  23030829.469     -128782.641       -4134.998           0.104  
> 2023 05 18 00 00 51.2688020  0  7                     
G02  24436384.652       10323.449         253.512           0.088  
G03  22295656.835     -110671.987       -3157.573           0.113  
G04  23788113.377     -167710.502       -4827.954           0.095  
G05  22544129.731      -22671.208        -690.934           0.107  
G06  20647623.785     -104124.420       -3070.218           0.125  
G07  23554693.836     -134064.456       -4008.458           0.097  
G09  23030941.205     -129195.810       -4128.762           0.101  
> 2023 05 18 00 00 51.3688020  0  7                     
G02  24436376.606       10349.276         259.276           0.090  
G03  22295738.327     -110983.074       -3109.239           0.113  
G04  23788235.416     -168193.023       -4822.508           0.096  
G05  22544147.245      -22737.728        -667.008           0.110  
G06  20647703.815     -104431.041       -3064.455           0.125  
G07  23554800.537     -134469.211       -3998.892           0.097  
G09  23031046.436     -129607.649       -4025.819           0.101  
> 2023 05 18 00 00 51.4688020  0  7                     
G02  24436366.746       10375.388         260.648           0.091  
G03  22295815.655     -111294.185       -3112.005           0.113  
G04  23788357.756     -168675.304       -4824.949           0.096  
G05  22544165.551      -22803.782        -664.072           0.111  
G06  20647780.654     -104737.362       -3064.668           0.126  
G07  23554903.869     -134873.097       -4034.152           0.099  
G09  23031151.159     -130020.331       -4123.254           0.104  
> 2023 05 18 00 00 51.5688020  0  7                     
G02  24436362.108       10401.442         261.344           0.092  
G03  22295895.874     -111605.304       -3110.655           0.114  
G04  23788476.633     -169157.540       -4821.976           0.097  
G05  22544179.893      -22870.197        -665.695           0.112  
G06  20647859.087     -105043.729       -3064.606           0.127  
G07  23555004.792     -135276.997       -4040.809           0.099  
G09  23031254.072     -130432.491       -4124.062           0.104  
> 2023 05 18 00 00 51.6688020  0  7                     
G02  24436356.215       10427.448         259.446           0.092  
G03  22295977.348     -111916.539       -3112.349           0.114  
G04  23788604.155     -169639.943       -4819.892           0.097  
G05  22544197.678      -22936.689        -662.682           0.111  
G06  20647935.778     -105350.197       -3064.920           0.127  
G07  23555109.013     -135680.947       -4035.423           0.099  
G09  23031360.187     -130844.734       -4120.240           0.103  
> 2023 05 18 00 00 51.7688020  0  7                     
G02  24436352.224       10452.719         246.011           0.092  
G03  22296054.218     -112228.452       -3122.244           0.114  
G04  23788724.616     -170123.033       -4835.518           0.098  
G05  22544215.501      -23003.704        -641.706           0.111  
G06  20648014.840     -105657.363       -3075.950           0.126  
G07  23555208.704     -136085.592       -4044.528           0.099  
G09  23031463.077     -131258.113       -4189.653           0.103  
> 2023 05 18 00 00 51.8688020  0  7                     
G02  24436339.758       10477.720         251.982           0.092  
G03  22296133.470     -112540.703       -3121.125           0.114  
G04  23788846.952     -170606.422       -4832.789           0.097  
G05  22544232.409      -23071.439        -673.794           0.111  
G06  20648091.051     -105964.844       -3074.693           0.128  
G07  23555310.366     -136490.597       -4049.561           0.100  
G09  23031567.913     -131670.975       -4133.558           0.105  
> 2023 05 18 00 00 51.9688020  0  7                     
G02  24436332.577       10502.642         253.318           0.092  
G03  22296210.665     -112853.013       -3123.434           0.115  
G04  23788970.053     -171089.863       -4835.227           0.097  
G05  22544248.812      -23139.074        -677.062           0.111  
G06  20648169.118     -106272.383       -3074.340           0.127  
G07  23555419.330     -136895.658       -4052.013           0.100  
G09  23031675.080     -132084.270       -4133.875           0.105  
> 2023 05 18 00 00 52.0688020  0  7                     
G02  24436329.598       10527.782         253.286           0.091  
G03  22296291.678     -113165.089       -3123.023           0.114  
G04  23789092.390     -171573.053       -4830.728           0.097  
G05  22544261.897      -23206.420        -676.708           0.109  
G06  20648250.451     -106579.696       -3073.437           0.127  
G07  23555517.285     -137300.440       -4045.343           0.100  
G09  23031774.988     -132497.376       -4131.546           0.104  
> 2023 05 18 00 00 52.1688020  0  7                     
G02  24436322.494       10553.082         260.185           0.090  
G03  22296373.105     -113477.045       -3115.168           0.113  
G04  23789217.305     -172056.145       -4825.584           0.097  
G05  22544281.157      -23273.614        -669.127           0.110  
G06  20648326.159     -106886.872       -3067.174           0.126  
G07  23555623.768     -137705.164       -4043.500           0.099  
G09  23031882.757     -132910.337       -4127.983           0.103  
> 2023 05 18 00 00 52.2688020  0  7                     
G02  24436315.303       10578.875         258.050           0.092  
G03  22296454.431     -113788.496       -3114.731           0.113  
G04  23789339.088     -172538.703       -4821.407           0.094  
G05  22544296.806      -23340.369        -666.662           0.109  
G06  20648406.376     -107193.551       -3065.507           0.126  
G07  23555722.966     -138109.270       -4035.668           0.098  
G09  23031988.444     -133322.767       -4123.615           0.103  
> 2023 05 18 00 00 52.3688020  0  7                     
G02  24436309.529       10604.722         256.209           0.090  
G03  22296532.671     -114099.918       -3115.515           0.113  
G04  23789460.854     -173021.263       -4829.394           0.096  
G05  22544314.847      -23407.028        -668.153           0.110  
G06  20648483.508     -107500.177       -3066.676           0.126  
G07  23555822.414     -138513.449       -4043.945           0.098  
G09  23032092.618     -133735.178       -4125.871           0.103  
> 2023 05 18 00 00 52.4688020  0  7                     
G02  24436300.267       10630.489         253.052           0.088  
G03  22296612.247     -114411.367       -3118.587           0.109  
G04  23789582.826     -173503.850       -4829.274           0.093  
G05  22544331.839      -23473.054        -606.995           0.108  
G06  20648563.477     -107806.895       -3070.217           0.126  
G07  23555926.790     -138917.594       -4045.279           0.098  
G09  23032198.630     -134147.650       -4130.608           0.100  
> 2023 05 18 00 00 52.5688020  0  7                     
G02  24436293.084       10654.775         247.312           0.090  
G03  22296689.164     -114724.357       -3127.273           0.113  
G04  23789705.375     -173987.942       -4837.604           0.096  
G05  22544349.900      -23542.022        -679.140           0.108  
G06  20648638.916     -108115.091       -3078.405           0.123  
G07  23556033.259     -139323.324       -4051.466           0.097  
G09  23032305.492     -134561.643       -4137.738           0.103  
> 2023 05 18 00 00 52.6688020  0  7                     
G02  24436290.656       10679.629         251.113           0.090  
G03  22296771.612     -115036.768       -3123.480           0.113  
G04  23789830.201     -174471.465       -4833.101           0.096  
G05  22544367.871      -23609.701        -678.451           0.110  
G06  20648718.615     -108422.730       -3077.382           0.126  
G07  23556131.596     -139728.418       -4048.796           0.096  
G09  23032410.285     -134975.005       -4137.090           0.103  
> 2023 05 18 00 00 52.7688020  0  7                     
G02  24436286.068       10704.434         250.639           0.091  
G03  22296850.634     -115349.202       -3119.881           0.113  
G04  23789952.649     -174955.041       -4834.625           0.097  
G05  22544386.298      -23677.412        -674.046           0.111  
G06  20648794.642     -108730.387       -3074.492           0.127  
G07  23556240.596     -140133.621       -4049.950           0.099  
G09  23032510.715     -135388.453       -4134.363           0.103  
> 2023 05 18 00 00 52.8688020  0  7                     
G02  24436277.524       10729.943         259.707           0.093  
G03  22296926.492     -115661.000       -3112.084           0.115  
G04  23790080.561     -175437.917       -4825.547           0.096  
G05  22544398.948      -23744.430        -667.379           0.111  
G06  20648873.288     -109037.390       -3067.237           0.127  
G07  23556343.877     -140538.077       -4037.869           0.099  
G09  23032618.648     -135801.198       -4126.329           0.104  
> 2023 05 18 00 00 52.9688020  0  7                     
G02  24436267.934       10755.801         259.915           0.092  
G03  22297009.862     -115972.405       -3112.609           0.115  
G04  23790201.120     -175920.433       -4826.533           0.097  
G05  22544416.389      -23811.153        -672.237           0.110  
G06  20648949.121     -109344.009       -3065.823           0.128  
G07  23556442.617     -140942.300       -4045.441           0.099  
G09  23032722.154     -136213.588       -4128.740           0.103  
> 2023 05 18 00 00 53.0688020  0  7                     
G02  24436260.744       10780.170         237.374           0.089  
G03  22297084.901     -116285.299       -3135.620           0.112  
G04  23790323.552     -176404.457       -4848.849           0.094  
G05  22544434.947      -23879.295        -693.387           0.110  
G06  20649031.748     -109652.143       -3091.322           0.125  
G07  23556543.564     -141347.824       -4066.133           0.097  
G09  23032826.832     -136627.432       -4149.382           0.103  
> 2023 05 18 00 00 53.1688020  0  7                     
G02  24436259.074       10803.977         244.707           0.093  
G03  22297166.675     -116598.824       -3130.840           0.115  
G04  23790444.205     -176889.054       -4844.397           0.098  
G05  22544452.729      -23948.062        -684.396           0.112  
G06  20649108.033     -109960.859       -3082.234           0.128  
G07  23556647.462     -141754.119       -4059.544           0.101  
G09  23032932.995     -137041.901       -4141.125           0.105  
> 2023 05 18 00 00 53.2688020  0  7                     
G02  24436247.397       10828.111         249.015           0.092  
G03  22297243.880     -116911.942       -3125.513           0.115  
G04  23790569.704     -177373.241       -4836.886           0.096  
G05  22544465.858      -24016.395        -675.976           0.112  
G06  20649189.201     -110269.200       -3076.819           0.128  
G07  23556750.913     -142159.890       -4051.129           0.102  
G09  23033040.046     -137455.969       -4133.815           0.105  
> 2023 05 18 00 00 53.3688020  0  7                     
G02  24436242.699       10853.240         254.271           0.091  
G03  22297326.564     -117224.085       -3119.640           0.116  
G04  23790692.740     -177856.484       -4832.075           0.098  
G05  22544484.267      -24083.792        -670.429           0.111  
G06  20649264.224     -110576.556       -3071.629           0.128  
G07  23556856.250     -142564.959       -4066.972           0.101  
G09  23033144.306     -137869.089       -4130.821           0.106  
> 2023 05 18 00 00 53.4688020  0  7                     
G02  24436239.829       10878.796         256.378           0.094  
G03  22297402.351     -117535.841       -3114.455           0.115  
G04  23790813.890     -178339.308       -4826.766           0.098  
G05  22544501.808      -24150.810        -671.454           0.112  
G06  20649342.614     -110883.533       -3067.822           0.128  
G07  23556962.912     -142969.226       -4044.223           0.100  
G09  23033251.457     -138281.796       -4126.275           0.105  
> 2023 05 18 00 00 53.5688020  0  7                     
G02  24436232.652       10904.464         256.528           0.093  
G03  22297483.651     -117847.469       -3115.052           0.115  
G04  23790936.630     -178822.023       -4827.262           0.098  
G05  22544520.945      -24217.680        -667.239           0.112  
G06  20649423.182     -111190.380       -3067.554           0.128  
G07  23557063.845     -143373.569       -4042.935           0.100  
G09  23033357.011     -138694.370       -4123.234           0.105  
> 2023 05 18 00 00 53.6688020  0  7                     
G02  24436226.225       10930.126         256.230           0.093  
G03  22297562.476     -118159.123       -3116.790           0.116  
G04  23791059.197     -179304.757       -4825.041           0.099  
G05  22544537.318      -24284.541        -666.535           0.112  
G06  20649498.999     -111497.240       -3068.953           0.128  
G07  23557162.499     -143777.909       -4045.516           0.100  
G09  23033459.008     -139106.982       -4125.051           0.106  
> 2023 05 18 00 00 53.7688020  0  7                     
G02  24436216.513       10956.036         260.139           0.093  
G03  22297644.126     -118470.554       -3112.772           0.115  
G04  23791181.931     -179787.262       -4823.451           0.098  
G05  22544553.590      -24351.266        -668.812           0.112  
G06  20649578.280     -111803.874       -3064.837           0.129  
G07  23557267.246     -144182.057       -4041.885           0.102  
G09  23033563.991     -139519.365       -4123.211           0.106  
> 2023 05 18 00 00 53.8688020  0  7                     
G02  24436210.383       10981.956         260.682           0.094  
G03  22297720.172     -118781.942       -3115.048           0.116  
G04  23791304.899     -180269.731       -4826.839           0.099  
G05  22544569.191      -24417.877        -667.523           0.112  
G06  20649653.768     -112110.477       -3065.178           0.129  
G07  23557370.917     -144586.123       -4042.482           0.102  
G09  23033670.344     -139931.697       -4122.347           0.106  
> 2023 05 18 00 00 53.9688020  0  7                     
G02  24436204.731       11007.847         256.783           0.094  
G03  22297799.886     -119093.390       -3115.945           0.116  
G04  23791432.705     -180752.270       -4828.166           0.098  
G05  22544586.164      -24484.567        -668.035           0.113  
G06  20649734.393     -112417.122       -3065.928           0.128  
G07  23557471.269     -144990.289       -4042.834           0.101  
G09  23033770.142     -140344.062       -4124.203           0.106  
> 2023 05 18 00 00 54.0688020  0  7                     
G02  24436195.048       11033.462         252.603           0.092  
G03  22297880.787     -119404.908       -3186.653           0.114  
G04  23791551.029     -181234.985       -4830.381           0.096  
G05  22544602.286      -24551.477        -673.759           0.109  
G06  20649809.746     -112724.042       -3072.850           0.128  
G07  23557573.712     -145394.672       -4052.340           0.100  
G09  23033878.277     -140756.714       -4132.848           0.103  
> 2023 05 18 00 00 54.1688020  0  7                     
G02  24436188.725       11058.011         249.310           0.090  
G03  22297956.932     -119717.882       -3130.576           0.114  
G04  23791674.898     -181718.853       -4841.051           0.097  
G05  22544620.213      -24619.482        -683.845           0.110  
G06  20649887.275     -113032.028       -3081.482           0.126  
G07  23557677.591     -145800.183       -4057.373           0.099  
G09  23033984.194     -141170.452       -4139.398           0.103  
> 2023 05 18 00 00 54.2688020  0  7                     
G02  24436186.955       11082.102         235.446           0.089  
G03  22298037.474     -120031.082       -3135.257           0.112  
G04  23791793.817     -182203.116       -4841.362           0.097  
G05  22544635.429      -24687.967        -687.917           0.108  
G06  20649963.423     -113340.460       -3086.582           0.126  
G07  23557781.624     -146206.037       -4059.051           0.098  
G09  23034086.431     -141584.580       -4143.562           0.104  
> 2023 05 18 00 00 54.3688020  0  7                     
G02  24436179.873       11105.770         235.346           0.090  
G03  22298117.203     -120344.773       -3138.185           0.112  
G04  23791919.549     -182687.830       -4847.954           0.094  
G05  22544654.597      -24756.834        -690.623           0.109  
G06  20650044.767     -113649.334       -3090.607           0.126  
G07  23557887.114     -146612.435       -4063.708           0.099  
G09  23034191.951     -141999.185       -4146.631           0.102  
> 2023 05 18 00 00 54.4688020  0  7                     
G02  24436170.696       11129.180         237.223           0.091  
G03  22298198.889     -120658.711       -3136.880           0.112  
G04  23792041.964     -183172.829       -4845.694           0.095  
G05  22544669.624      -24826.024        -690.678           0.109  
G06  20650122.188     -113958.481       -3087.199           0.125  
G07  23557990.154     -147020.281       -4237.610           0.097  
G09  23034300.628     -142414.637       -4182.130           0.102  
> 2023 05 18 00 00 54.5688020  0  7                     
G02  24436160.910       11153.490         247.904           0.090  
G03  22298275.791     -120971.762       -3128.002           0.113  
G04  23792166.389     -183656.938       -4836.287           0.096  
G05  22544689.686      -24894.316        -680.278           0.109  
G06  20650202.622     -114266.729       -3079.191           0.125  
G07  23558093.554     -147424.793       -4050.480           0.098  
G09  23034405.568     -142828.031       -4135.598           0.103  
> 2023 05 18 00 00 54.6688020  0  7                     
G02  24436158.914       11178.758         259.078           0.089  
G03  22298357.571     -121283.857       -3117.639           0.113  
G04  23792290.732     -184140.098       -4826.759           0.095  
G05  22544706.403      -24961.647        -669.996           0.109  
G06  20650280.103     -114574.058       -3070.935           0.126  
G07  23558195.232     -147829.551       -4038.795           0.098  
G09  23034506.282     -143241.076       -4129.886           0.103  
> 2023 05 18 00 00 54.7688020  0  7                     
G02  24436152.986       11204.527         262.143           0.091  
G03  22298435.300     -121595.426       -3113.816           0.114  
G04  23792418.450     -184622.677       -4822.279           0.096  
G05  22544724.130      -25028.402        -666.349           0.112  
G06  20650358.833     -114880.802       -3066.366           0.127  
G07  23558298.994     -148233.828       -4039.631           0.100  
G09  23034615.032     -143653.524       -4121.570           0.104  
> 2023 05 18 00 00 54.8688020  0  7                     
G02  24436141.150       11230.481         262.120           0.092  
G03  22298517.375     -121907.019       -3134.534           0.114  
G04  23792536.835     -185105.081       -4822.262           0.097  
G05  22544736.285      -25095.033        -665.964           0.110  
G06  20650437.870     -115187.401       -3065.236           0.128  
G07  23558402.793     -148637.812       -4067.837           0.100  
G09  23034722.669     -144066.460       -4217.902           0.104  
> 2023 05 18 00 00 54.9688020  0  7                     
G02  24436135.826       11256.752         262.928           0.092  
G03  22298594.818     -122217.918       -3112.036           0.115  
G04  23792656.420     -185587.215       -4818.771           0.097  
G05  22544756.852      -25161.313        -663.745           0.111  
G06  20650516.186     -115493.701       -3064.629           0.127  
G07  23558502.377     -149041.655       -4037.426           0.099  
G09  23034822.619     -144477.799       -4119.738           0.104  
> 2023 05 18 00 00 55.0688020  0  7                     
G02  24436127.096       11282.854         263.279           0.092  
G03  22298675.112     -122529.194       -3113.341           0.115  
G04  23792779.795     -186069.544       -4822.830           0.097  
G05  22544771.850      -25227.828        -665.984           0.112  
G06  20650593.954     -115800.185       -3067.405           0.128  
G07  23558601.834     -149445.659       -4038.831           0.099  
G09  23034926.813     -144889.991       -4121.159           0.104  
> 2023 05 18 00 00 55.1688020  0  7                     
G02  24436120.891       11308.536         254.297           0.091  
G03  22298754.631     -122840.866       -3119.508           0.115  
G04  23792906.974     -186552.316       -4830.387           0.097  
G05  22544788.921      -25294.700        -671.278           0.110  
G06  20650672.198     -116107.058       -3070.735           0.127  
G07  23558705.392     -149850.023       -4047.296           0.099  
G09  23035036.782     -145302.554       -4124.962           0.103  
> 2023 05 18 00 00 55.2688020  0  7                     
G02  24436117.511       11334.142         258.638           0.091  
G03  22298829.818     -123152.661       -3117.097           0.115  
G04  23793028.323     -187035.140       -4828.899           0.096  
G05  22544807.489      -25361.727        -670.299           0.109  
G06  20650750.186     -116414.059       -3068.756           0.127  
G07  23558810.088     -150254.492       -4042.444           0.100  
G09  23035141.779     -145715.260       -4125.768           0.105  
> 2023 05 18 00 00 55.3688020  0  7                     
G02  24436108.983       11359.875         261.380           0.091  
G03  22298910.884     -123464.263       -3114.188           0.115  
G04  23793149.761     -187517.714       -4821.694           0.096  
G05  22544825.780      -25428.526        -668.278           0.112  
G06  20650824.986     -116720.865       -3068.228           0.128  
G07  23558917.253     -150658.737       -4039.859           0.100  
G09  23035244.675     -146127.727       -4121.463           0.104  
> 2023 05 18 00 00 55.4688020  0  7                     
G02  24436102.641       11385.637         258.423           0.090  
G03  22298989.176     -123775.872       -3114.241           0.114  
G04  23793269.797     -188000.342       -4824.739           0.097  
G05  22544843.478      -25495.329        -669.266           0.112  
G06  20650903.999     -117027.656       -3068.309           0.128  
G07  23559017.009     -151063.033       -4044.666           0.100  
G09  23035351.485     -146540.254       -4125.215           0.104  
> 2023 05 18 00 00 55.5688020  0  7                     
G02  24436094.436       11411.457         256.571           0.091  
G03  22299068.147     -124087.509       -3114.695           0.114  
G04  23793392.124     -188482.988       -4826.544           0.097  
G05  22544858.174      -25562.159        -668.803           0.111  
G06  20650980.040     -117334.469       -3069.495           0.128  
G07  23559123.534     -151467.334       -4047.235           0.099  
G09  23035454.214     -146952.745       -4126.300           0.105  
> 2023 05 18 00 00 55.6688020  0  7                     
G02  24436091.053       11436.729         247.962           0.092  
G03  22299146.707     -124399.621       -3126.129           0.114  
G04  23793517.441     -188966.100       -4834.535           0.096  
G05  22544874.740      -25629.487        -675.491           0.111  
G06  20651061.321     -117641.777       -3076.868           0.127  
G07  23559226.769     -151872.113       -4049.961           0.099  
G09  23035558.315     -147365.703       -4132.859           0.104  
> 2023 05 18 00 00 55.7688020  0  7                     
G02  24436083.188       11461.530         248.960           0.092  
G03  22299225.881     -124711.881       -3025.669           0.113  
G04  23793639.110     -189449.727       -4837.790           0.096  
G05  22544888.707      -25697.302        -661.411           0.110  
G06  20651137.798     -117949.588       -3079.715           0.126  
G07  23559324.794     -152277.392       -4058.154           0.100  
G09  23035665.273     -147779.465       -4140.233           0.104  
> 2023 05 18 00 00 55.8688020  0  7                     
G02  24436077.326       11485.929         244.285           0.090  
G03  22299306.303     -125025.219       -3131.592           0.114  
G04  23793761.585     -189933.714       -4842.771           0.097  
G05  22544907.394      -25765.476        -683.878           0.110  
G06  20651215.532     -118257.771       -3085.381           0.127  
G07  23559433.448     -152683.037       -4057.432           0.099  
G09  23035771.425     -148193.056       -4140.997           0.103  
> 2023 05 18 00 00 55.9688020  0  7                     
G02  24436070.771       11509.704         239.583           0.091  
G03  22299390.157     -125338.855       -3135.302           0.114  
G04  23793886.053     -190418.320       -4846.440           0.097  
G05  22544922.726      -25834.323        -688.237           0.110  
G06  20651293.179     -118566.574       -3087.652           0.127  
G07  23559536.109     -153089.369       -4065.257           0.099  
G09  23035873.994     -148607.534       -4142.352           0.103  
> 2023 05 18 00 00 56.0688020  0  7                     
G02  24436061.636       11534.061         248.876           0.091  
G03  22299469.439     -125651.943       -3126.047           0.114  
G04  23794011.246     -190902.377       -4834.307           0.096  
G05  22544942.533      -25902.551        -675.552           0.110  
G06  20651374.258     -118874.842       -3076.098           0.127  
G07  23559637.389     -153495.091       -4052.407           0.100  
G09  23035978.433     -149022.060       -4154.309           0.104  
> 2023 05 18 00 00 56.1688020  0  7                     
G02  24436059.339       11559.483         258.047           0.090  
G03  22299548.234     -125963.947       -3115.383           0.114  
G04  23794137.325     -191385.390       -4826.362           0.096  
G05  22544964.136      -25969.757        -666.736           0.111  
G06  20651451.422     -119182.044       -3066.875           0.126  
G07  23559740.704     -153899.939       -3971.178           0.100  
G09  23036081.296     -149434.367       -4080.628           0.102  
> 2023 05 18 00 00 56.2688020  0  7                     
G02  24436047.178       11585.268         251.300           0.091  
G03  22299625.374     -126275.543       -3118.519           0.114  
G04  23794257.965     -191867.969       -4829.049           0.098  
G05  22544977.882      -26036.534        -669.631           0.111  
G06  20651530.275     -119488.836       -3072.513           0.127  
G07  23559843.387     -154304.025       -4043.419           0.100  
G09  23036186.661     -149846.811       -4127.402           0.105  
> 2023 05 18 00 00 56.3688020  0  7                     
G02  24436041.275       11610.363         243.558           0.093  
G03  22299706.260     -126587.872       -3127.993           0.114  
G04  23794377.133     -192351.310       -4838.169           0.098  
G05  22544995.396      -26104.043        -679.546           0.113  
G06  20651606.062     -119796.352       -3079.497           0.128  
G07  23559941.407     -154709.021       -4054.939           0.100  
G09  23036295.120     -150259.996       -4137.680           0.104  
> 2023 05 18 00 00 56.4688020  0  7                     
G02  24436035.984       11635.417         251.330           0.092  
G03  22299784.941     -126900.265       -3119.923           0.116  
G04  23794499.736     -192834.648       -4829.931           0.098  
G05  22545009.751      -26171.581        -670.994           0.112  
G06  20651685.453     -120103.903       -3073.761           0.128  
G07  23560044.982     -155114.046       -4044.313           0.101  
G09  23036402.494     -150673.216       -4129.742           0.104  
> 2023 05 18 00 00 56.5688020  0  7                     
G02  24436033.561       11660.601         251.112           0.092  
G03  22299864.086     -127212.559       -3123.223           0.115  
G04  23794625.324     -193317.937       -4838.661           0.096  
G05  22545026.589      -26239.087        -677.059           0.110  
G06  20651763.663     -120411.395       -3076.271           0.128  
G07  23560152.656     -155519.062       -4053.893           0.101  
G09  23036504.590     -151086.364       -4133.771           0.107  
> 2023 05 18 00 00 56.6688020  0  7                     
G02  24436023.216       11684.708         242.390           0.092  
G03  22299942.255     -127525.915       -3135.315           0.115  
G04  23794748.662     -193802.244       -4849.663           0.098  
G05  22545044.144      -26307.608        -689.051           0.111  
G06  20651841.678     -120719.912       -3089.723           0.128  
G07  23560254.362     -155924.995       -4061.035           0.100  
G09  23036609.807     -151500.520       -4146.244           0.105  
> 2023 05 18 00 00 56.7688020  0  7                     
G02  24436018.433       11708.640         242.309           0.093  
G03  22300021.603     -127839.399       -3134.465           0.116  
G04  23794874.204     -194286.684       -4842.558           0.098  
G05  22545060.675      -26376.279        -689.348           0.112  
G06  20651920.732     -121028.578       -3085.893           0.128  
G07  23560355.456     -156331.177       -4061.487           0.100  
G09  23036718.331     -151914.847       -4144.042           0.105  
> 2023 05 18 00 00 56.8688020  0  7                     
G02  24436010.985       11733.355         247.129           0.092  
G03  22300100.441     -128152.308       -3175.731           0.115  
G04  23794994.725     -194770.384       -4833.616           0.097  
G05  22545078.508      -26444.153        -679.492           0.111  
G06  20651997.945     -121336.471       -3077.125           0.128  
G07  23560457.636     -156736.976       -4118.040           0.100  
G09  23036823.142     -152328.510       -4065.388           0.106  
> 2023 05 18 00 00 56.9688020  0  7                     
G02  24436004.006       11758.592         256.146           0.093  
G03  22300178.465     -128464.340       -3121.589           0.115  
G04  23795116.589     -195253.550       -4831.235           0.098  
G05  22545097.286      -26511.564        -672.810           0.112  
G06  20652078.476     -121643.876       -3072.673           0.129  
G07  23560566.857     -157141.429       -4048.295           0.101  
G09  23036927.500     -152741.450       -4127.310           0.105  
> 2023 05 18 00 00 57.0688020  0  7                     
G02  24435996.485       11784.166         258.788           0.094  
G03  22300263.503     -128776.240       -3118.096           0.115  
G04  23795236.605     -195736.431       -4829.477           0.099  
G05  22545114.922      -26578.641        -670.742           0.112  
G06  20652155.469     -121950.979       -3073.428           0.129  
G07  23560666.337     -157545.930       -4045.357           0.102  
G09  23037031.956     -153154.194       -4127.430           0.107  
> 2023 05 18 00 00 57.1688020  0  7                     
G02  24435989.723       11808.753         241.923           0.092  
G03  22300342.270     -129089.126       -3135.089           0.115  
G04  23795360.206     -196220.233       -4841.171           0.097  
G05  22545128.779      -26646.691        -686.310           0.112  
G06  20652234.349     -122259.006       -3087.473           0.127  
G07  23560766.898     -157951.472       -4060.699           0.100  
G09  23037133.332     -153567.863       -4144.184           0.105  
> 2023 05 18 00 00 57.2688020  0  7                     
G02  24435982.271       11833.024         249.161           0.093  
G03  22300420.500     -129402.334       -3124.500           0.116  
G04  23795482.315     -196704.398       -4837.637           0.098  
G05  22545146.783      -26715.042        -676.322           0.112  
G06  20652311.107     -122567.401       -3078.741           0.129  
G07  23560873.402     -158357.288       -4050.923           0.102  
G09  23037235.892     -153981.876       -4131.969           0.104  
> 2023 05 18 00 00 57.3688020  0  7                     
G02  24435975.011       11858.550         256.324           0.092  
G03  22300500.103     -129714.252       -3115.198           0.114  
G04  23795608.109     -197187.256       -4824.344           0.097  
G05  22545165.274      -26782.114        -664.557           0.111  
G06  20652391.200     -122874.477       -3068.036           0.128  
G07  23560976.207     -158761.836       -4034.469           0.100  
G09  23037342.128     -154394.613       -4122.453           0.105  
> 2023 05 18 00 00 57.4688020  0  7                     
G02  24435969.793       11884.721         264.878           0.092  
G03  22300583.743     -130025.612       -3112.209           0.115  
G04  23795730.355     -197669.561       -4825.581           0.097  
G05  22545182.187      -26848.622        -662.571           0.112  
G06  20652467.118     -123181.002       -3063.826           0.128  
G07  23561078.684     -159165.876       -4041.881           0.100  
G09  23037449.329     -154806.798       -4121.465           0.105  
> 2023 05 18 00 00 57.5688020  0  7                     
G02  24435966.061       11910.969         260.067           0.092  
G03  22300658.966     -130336.796       -3111.423           0.115  
G04  23795851.052     -198151.682       -4822.489           0.098  
G05  22545195.986      -26914.965        -661.541           0.111  
G06  20652547.773     -123487.365       -3063.443           0.129  
G07  23561179.799     -159569.679       -4036.964           0.101  
G09  23037551.323     -155218.795       -4120.180           0.106  
> 2023 05 18 00 00 57.6688020  0  7                     
G02  24435958.118       11937.288         260.247           0.092  
G03  22300738.281     -130648.113       -3068.556           0.115  
G04  23795975.484     -198633.842       -4825.219           0.098  
G05  22545212.938      -26981.099        -620.333           0.111  
G06  20652622.535     -123793.732       -3063.088           0.128  
G07  23561284.124     -159973.518       -4039.477           0.101  
G09  23037662.539     -155630.783       -4121.479           0.105  
> 2023 05 18 00 00 57.7688020  0  7                     
G02  24435946.031       11963.485         263.968           0.092  
G03  22300814.499     -130959.315       -3112.054           0.114  
G04  23796100.098     -199116.039       -4820.040           0.096  
G05  22545228.866      -27047.785        -664.828           0.111  
G06  20652701.572     -124100.210       -3065.272           0.127  
G07  23561387.319     -160376.442       -4028.194           0.101  
G09  23037768.718     -156042.731       -4126.228           0.105  
> 2023 05 18 00 00 57.8688020  0  7                     
G02  24435947.135       11989.488         256.573           0.092  
G03  22300892.060     -131270.792       -3114.968           0.114  
G04  23796224.084     -199598.461       -4824.595           0.097  
G05  22545248.389      -27114.385        -666.051           0.112  
G06  20652778.557     -124406.848       -3066.973           0.127  
G07  23561488.524     -160781.579       -4045.035           0.100  
G09  23037873.221     -156455.128       -4123.297           0.104  
> 2023 05 18 00 00 57.9688020  0  7                     
G02  24435935.036       12015.338         251.109           0.091  
G03  22300973.037     -131582.441       -3119.138           0.114  
G04  23796348.379     -200081.022       -4829.194           0.096  
G05  22545263.975      -27181.182        -670.041           0.111  
G06  20652857.898     -124713.638       -3070.422           0.127  
G07  23561595.088     -161185.822       -4041.505           0.099  
G09  23037973.713     -156867.539       -4123.416           0.104  
> 2023 05 18 00 00 58.0688020  0  7                     
G02  24435929.673       12041.150         256.672           0.092  
G03  22301053.203     -131894.125       -3119.750           0.113  
G04  23796470.609     -200563.636       -4829.855           0.097  
G05  22545282.088      -27248.032        -670.549           0.111  
G06  20652936.316     -125020.512       -3069.396           0.127  
G07  23561694.719     -161590.176       -4045.475           0.098  
G09  23038081.461     -157280.035       -4124.531           0.104  
> 2023 05 18 00 00 58.1688020  0  7                     
G02  24435924.039       12066.554         245.851           0.088  
G03  22301135.595     -132206.231       -3131.149           0.114  
G04  23796592.583     -201046.628       -4838.975           0.094  
G05  22545299.999      -27315.274        -683.199           0.108  
G06  20653013.068     -125327.779       -3083.082           0.126  
G07  23561798.485     -161994.875       -4057.940           0.099  
G09  23038183.684     -157692.940       -4139.517           0.102  
> 2023 05 18 00 00 58.2688020  0  7                     
G02  24435917.459       12090.358         238.564           0.091  
G03  22301212.363     -132519.938       -3137.560           0.112  
G04  23796713.323     -201531.236       -4847.466           0.097  
G05  22545318.613      -27384.130        -689.783           0.109  
G06  20653092.827     -125636.648       -3088.476           0.125  
G07  23561901.425     -162401.241       -4064.865           0.098  
G09  23038292.248     -158107.417       -4143.966           0.102  
> 2023 05 18 00 00 58.3688020  0  7                     
G02  24435911.237       12114.295         238.740           0.091  
G03  22301293.188     -132833.530       -3135.840           0.113  
G04  23796836.852     -202015.748       -4845.466           0.096  
G05  22545334.836      -27452.875        -688.182           0.109  
G06  20653169.640     -125945.413       -3087.649           0.126  
G07  23562004.777     -162807.439       -4064.440           0.099  
G09  23038396.955     -158521.778       -4141.581           0.104  
> 2023 05 18 00 00 58.4688020  0  7                     
G02  24435906.726       12137.899         230.290           0.090  
G03  22301374.096     -133147.471       -3146.727           0.113  
G04  23796963.662     -202500.581       -4855.133           0.095  
G05  22545351.844      -27521.919        -696.260           0.108  
G06  20653250.705     -126254.465       -3094.936           0.126  
G07  23562105.387     -163213.956       -4069.802           0.099  
G09  23038504.467     -158936.481       -4152.720           0.103  
> 2023 05 18 00 00 58.5688020  0  7                     
G02  24435900.430       12161.871         247.760           0.088  
G03  22301453.733     -133461.024       -3126.935           0.111  
G04  23797082.691     -202985.070       -4836.213           0.094  
G05  22545370.170      -27590.617        -676.330           0.108  
G06  20653327.840     -126563.229       -3078.932           0.125  
G07  23562211.747     -163620.196       -4057.145           0.098  
G09  23038604.602     -159350.810       -4132.794           0.101  
> 2023 05 18 00 00 58.6688020  0  7                     
G02  24435897.626       12187.253         257.039           0.090  
G03  22301531.974     -133773.166       -3119.524           0.113  
G04  23797206.629     -203468.117       -4827.858           0.096  
G05  22545384.802      -27657.932        -669.040           0.110  
G06  20653407.585     -126870.531       -3072.503           0.125  
G07  23562316.418     -164024.942       -4042.330           0.098  
G09  23038713.152     -159763.712       -4125.503           0.101  
> 2023 05 18 00 00 58.7688020  0  7                     
G02  24435884.731       12212.953         257.275           0.093  
G03  22301606.912     -134085.019       -3117.345           0.113  
G04  23797328.957     -203950.828       -4824.460           0.095  
G05  22545405.508      -27724.875        -667.899           0.111  
G06  20653483.993     -127177.520       -3070.172           0.127  
G07  23562415.603     -164429.397       -4043.754           0.100  
G09  23038821.902     -160176.317       -4125.386           0.103  
> 2023 05 18 00 00 58.8688020  0  7                     
G02  24435880.136       12238.873         259.576           0.093  
G03  22301687.384     -134396.647       -3113.967           0.114  
G04  23797452.736     -204433.354       -4823.351           0.097  
G05  22545420.069      -27791.642        -667.674           0.111  
G06  20653563.918     -127484.309       -3066.950           0.127  
G07  23562518.535     -164833.637       -4039.719           0.098  
G09  23038921.635     -160588.704       -4121.469           0.103  
> 2023 05 18 00 00 58.9688020  0  7                     
G02  24435875.778       12264.630         255.705           0.091  
G03  22301766.592     -134708.452       -3117.699           0.114  
G04  23797576.562     -204916.062       -4826.786           0.097  
G05  22545437.262      -27858.584        -671.119           0.111  
G06  20653638.826     -127791.273       -3072.135           0.127  
G07  23562621.020     -165238.090       -4047.224           0.100  
G09  23039024.602     -161001.311       -4130.198           0.104  
> 2023 05 18 00 00 59.0688020  0  7                     
G02  24435865.209       12289.929         255.002           0.092  
G03  22301844.010     -135020.727       -3121.941           0.114  
G04  23797694.579     -205399.175       -4828.385           0.097  
G05  22545453.294      -27925.938        -672.525           0.112  
G06  20653718.149     -128098.657       -3074.096           0.127  
G07  23562726.060     -165642.918       -4049.681           0.100  
G09  23039135.483     -161414.305       -4129.361           0.105  
> 2023 05 18 00 00 59.1688020  0  7                     
G02  24435857.007       12315.370         253.494           0.093  
G03  22301923.938     -135332.838       -3124.411           0.114  
G04  23797821.067     -205882.177       -4833.763           0.096  
G05  22545467.835      -27993.183        -674.371           0.113  
G06  20653794.620     -128405.940       -3076.346           0.128  
G07  23562830.703     -166047.636       -4051.737           0.101  
G09  23039237.308     -161827.164       -4132.185           0.105  
> 2023 05 18 00 00 59.2688020  0  7                     
G02  24435854.157       12340.420         252.992           0.093  
G03  22302006.392     -135645.363       -3125.520           0.115  
G04  23797943.456     -206365.573       -4831.320           0.098  
G05  22545483.446      -28060.788        -673.442           0.112  
G06  20653874.681     -128713.577       -3073.553           0.128  
G07  23562929.086     -166452.777       -4048.726           0.100  
G09  23039339.324     -162240.394       -4129.837           0.106  
> 2023 05 18 00 00 59.3688020  0  7                     
G02  24435844.488       12365.492         250.650           0.094  
G03  22302087.447     -135956.760       -3066.920           0.115  
G04  23798067.705     -206848.943       -4837.907           0.099  
G05  22545502.867      -28128.216        -758.027           0.112  
G06  20653952.238     -129021.262       -3079.263           0.128  
G07  23563033.882     -166857.827       -4054.648           0.100  
G09  23039443.754     -162653.513       -4108.785           0.106  
> 2023 05 18 00 00 59.4688020  0  7                     
G02  24435836.073       12390.247         254.682           0.092  
G03  22302169.052     -136270.669       -3126.496           0.115  
G04  23798189.653     -207332.632       -4832.637           0.098  
G05  22545521.551      -28196.334        -675.947           0.112  
G06  20654029.555     -129329.219       -3076.628           0.129  
G07  23563138.264     -167263.277       -4047.107           0.101  
G09  23039549.939     -163067.209       -4131.124           0.104  
> 2023 05 18 00 00 59.5688020  0  7                     
G02  24435829.835       12415.624         256.398           0.092  
G03  22302247.635     -136582.858       -3120.910           0.115  
G04  23798314.179     -207815.675       -4824.703           0.098  
G05  22545537.006      -28263.646        -671.181           0.112  
G06  20654110.602     -129636.552       -3071.105           0.128  
G07  23563239.553     -167668.065       -4044.773           0.100  
G09  23039656.018     -163480.134       -4126.583           0.106  
> 2023 05 18 00 00 59.6688020  0  7                     
G02  24435825.524       12441.307         260.055           0.093  
G03  22302325.846     -136894.734       -3116.970           0.115  
G04  23798435.553     -208298.410       -4825.125           0.099  
G05  22545555.629      -28330.629        -668.297           0.112  
G06  20654186.534     -129943.578       -3067.728           0.128  
G07  23563345.929     -168072.532       -4035.533           0.099  
G09  23039761.545     -163892.744       -4123.282           0.106  
> 2023 05 18 00 00 59.7688020  0  7                     
G02  24435820.422       12467.114         256.606           0.092  
G03  22302403.398     -137206.502       -3118.377           0.115  
G04  23798557.663     -208781.038       -4828.047           0.097  
G05  22545569.916      -28397.504        -668.996           0.111  
G06  20654266.850     -130250.476       -3066.741           0.129  
G07  23563443.325     -168476.952       -4045.802           0.099  
G09  23039871.607     -164305.237       -4124.838           0.104  
> 2023 05 18 00 00 59.8688020  0  7                     
G02  24435812.536       12492.949         254.686           0.091  
G03  22302482.145     -137518.258       -3119.210           0.114  
G04  23798680.507     -209263.662       -4828.659           0.096  
G05  22545588.538      -28464.352        -668.684           0.111  
G06  20654344.808     -130557.399       -3071.460           0.127  
G07  23563549.573     -168881.248       -4040.527           0.101  
G09  23039973.065     -164717.731       -4125.828           0.104  
> 2023 05 18 00 00 59.9688020  0  7                     
G02  24435807.774       12518.741         255.947           0.090  
G03  22302564.348     -137830.065       -3120.042           0.113  
G04  23798801.028     -209746.329       -4829.661           0.095  
G05  22545605.444      -28531.234        -667.031           0.109  
G06  20654423.073     -130864.324       -3069.506           0.127  
G07  23563652.652     -169285.724       -4047.517           0.097  
G09  23040077.742     -165130.239       -4126.719           0.104  
> 2023 05 18 00 01 00.0688020  0  7                     
G02  24435794.415       12544.456         255.908           0.090  
G03  22302638.936     -138141.948       -3120.591           0.112  
G04  23798922.706     -210229.056       -4829.659           0.095  
G05  22545620.831      -28597.971        -649.185           0.108  
G06  20654498.219     -131171.360       -3069.476           0.126  
G07  23563756.853     -169690.184       -4048.753           0.098  
G09  23040184.574     -165542.987       -4067.482           0.103  
> 2023 05 18 00 01 00.1688020  0  7                     
G02  24435790.965       12570.144         258.441           0.090  
G03  22302722.689     -138453.891       -3120.517           0.112  
G04  23799044.743     -210711.821       -4828.281           0.095  
G05  22545638.222      -28665.279        -669.995           0.109  
G06  20654575.747     -131478.448       -3070.801           0.126  
G07  23563860.384     -170094.713       -4042.681           0.096  
G09  23040285.229     -165955.492       -4125.375           0.102  
> 2023 05 18 00 01 00.2688020  0  7                     
G02  24435781.588       12595.763         254.504           0.089  
G03  22302797.901     -138765.901       -3122.319           0.112  
G04  23799170.869     -211194.658       -4830.766           0.095  
G05  22545654.840      -28732.357        -670.924           0.108  
G06  20654650.303     -131785.573       -3072.827           0.125  
G07  23563963.689     -170499.274       -4045.668           0.097  
G09  23040393.189     -166368.182       -4129.440           0.103  
> 2023 05 18 00 01 00.3688020  0  7                     
G02  24435774.337       12620.989         253.939           0.089  
G03  22302881.488     -139078.269       -3125.772           0.112  
G04  23799298.497     -211677.851       -4833.374           0.095  
G05  22545672.772      -28799.852        -677.181           0.109  
G06  20654733.447     -132093.083       -3076.100           0.125  
G07  23564064.463     -170904.244       -4049.744           0.099  
G09  23040501.433     -166781.236       -4134.137           0.103  
> 2023 05 18 00 01 00.4688020  0  7                     
G02  24435770.310       12645.550         240.894           0.090  
G03  22302958.140     -139391.281       -3131.195           0.111  
G04  23799422.078     -212161.740       -4843.145           0.095  
G05  22545686.914      -28867.960        -685.017           0.109  
G06  20654811.084     -132401.248       -3082.546           0.124  
G07  23564169.001     -171309.870       -4058.410           0.098  
G09  23040601.104     -167194.959       -4141.584           0.102  
> 2023 05 18 00 01 00.5688020  0  7                     
G02  24435769.327       12669.743         243.796           0.092  
G03  22303038.452     -139704.740       -3132.647           0.114  
G04  23799540.375     -212646.000       -4839.220           0.096  
G05  22545706.747      -28936.503        -686.492           0.110  
G06  20654892.381     -132709.835       -3085.149           0.125  
G07  23564267.398     -171717.193       -4154.845           0.096  
G09  23040707.555     -167609.590       -4088.515           0.102  
> 2023 05 18 00 01 00.6688020  0  7                     
G02  24435761.366       12693.376         226.142           0.091  
G03  22303117.489     -140018.730       -3148.605           0.114  
G04  23799668.543     -213130.799       -4854.737           0.095  
G05  22545725.401      -29005.566        -698.096           0.110  
G06  20654968.567     -133018.964       -3099.844           0.126  
G07  23564367.595     -172122.455       -4069.304           0.099  
G09  23040813.042     -168023.736       -4152.874           0.103  
> 2023 05 18 00 01 00.7688020  0  7                     
G02  24435750.867       12717.063         235.273           0.093  
G03  22303199.726     -140332.685       -3138.706           0.114  
G04  23799791.860     -213615.613       -4849.802           0.098  
G05  22545742.169      -29074.572        -690.620           0.111  
G06  20655047.902     -133328.035       -3091.053           0.127  
G07  23564481.495     -172528.997       -4066.162           0.099  
G09  23040919.897     -168438.393       -4145.413           0.103  
> 2023 05 18 00 01 00.8688020  0  7                     
G02  24435742.179       12740.634         242.123           0.093  
G03  22303278.602     -140646.784       -3138.073           0.115  
G04  23799913.897     -214100.508       -4847.561           0.098  
G05  22545759.885      -29143.757        -691.770           0.112  
G06  20655126.252     -133637.276       -3089.915           0.128  
G07  23564579.488     -172935.670       -4062.861           0.101  
G09  23041023.776     -168853.167       -4144.427           0.106  
> 2023 05 18 00 01 00.9688020  0  7                     
G02  24435736.531       12764.500         239.067           0.092  
G03  22303359.192     -140960.508       -3137.057           0.114  
G04  23800035.615     -214585.028       -4843.547           0.098  
G05  22545774.682      -29212.551        -685.731           0.111  
G06  20655204.221     -133946.151       -3088.781           0.128  
G07  23564684.070     -173341.987       -4064.417           0.101  
G09  23041130.786     -169267.562       -4140.755           0.104  
> 2023 05 18 00 01 01.0688020  0  7                     
G02  24435731.861       12788.777         241.480           0.092  
G03  22303437.653     -141273.886       -3133.991           0.114  
G04  23800159.129     -215069.246       -4842.410           0.097  
G05  22545795.078      -29281.063        -686.017           0.109  
G06  20655283.899     -134254.671       -3085.539           0.128  
G07  23564790.850     -173747.963       -4061.400           0.100  
G09  23041234.097     -169681.632       -4140.333           0.104  
> 2023 05 18 00 01 01.1688020  0  7                     
G02  24435727.039       12813.632         259.081           0.090  
G03  22303513.480     -141586.696       -3122.231           0.114  
G04  23800283.079     -215552.844       -4825.569           0.095  
G05  22545807.975      -29348.921        -673.172           0.110  
G06  20655361.341     -134562.598       -3071.609           0.127  
G07  23564888.203     -174153.323       -4050.149           0.100  
G09  23041336.747     -170095.107       -4126.712           0.104  
> 2023 05 18 00 01 01.2688020  0  7                     
G02  24435718.424       12839.721         264.580           0.091  
G03  22303594.998     -141898.297       -3114.268           0.114  
G04  23800401.664     -216035.261       -4824.688           0.096  
G05  22545827.583      -29415.563        -666.205           0.111  
G06  20655438.263     -134869.351       -3065.334           0.126  
G07  23564989.095     -174557.454       -4040.657           0.099  
G09  23041447.083     -170507.374       -4122.313           0.104  
> 2023 05 18 00 01 01.3688020  0  7                     
G02  24435715.279       12865.140         250.877           0.092  
G03  22303673.575     -142210.473       -3122.508           0.113  
G04  23800525.856     -216518.183       -4830.923           0.096  
G05  22545843.352      -29482.826        -675.643           0.110  
G06  20655513.604     -135176.641       -3074.974           0.126  
G07  23565090.087     -174962.239       -4050.084           0.099  
G09  23041550.980     -170920.227       -4130.990           0.103  
> 2023 05 18 00 01 01.4688020  0  7                     
G02  24435706.197       12890.315         253.809           0.091  
G03  22303755.912     -142522.991       -3120.874           0.112  
G04  23800651.994     -217001.531       -4830.001           0.096  
G05  22545862.160      -29550.416        -674.568           0.109  
G06  20655595.785     -135484.312       -3075.211           0.126  
G07  23565198.082     -175367.300       -4045.745           0.098  
G09  23041652.754     -171333.423       -4131.127           0.103  
> 2023 05 18 00 01 01.5688020  0  7                     
G02  24435699.309       12915.545         248.113           0.089  
G03  22303832.561     -142835.417       -3126.906           0.112  
G04  23800773.423     -217484.774       -4836.313           0.095  
G05  22545877.380      -29617.877        -679.328           0.108  
G06  20655671.580     -135791.805       -3077.284           0.125  
G07  23565299.199     -175772.312       -4050.871           0.099  
G09  23041761.002     -171746.457       -4132.183           0.102  
> 2023 05 18 00 01 01.6688020  0  7                     
G02  24435696.679       12941.016         254.011           0.089  
G03  22303915.077     -143147.586       -3121.875           0.112  
G04  23800896.376     -217967.728       -4827.704           0.095  
G05  22545892.810      -29685.128        -672.459           0.109  
G06  20655753.044     -136099.116       -3068.470           0.126  
G07  23565404.571     -176177.096       -4051.759           0.098  
G09  23041864.014     -172159.311       -4129.197           0.102  
> 2023 05 18 00 01 01.7688020  0  7                     
G02  24435681.238       12966.582         259.819           0.090  
G03  22303991.410     -143459.724       -3119.155           0.114  
G04  23801017.874     -218450.653       -4825.865           0.096  
G05  22545912.834      -29752.338        -670.121           0.110  
G06  20655829.803     -136406.404       -3070.790           0.125  
G07  23565510.703     -176581.727       -4039.303           0.098  
G09  23041965.997     -172572.077       -4125.850           0.103  
> 2023 05 18 00 01 01.8688020  0  7                     
G02  24435676.085       12992.616         260.574           0.091  
G03  22304071.073     -143771.363       -3114.862           0.114  
G04  23801140.705     -218933.079       -4820.116           0.097  
G05  22545928.549      -29819.003        -665.662           0.110  
G06  20655908.219     -136713.142       -3066.798           0.126  
G07  23565609.109     -176985.947       -4040.516           0.099  
G09  23042074.350     -172984.360       -4121.583           0.103  
> 2023 05 18 00 01 01.9688020  0  7                     
G02  24435671.716       13018.772         260.270           0.091  
G03  22304150.225     -144082.885       -3114.537           0.114  
G04  23801262.553     -219415.355       -4822.595           0.097  
G05  22545945.005      -29885.566        -661.933           0.111  
G06  20655985.349     -137019.782       -3064.568           0.127  
G07  23565708.935     -177389.977       -4038.588           0.099  
G09  23042179.339     -173396.547       -4123.214           0.104  
> 2023 05 18 00 01 02.0688020  0  7                     
G02  24435664.050       13044.973         259.342           0.091  
G03  22304230.356     -144394.390       -3115.200           0.115  
G04  23801386.513     -219897.666       -4825.166           0.098  
G05  22545963.415      -29952.168        -666.558           0.112  
G06  20656064.891     -137326.408       -3066.608           0.128  
G07  23565814.483     -177794.115       -4043.515           0.099  
G09  23042284.320     -173809.501       -4165.862           0.105  
> 2023 05 18 00 01 02.1688020  0  7                     
G02  24435663.837       13070.765         249.812           0.091  
G03  22304303.931     -144706.286       -3122.134           0.115  
G04  23801509.566     -220380.325       -4832.802           0.098  
G05  22545981.177      -30019.089        -672.748           0.111  
G06  20656141.568     -137633.441       -3074.375           0.127  
G07  23565919.622     -178198.522       -4048.548           0.101  
G09  23042391.259     -174221.199       -4129.910           0.106  
> 2023 05 18 00 01 02.2688020  0  7                     
G02  24435655.050       13095.421         240.880           0.092  
G03  22304388.077     -145019.353       -3137.999           0.114  
G04  23801630.547     -220864.148       -4846.159           0.096  
G05  22545999.556      -30087.216        -688.919           0.111  
G06  20656220.388     -137941.624       -3090.847           0.127  
G07  23566021.044     -178604.159       -4059.865           0.101  
G09  23042492.424     -174634.874       -4143.836           0.103  
> 2023 05 18 00 01 02.3688020  0  7                     
G02  24435648.552       13118.950         231.315           0.092  
G03  22304465.692     -145333.486       -3142.706           0.114  
G04  23801753.031     -221349.058       -4850.145           0.098  
G05  22546013.284      -30156.408        -693.077           0.111  
G06  20656297.101     -138250.885       -3094.718           0.128  
G07  23566119.409     -179010.835       -4069.013           0.101  
G09  23042600.886     -175049.650       -4150.037           0.103  
> 2023 05 18 00 01 02.4688020  0  7                     
G02  24435643.727       13142.582         240.717           0.092  
G03  22304547.972     -145647.630       -3141.505           0.115  
G04  23801878.088     -221833.923       -4843.228           0.098  
G05  22546031.055      -30225.621        -690.934           0.112  
G06  20656374.358     -138560.116       -3088.340           0.128  
G07  23566232.806     -179417.541       -4065.401           0.101  
G09  23042705.679     -175464.407       -4144.747           0.105  
> 2023 05 18 00 01 02.5688020  0  7                     
G02  24435633.581       13166.303         244.282           0.093  
G03  22304627.637     -145961.622       -3135.236           0.112  
G04  23802002.010     -222318.681       -4843.543           0.096  
G05  22546049.248      -30294.625        -689.586           0.111  
G06  20656454.810     -138869.224       -3085.969           0.128  
G07  23566330.314     -179824.100       -4061.143           0.100  
G09  23042811.039     -175878.981       -4141.965           0.102  
> 2023 05 18 00 01 02.6688020  0  7                     
G02  24435629.332       13191.253         258.849           0.090  
G03  22304706.860     -146274.367       -3122.156           0.113  
G04  23802127.157     -222802.188       -4828.958           0.096  
G05  22546066.953      -30362.409        -673.506           0.109  
G06  20656532.617     -139177.101       -3072.759           0.125  
G07  23566437.387     -180229.352       -4046.351           0.098  
G09  23042917.939     -176292.375       -4129.147           0.102  
> 2023 05 18 00 01 02.7688020  0  7                     
G02  24435621.611       13217.130         264.179           0.089  
G03  22304789.254     -146586.234       -3115.834           0.113  
G04  23802249.353     -223284.842       -4826.186           0.095  
G05  22546081.049      -30429.315        -668.063           0.109  
G06  20656613.686     -139484.090       -3070.196           0.126  
G07  23566537.559     -180633.764       -4041.450           0.099  
G09  23043017.513     -176704.841       -4124.336           0.103  
> 2023 05 18 00 01 02.8688020  0  7                     
G02  24435614.694       13243.116         261.421           0.090  
G03  22304868.648     -146897.361       -3034.891           0.112  
G04  23802372.613     -223767.275       -4826.435           0.095  
G05  22546095.763      -30496.042        -668.040           0.109  
G06  20656690.123     -139790.916       -3068.984           0.126  
G07  23566639.277     -181038.044       -4047.593           0.098  
G09  23043121.996     -177118.063       -4276.407           0.102  
> 2023 05 18 00 01 02.9688020  0  7                     
G02  24435609.206       13268.417         253.999           0.088  
G03  22304947.728     -147209.997       -3132.262           0.111  
G04  23802490.870     -224250.442       -4835.167           0.094  
G05  22546115.580      -30563.484        -674.126           0.108  
G06  20656769.453     -140098.450       -3079.439           0.124  
G07  23566749.208     -181443.007       -4197.470           0.097  
G09  23043228.291     -177529.983       -4181.810           0.101  
> 2023 05 18 00 01 03.0688020  0  7                     
G02  24435600.647       13293.129         244.077           0.088  
G03  22305021.628     -147523.415       -3133.812           0.112  
G04  23802617.459     -224734.223       -4843.341           0.094  
G05  22546131.044      -30631.578        -683.205           0.109  
G06  20656845.424     -140406.573       -3083.969           0.125  
G07  23566843.470     -181848.577       -4056.335           0.097  
G09  23043338.350     -177943.824       -4142.131           0.102  
> 2023 05 18 00 01 03.1688020  0  7                     
G02  24435594.585       13317.757         242.629           0.088  
G03  22305104.190     -147836.537       -3134.403           0.111  
G04  23802738.037     -225218.061       -4843.190           0.094  
G05  22546148.720      -30699.770        -688.532           0.108  
G06  20656924.828     -140714.813       -3086.515           0.125  
G07  23566951.637     -182254.212       -4057.540           0.096  
G09  23043441.793     -178357.527       -4140.662           0.102  
> 2023 05 18 00 01 03.2688020  0  7                     
G02  24435586.956       13342.195         258.009           0.089  
G03  22305183.101     -148149.811       -3071.252           0.111  
G04  23802861.942     -225702.132       -4829.529           0.093  
G05  22546167.092      -30768.099        -675.057           0.107  
G06  20657001.787     -141023.258       -3078.532           0.124  
G07  23567054.721     -182659.417       -3942.322           0.096  
G09  23043548.973     -178771.494       -4134.062           0.101  
> 2023 05 18 00 01 03.3688020  0  7                     
G02  24435574.789       13367.297         252.579           0.090  
G03  22305265.705     -148462.501       -3126.370           0.111  
G04  23802987.308     -226185.497       -4833.898           0.095  
G05  22546183.589      -30835.736        -676.523           0.109  
G06  20657084.117     -141330.950       -3074.783           0.125  
G07  23567157.535     -183065.243       -4051.035           0.097  
G09  23043650.216     -179184.643       -4129.987           0.101  
> 2023 05 18 00 01 03.4688020  0  7                     
G02  24435576.733       13392.659         255.469           0.089  
G03  22305347.957     -148774.891       -3121.580           0.111  
G04  23803107.123     -226668.593       -4831.242           0.095  
G05  22546197.074      -30903.152        -673.347           0.109  
G06  20657160.365     -141638.470       -3073.022           0.125  
G07  23567261.084     -183470.169       -4044.909           0.099  
G09  23043752.956     -179597.642       -4127.792           0.104  
> 2023 05 18 00 01 03.5688020  0  7                     
G02  24435568.443       13418.462         259.737           0.090  
G03  22305421.695     -149086.820       -3116.952           0.111  
G04  23803233.922     -227151.251       -4823.583           0.095  
G05  22546217.291      -30970.123        -666.021           0.109  
G06  20657236.803     -141945.514       -3066.779           0.125  
G07  23567361.949     -183874.673       -4041.606           0.097  
G09  23043865.417     -180010.164       -4123.863           0.102  
> 2023 05 18 00 01 03.6688020  0  7                     
G02  24435562.932       13444.681         259.069           0.090  
G03  22305504.724     -149398.375       -3114.616           0.112  
G04  23803354.580     -227633.481       -4822.010           0.093  
G05  22546235.235      -31036.665        -663.289           0.110  
G06  20657313.980     -142252.171       -3064.100           0.125  
G07  23567462.784     -184278.778       -4042.808           0.098  
G09  23043965.450     -180422.267       -4119.159           0.102  
> 2023 05 18 00 01 03.7688020  0  7                     
G02  24435556.127       13470.888         263.966           0.090  
G03  22305581.528     -149709.968       -3115.602           0.111  
G04  23803476.821     -228115.865       -4823.890           0.095  
G05  22546251.163      -31103.302        -665.661           0.109  
G06  20657393.634     -142558.864       -3066.369           0.125  
G07  23567566.088     -184682.888       -4043.666           0.098  
G09  23044072.875     -180834.443       -4120.641           0.103  
> 2023 05 18 00 01 03.8688020  0  7                     
G02  24435546.235       13497.028         262.946           0.090  
G03  22305663.490     -150021.511       -3114.778           0.112  
G04  23803594.836     -228598.131       -4826.230           0.094  
G05  22546268.849      -31169.854        -665.519           0.108  
G06  20657469.071     -142865.529       -3066.482           0.125  
G07  23567669.453     -185086.951       -4040.426           0.098  
G09  23044175.827     -181246.548       -4120.090           0.102  
> 2023 05 18 00 01 03.9688020  0  7                     
G02  24435539.375       13523.272         263.035           0.090  
G03  22305738.719     -150333.079       -3115.719           0.112  
G04  23803721.685     -229080.360       -4821.494           0.095  
G05  22546287.966      -31236.450        -665.757           0.108  
G06  20657549.411     -143172.184       -3068.296           0.125  
G07  23567774.310     -185491.025       -4038.013           0.097  
G09  23044277.971     -181658.677       -4118.732           0.102  
> 2023 05 18 00 01 04.0688020  0  7                     
G02  24435529.095       13549.450         259.773           0.089  
G03  22305820.740     -150644.734       -3119.269           0.113  
G04  23803841.470     -229562.691       -4824.759           0.096  
G05  22546303.799      -31303.070        -669.083           0.109  
G06  20657626.784     -143478.891       -3069.574           0.126  
G07  23567871.188     -185895.191       -4043.631           0.098  
G09  23044381.905     -182070.869       -4121.847           0.103  
> 2023 05 18 00 01 04.1688020  0  7                     
G02  24435523.833       13575.463         258.653           0.091  
G03  22305896.187     -150956.424       -3098.827           0.113  
G04  23803968.647     -230045.105       -4824.602           0.096  
G05  22546319.789      -31370.255        -661.295           0.111  
G06  20657703.837     -143785.730       -3071.351           0.126  
G07  23567980.045     -186300.167       -4150.555           0.100  
G09  23044488.974     -182483.708       -4095.810           0.103  
> 2023 05 18 00 01 04.2688020  0  7                     
G02  24435517.723       13600.420         234.892           0.090  
G03  22305975.804     -151269.220       -3135.648           0.113  
G04  23804087.590     -230528.575       -4843.891           0.095  
G05  22546334.115      -31437.570        -684.162           0.110  
G06  20657783.955     -144093.577       -3086.061           0.126  
G07  23568084.149     -186704.753       -4064.865           0.096  
G09  23044594.928     -182896.482       -4140.969           0.104  
> 2023 05 18 00 01 04.3688020  0  7                     
G02  24435512.065       13624.797         240.386           0.092  
G03  22306057.843     -151582.662       -3135.278           0.112  
G04  23804211.234     -231012.711       -4843.325           0.097  
G05  22546352.465      -31505.995        -683.041           0.111  
G06  20657859.615     -144402.129       -3085.171           0.127  
G07  23568186.494     -187110.685       -4058.068           0.099  
G09  23044697.394     -183310.488       -4137.104           0.104  
> 2023 05 18 00 01 04.4688020  0  7                     
G02  24435506.886       13649.671         248.962           0.092  
G03  22306135.720     -151895.622       -3127.027           0.114  
G04  23804336.386     -231496.344       -4835.788           0.098  
G05  22546371.830      -31573.939        -673.428           0.111  
G06  20657940.766     -144710.145       -3076.359           0.128  
G07  23568281.998     -187516.160       -4050.509           0.100  
G09  23044802.603     -183723.984       -4131.378           0.104  
> 2023 05 18 00 01 04.5688020  0  7                     
G02  24435502.749       13674.424         247.644           0.093  
G03  22306214.312     -152208.672       -3129.883           0.115  
G04  23804459.684     -231980.094       -4836.734           0.098  
G05  22546386.836      -31642.050        -678.414           0.112  
G06  20658016.790     -145018.321       -3081.632           0.128  
G07  23568387.110     -187922.859       -4190.220           0.101  
G09  23044914.153     -184138.167       -4126.697           0.105  
> 2023 05 18 00 01 04.6688020  0  7                     
G02  24435493.579       13699.090         244.299           0.094  
G03  22306295.375     -152521.805       -3133.138           0.115  
G04  23804584.532     -232463.878       -4837.296           0.097  
G05  22546404.696      -31710.130        -680.642           0.111  
G06  20658097.718     -145326.516       -3083.785           0.129  
G07  23568490.368     -188327.384       -4061.614           0.102  
G09  23045015.542     -184551.205       -4135.759           0.104  
> 2023 05 18 00 01 04.7688020  0  7                     
G02  24435486.326       13723.221         239.165           0.093  
G03  22306375.761     -152835.474       -3136.443           0.115  
G04  23804708.501     -232948.247       -4845.181           0.098  
G05  22546421.167      -31778.818        -685.830           0.111  
G06  20658174.837     -145635.279       -3087.628           0.128  
G07  23568594.232     -188733.560       -4063.309           0.100  
G09  23045118.728     -184965.424       -4141.729           0.104  
> 2023 05 18 00 01 04.8688020  0  7                     
G02  24435484.078       13747.671         243.069           0.093  
G03  22306453.101     -153148.826       -3133.007           0.114  
G04  23804828.169     -233432.282       -4843.460           0.097  
G05  22546438.504      -31847.148        -684.461           0.112  
G06  20658254.098     -145943.747       -3085.241           0.129  
G07  23568701.804     -189139.402       -4059.618           0.101  
G09  23045228.988     -185379.309       -4138.041           0.104  
> 2023 05 18 00 01 04.9688020  0  7                     
G02  24435475.447       13772.428         253.475           0.092  
G03  22306536.277     -153461.516       -3049.987           0.114  
G04  23804949.568     -233916.043       -4836.952           0.098  
G05  22546459.452      -31915.233        -679.908           0.111  
G06  20658330.762     -146251.914       -3078.739           0.128  
G07  23568802.190     -189545.229       -4109.877           0.100  
G09  23045330.585     -185791.924       -4033.363           0.104  
> 2023 05 18 00 01 05.0688020  0  7                     
G02  24435467.083       13796.858         239.822           0.090  
G03  22306618.543     -153775.291       -3141.158           0.114  
G04  23805074.436     -234400.074       -4846.315           0.096  
G05  22546473.874      -31983.574        -688.954           0.112  
G06  20658408.495     -146560.366       -3088.876           0.127  
G07  23568905.448     -189950.866       -4063.542           0.099  
G09  23045432.721     -186206.800       -4144.966           0.104  
> 2023 05 18 00 01 05.1688020  0  7                     
G02  24435463.633       13821.106         244.943           0.090  
G03  22306696.311     -154088.848       -3134.136           0.112  
G04  23805194.484     -234884.320       -4842.113           0.095  
G05  22546491.833      -32052.111        -679.162           0.108  
G06  20658487.873     -146869.055       -3083.945           0.126  
G07  23569011.505     -190356.976       -4059.376           0.099  
G09  23045543.129     -186620.941       -4138.663           0.102  
> 2023 05 18 00 01 05.2688020  0  7                     
G02  24435459.411       13845.481         245.158           0.088  
G03  22306772.517     -154402.312       -3137.032           0.112  
G04  23805321.394     -235368.441       -4847.503           0.095  
G05  22546507.480      -32120.617        -687.664           0.109  
G06  20658565.123     -147177.596       -3088.402           0.125  
G07  23569112.810     -190762.928       -4066.553           0.097  
G09  23045651.967     -187034.947       -4143.721           0.103  
> 2023 05 18 00 01 05.3688020  0  7                     
G02  24435454.034       13869.717         249.085           0.088  
G03  22306855.290     -154715.940       -3134.600           0.112  
G04  23805448.373     -235852.679       -4840.870           0.094  
G05  22546524.581      -32189.225        -686.345           0.107  
G06  20658643.846     -147486.292       -3085.360           0.125  
G07  23569214.984     -191169.047       -4062.746           0.098  
G09  23045756.376     -187449.033       -4140.808           0.102  
> 2023 05 18 00 01 05.4688020  0  7                     
G02  24435443.466       13894.560         257.244           0.089  
G03  22306933.517     -155028.948       -3126.003           0.112  
G04  23805567.686     -236336.349       -4831.951           0.095  
G05  22546542.507      -32257.182        -679.381           0.109  
G06  20658719.674     -147794.392       -3077.788           0.125  
G07  23569316.617     -191574.537       -4049.357           0.097  
G09  23045856.861     -187862.552       -4130.550           0.100  
> 2023 05 18 00 01 05.5688020  0  7                     
G02  24435432.990       13919.997         260.187           0.088  
G03  22307013.584     -155341.303       -3118.281           0.111  
G04  23805686.660     -236819.378       -4825.500           0.094  
G05  22546559.606      -32324.532        -670.576           0.109  
G06  20658799.590     -148101.823       -3069.564           0.124  
G07  23569425.842     -191979.400       -4041.637           0.097  
G09  23045962.528     -188275.452       -4126.752           0.100  
> 2023 05 18 00 01 05.6688020  0  7                     
G02  24435433.207       13946.260         264.443           0.089  
G03  22307092.336     -155652.906       -3115.471           0.111  
G04  23805811.693     -237301.657       -4818.907           0.096  
G05  22546574.121      -32391.103        -662.232           0.108  
G06  20658876.414     -148408.516       -3065.665           0.125  
G07  23569526.998     -192383.529       -4037.267           0.097  
G09  23046066.510     -188687.531       -4119.334           0.103  
> 2023 05 18 00 01 05.7688020  0  7                     
G02  24435421.239       13972.269         259.654           0.092  
G03  22307170.504     -155964.722       -3118.327           0.113  
G04  23805937.156     -237784.130       -4825.930           0.095  
G05  22546592.713      -32457.863        -671.824           0.109  
G06  20658956.657     -148715.397       -3069.334           0.126  
G07  23569628.318     -192787.825       -4044.729           0.098  
G09  23046173.579     -189099.827       -4125.592           0.103  
> 2023 05 18 00 01 05.8688020  0  7                     
G02  24435411.581       13997.483         245.674           0.090  
G03  22307248.347     -156277.390       -3131.442           0.112  
G04  23806054.428     -238267.397       -4838.232           0.094  
G05  22546609.516      -32525.495        -680.198           0.107  
G06  20659033.017     -149023.137       -3082.533           0.125  
G07  23569735.798     -193193.003       -4062.229           0.100  
G09  23046278.171     -189512.995       -4138.032           0.103  
> 2023 05 18 00 01 05.9688020  0  7                     
G02  24435400.374       14021.815         245.289           0.091  
G03  22307332.308     -156590.937       -3133.094           0.112  
G04  23806181.073     -238751.572       -4841.981           0.095  
G05  22546627.570      -32593.997        -682.245           0.110  
G06  20659113.229     -149331.744       -3085.021           0.126  
G07  23569834.148     -193599.038       -4065.908           0.098  
G09  23046385.975     -189927.026       -4139.503           0.102  
> 2023 05 18 00 01 06.0688020  0  7                     
G02  24435401.228       14046.306         248.229           0.089  
G03  22307410.898     -156904.267       -3131.059           0.113  
G04  23806301.425     -239235.499       -4835.372           0.095  
G05  22546644.107      -32662.294        -681.968           0.110  
G06  20659190.297     -149640.157       -3081.807           0.126  
G07  23569938.711     -194004.823       -4060.033           0.097  
G09  23046485.773     -190340.852       -4137.219           0.103  
> 2023 05 18 00 01 06.1688020  0  7                     
G02  24435392.418       14071.436         252.823           0.089  
G03  22307483.064     -157217.027       -3123.859           0.111  
G04  23806428.439     -239718.935       -4828.844           0.096  
G05  22546659.554      -32730.016        -670.262           0.107  
G06  20659271.107     -149948.013       -3073.748           0.126  
G07  23570041.609     -194410.056       -4048.326           0.098  
G09  23046598.688     -190754.081       -4128.387           0.103  
> 2023 05 18 00 01 06.2688020  0  7                     
G02  24435379.635       14096.957         251.003           0.090  
G03  22307565.199     -157529.345       -3125.885           0.112  
G04  23806550.058     -240201.906       -4832.666           0.093  
G05  22546676.657      -32797.298        -673.360           0.109  
G06  20659348.804     -150255.409       -3077.470           0.125  
G07  23570142.237     -194814.907       -4054.025           0.097  
G09  23046695.229     -191166.884       -4130.701           0.102  
> 2023 05 18 00 01 06.3688020  0  7                     
G02  24435381.753       14122.187         247.721           0.089  
G03  22307642.667     -157841.979       -3125.913           0.112  
G04  23806674.123     -240685.147       -4835.511           0.094  
G05  22546695.944      -32864.897        -676.849           0.109  
G06  20659428.392     -150563.100       -3078.418           0.126  
G07  23570247.789     -195220.006       -4053.936           0.098  
G09  23046802.935     -191579.980       -4130.075           0.103  
> 2023 05 18 00 01 06.4688020  0  7                     
G02  24435376.992       14147.357         251.425           0.090  
G03  22307728.524     -158154.711       -3123.653           0.112  
G04  23806795.773     -241168.512       -4831.752           0.095  
G05  22546712.105      -32932.392        -596.893           0.108  
G06  20659504.651     -150870.946       -3077.115           0.125  
G07  23570349.129     -195625.616       -4196.340           0.098  
G09  23046907.529     -191993.271       -4133.634           0.102  
> 2023 05 18 00 01 06.5688020  0  7                     
G02  24435372.004       14172.651         254.372           0.089  
G03  22307804.889     -158467.312       -3120.382           0.112  
G04  23806924.037     -241651.697       -4828.302           0.094  
G05  22546728.785      -33000.139        -670.073           0.110  
G06  20659582.011     -151178.592       -3072.141           0.125  
G07  23570455.915     -196030.337       -4050.143           0.097  
G09  23047016.235     -192406.284       -4126.162           0.102  
> 2023 05 18 00 01 06.6688020  0  7                     
G02  24435362.867       14198.192         254.090           0.091  
G03  22307889.709     -158779.709       -3122.317           0.113  
G04  23807046.756     -242134.718       -4834.399           0.095  
G05  22546749.345      -33067.475        -669.092           0.110  
G06  20659660.517     -151486.052       -3073.431           0.126  
G07  23570556.178     -196435.149       -4048.280           0.098  
G09  23047115.990     -192819.140       -4128.893           0.103  
> 2023 05 18 00 01 06.7688020  0  7                     
G02  24435359.105       14223.377         249.497           0.093  
G03  22307967.261     -159092.345       -3124.593           0.113  
G04  23807165.346     -242617.939       -4833.343           0.097  
G05  22546762.603      -33135.078        -675.070           0.112  
G06  20659738.563     -151793.753       -3076.794           0.127  
G07  23570656.144     -196840.284       -4048.716           0.100  
G09  23047221.718     -193232.236       -4129.533           0.103  
> 2023 05 18 00 01 06.8688020  0  7                     
G02  24435352.120       14248.715         249.185           0.090  
G03  22308046.069     -159404.993       -3131.626           0.115  
G04  23807283.693     -243101.132       -4836.342           0.096  
G05  22546781.639      -33202.666        -682.190           0.109  
G06  20659816.740     -152101.422       -3080.818           0.128  
G07  23570757.118     -197245.401       -4061.761           0.099  
G09  23047328.619     -193645.321       -4137.364           0.105  
> 2023 05 18 00 01 06.9688020  0  7                     
G02  24435340.072       14272.478         242.240           0.093  
G03  22308125.642     -159718.817       -3017.305           0.112  
G04  23807408.727     -243585.895       -4842.528           0.097  
G05  22546799.150      -33271.719        -690.038           0.113  
G06  20659895.917     -152410.621       -3088.324           0.125  
G07  23570861.607     -197652.178       -4319.147           0.098  
G09  23047430.020     -194059.896       -4170.394           0.103  
> 2023 05 18 00 01 07.0688020  0  7                     
G02  24435335.219       14296.837         249.262           0.091  
G03  22308202.196     -160032.641       -3131.499           0.115  
G04  23807533.562     -244070.066       -4835.748           0.097  
G05  22546813.793      -33340.184        -679.049           0.112  
G06  20659976.380     -152719.230       -3081.175           0.128  
G07  23570966.154     -198058.007       -4058.612           0.098  
G09  23047538.745     -194473.915       -4136.431           0.105  
> 2023 05 18 00 01 07.1688020  0  7                     
G02  24435332.793       14321.831         252.836           0.092  
G03  22308285.397     -160345.560       -3129.063           0.115  
G04  23807659.610     -244553.563       -4836.936           0.098  
G05  22546829.360      -33408.064        -679.026           0.111  
G06  20660052.237     -153027.201       -3079.043           0.128  
G07  23571069.947     -198463.317       -4049.449           0.102  
G09  23047642.544     -194887.272       -4133.378           0.105  
> 2023 05 18 00 01 07.2688020  0  7                     
G02  24435326.461       14347.235         258.424           0.090  
G03  22308363.257     -160658.073       -3123.895           0.115  
G04  23807779.535     -245036.685       -4830.767           0.096  
G05  22546848.526      -33475.557        -624.402           0.112  
G06  20660132.864     -153334.774       -3072.568           0.128  
G07  23571179.871     -198867.339       -3843.729           0.101  
G09  23047750.966     -195299.444       -3998.836           0.104  
> 2023 05 18 00 01 07.3688020  0  7                     
G02  24435318.799       14372.660         252.057           0.093  
G03  22308443.240     -160970.580       -3126.413           0.113  
G04  23807906.998     -245519.743       -4832.832           0.097  
G05  22546868.127      -33542.925        -672.577           0.110  
G06  20660207.370     -153642.353       -3075.355           0.127  
G07  23571276.826     -199273.322       -4052.174           0.100  
G09  23047852.559     -195713.164       -4130.208           0.103  
> 2023 05 18 00 01 07.4688020  0  7                     
G02  24435314.982       14397.728         253.137           0.091  
G03  22308517.499     -161283.467       -3124.255           0.113  
G04  23808030.014     -246003.194       -4833.941           0.095  
G05  22546882.251      -33610.766        -677.104           0.111  
G06  20660288.262     -153950.296       -3076.708           0.126  
G07  23571378.044     -199678.657       -4050.232           0.099  
G09  23047958.485     -196126.474       -4128.162           0.103  
> 2023 05 18 00 01 07.5688020  0  7                     
G02  24435302.532       14423.258         251.863           0.087  
G03  22308600.245     -161595.818       -3119.798           0.112  
G04  23808149.090     -246486.152       -4829.468           0.094  
G05  22546898.654      -33678.031        -670.367           0.109  
G06  20660363.165     -154257.713       -3069.529           0.125  
G07  23571478.685     -200083.502       -4047.282           0.098  
G09  23048065.343     -196539.289       -4123.793           0.103  
> 2023 05 18 00 01 07.6688020  0  7                     
G02  24435299.263       14449.053         252.447           0.089  
G03  22308680.591     -161908.690       -3178.927           0.112  
G04  23808274.814     -246968.889       -4828.017           0.094  
G05  22546916.839      -33745.118        -672.025           0.109  
G06  20660444.756     -154564.938       -3074.032           0.125  
G07  23571589.413     -200488.104       -4048.438           0.098  
G09  23048166.733     -196951.827       -4062.232           0.103  
> 2023 05 18 00 01 07.7688020  0  7                     
G02  24435299.006       14474.230         245.361           0.088  
G03  22308761.228     -162220.733       -3129.184           0.111  
G04  23808401.030     -247452.242       -4836.565           0.093  
G05  22546929.419      -33812.832        -682.635           0.107  
G06  20660520.376     -154872.758       -3082.078           0.125  
G07  23571694.217     -200893.352       -4056.377           0.096  
G09  23048276.036     -197365.070       -4134.260           0.102  
> 2023 05 18 00 01 07.8688020  0  7                     
G02  24435281.732       14498.907         248.908           0.088  
G03  22308841.016     -162534.007       -3130.608           0.111  
G04  23808520.737     -247936.068       -4836.109           0.094  
G05  22546950.247      -33881.012        -679.697           0.108  
G06  20660600.265     -155181.066       -3080.144           0.125  
G07  23571792.385     -201299.055       -4054.068           0.095  
G09  23048378.871     -197778.739       -4132.762           0.101  
> 2023 05 18 00 01 07.9688020  0  7                     
G02  24435271.074       14523.922         240.182           0.087  
G03  22308922.064     -162846.962       -3137.878           0.111  
G04  23808640.619     -248419.544       -4841.813           0.092  
G05  22546962.835      -33948.908        -687.871           0.107  
G06  20660677.567     -155489.085       -3087.471           0.124  
G07  23571896.069     -201704.489       -4067.240           0.095  
G09  23048480.133     -198192.126       -4143.539           0.101  
> 2023 05 18 00 01 08.0688020  0  7                     
G02  24435267.318       14548.125         251.712           0.090  
G03  22308998.896     -163160.714       -3131.280           0.111  
G04  23808764.795     -248903.916       -4839.251           0.094  
G05  22546983.956      -34017.585        -681.037           0.110  
G06  20660756.651     -155797.922       -3081.904           0.124  
G07  23571997.168     -202110.678       -4051.731           0.097  
G09  23048590.092     -198606.342       -4137.256           0.101  
> 2023 05 18 00 01 08.1688020  0  7                     
G02  24435264.817       14572.855         246.817           0.088  
G03  22309081.048     -163473.335       -3125.404           0.113  
G04  23808885.315     -249387.719       -4838.522           0.094  
G05  22547000.380      -34085.346        -601.909           0.110  
G06  20660836.368     -156106.214       -3081.343           0.125  
G07  23572098.190     -202513.133       -3706.666           0.098  
G09  23048693.758     -199019.158       -4048.745           0.101  
> 2023 05 18 00 01 08.2688020  0  7                     
G02  24435258.755       14597.074         246.343           0.089  
G03  22309159.350     -163787.725       -3137.333           0.111  
G04  23809013.516     -249872.013       -4838.968           0.096  
G05  22547021.106      -34154.432        -683.703           0.108  
G06  20660912.825     -156415.014       -3086.935           0.126  
G07  23572204.480     -202922.534       -4059.283           0.096  
G09  23048799.522     -199434.086       -4137.506           0.101  
> 2023 05 18 00 01 08.3688020  0  7                     
G02  24435249.718       14622.297         259.238           0.089  
G03  22309237.302     -164100.407       -3119.818           0.111  
G04  23809132.157     -250355.270       -4823.364           0.093  
G05  22547041.146      -34222.005        -666.370           0.108  
G06  20660994.958     -156722.748       -3067.490           0.124  
G07  23572307.445     -203327.744       -4044.396           0.097  
G09  23048907.449     -199847.172       -4121.867           0.101  
> 2023 05 18 00 01 08.4688020  0  7                     
G02  24435243.229       14648.663         267.626           0.090  
G03  22309314.262     -164412.050       -3117.167           0.112  
G04  23809258.388     -250837.451       -4821.802           0.095  
G05  22547054.366      -34288.624        -637.731           0.109  
G06  20661070.951     -157029.450       -3066.639           0.125  
G07  23572407.746     -203731.217       -3751.881           0.098  
G09  23049012.228     -200259.232       -4117.897           0.102  
> 2023 05 18 00 01 08.5688020  0  7                     
G02  24435236.755       14674.679         261.458           0.090  
G03  22309396.530     -164723.212       -3010.361           0.112  
G04  23809377.464     -251319.947       -4826.854           0.095  
G05  22547072.763      -34355.433        -669.903           0.108  
G06  20661147.863     -157336.470       -3071.065           0.125  
G07  23572514.787     -204136.186       -4038.037           0.098  
G09  23049116.792     -200671.615       -4123.933           0.100  
> 2023 05 18 00 01 08.6688020  0  7                     
G02  24435228.684       14700.198         250.903           0.090  
G03  22309478.822     -165036.454       -3123.515           0.112  
G04  23809502.587     -251802.950       -4833.646           0.096  
G05  22547088.630      -34422.785        -673.553           0.108  
G06  20661221.976     -157643.953       -3075.312           0.125  
G07  23572621.054     -204541.118       -4051.121           0.097  
G09  23049218.788     -201084.413       -4129.962           0.103  
> 2023 05 18 00 01 08.7688020  0  7                     
G02  24435221.126       14725.725         257.801           0.091  
G03  22309554.692     -165348.974       -3128.094           0.113  
G04  23809628.660     -252285.992       -4829.819           0.094  
G05  22547104.337      -34490.184        -671.779           0.110  
G06  20661305.246     -157951.474       -3073.024           0.126  
G07  23572720.024     -204946.098       -4050.297           0.097  
G09  23049329.517     -201497.263       -4123.142           0.103  
> 2023 05 18 00 01 08.8688020  0  7                     
G02  24435221.090       14751.714         263.068           0.089  
G03  22309636.864     -165660.920       -3117.861           0.111  
G04  23809750.093     -252768.440       -4821.165           0.095  
G05  22547120.426      -34557.041        -666.825           0.109  
G06  20661383.055     -158258.511       -3069.200           0.125  
G07  23572823.227     -205350.490       -4039.036           0.097  
G09  23049429.983     -201909.657       -4121.620           0.102  
> 2023 05 18 00 01 08.9688020  0  7                     
G02  24435207.075       14778.064         261.419           0.090  
G03  22309715.707     -165972.189       -2991.936           0.112  
G04  23809868.411     -253250.651       -4821.354           0.095  
G05  22547138.635      -34623.738        -654.312           0.111  
G06  20661462.869     -158565.183       -3066.307           0.126  
G07  23572924.372     -205754.535       -4033.997           0.097  
G09  23049533.126     -202320.721       -3924.325           0.102  
> 2023 05 18 00 01 09.0688020  0  7                     
G02  24435204.291       14804.276         256.267           0.090  
G03  22309792.994     -166284.347       -3118.646           0.112  
G04  23809995.060     -253732.939       -4823.469           0.096  
G05  22547156.193      -34690.287        -669.053           0.109  
G06  20661537.317     -158872.025       -3069.133           0.126  
G07  23573029.492     -206158.750       -4044.044           0.099  
G09  23049638.196     -202733.844       -4121.564           0.103  
> 2023 05 18 00 01 09.1688020  0  7                     
G02  24435195.939       14830.181         252.026           0.090  
G03  22309871.331     -166596.457       -3125.166           0.113  
G04  23810117.073     -254215.642       -4833.305           0.096  
G05  22547170.857      -34757.272        -674.482           0.111  
G06  20661617.922     -159179.158       -3075.680           0.127  
G07  23573131.175     -206563.324       -4047.874           0.099  
G09  23049749.107     -203146.327       -4127.660           0.103  
> 2023 05 18 00 01 09.2688020  0  7                     
G02  24435186.651       14855.657         260.025           0.091  
G03  22309953.004     -166909.074       -3128.193           0.115  
G04  23810240.453     -254698.753       -4835.026           0.097  
G05  22547189.505      -34824.765        -674.924           0.112  
G06  20661692.506     -159486.817       -3077.946           0.127  
G07  23573233.150     -206968.324       -4044.754           0.099  
G09  23049850.078     -203559.297       -4128.643           0.104  
> 2023 05 18 00 01 09.3688020  0  7                     
G02  24435181.706       14881.164         259.929           0.092  
G03  22310036.754     -167221.511       -3121.240           0.114  
G04  23810362.296     -255181.690       -4830.470           0.097  
G05  22547205.233      -34892.141        -670.372           0.112  
G06  20661771.969     -159794.309       -3072.895           0.129  
G07  23573335.836     -207373.194       -4045.226           0.101  
G09  23049958.763     -203972.104       -4123.883           0.104  
> 2023 05 18 00 01 09.4688020  0  7                     
G02  24435178.065       14906.703         253.371           0.091  
G03  22310108.912     -167533.964       -3126.096           0.114  
G04  23810487.438     -255664.669       -4834.524           0.097  
G05  22547221.887      -34959.480        -678.909           0.112  
G06  20661850.640     -160101.790       -3077.375           0.127  
G07  23573442.592     -207778.095       -4055.392           0.099  
G09  23050062.289     -204384.918       -4133.650           0.104  
> 2023 05 18 00 01 09.5688020  0  7                     
G02  24435172.650       14931.694         251.734           0.092  
G03  22310187.303     -167847.011       -3128.403           0.114  
G04  23810608.309     -256148.220       -4835.077           0.097  
G05  22547238.456      -35027.422        -678.198           0.113  
G06  20661928.327     -160409.882       -3077.545           0.127  
G07  23573543.003     -208183.581       -4051.546           0.101  
G09  23050164.010     -204798.303       -4130.809           0.105  
> 2023 05 18 00 01 09.6688020  0  7                     
G02  24435166.454       14957.024         255.036           0.093  
G03  22310265.160     -168159.681       -3124.478           0.115  
G04  23810729.615     -256631.404       -4829.527           0.097  
G05  22547254.047      -35094.987        -674.308           0.111  
G06  20662007.490     -160717.601       -3072.461           0.127  
G07  23573645.103     -208588.732       -4053.699           0.101  
G09  23050266.280     -205211.383       -4126.728           0.104  
> 2023 05 18 00 01 09.7688020  0  7                     
G02  24435156.278       14982.910         257.106           0.091  
G03  22310346.859     -168471.838       -3120.281           0.114  
G04  23810849.221     -257114.007       -4823.757           0.097  
G05  22547273.476      -35161.976        -667.579           0.111  
G06  20662084.192     -161024.808       -3069.668           0.127  
G07  23573747.780     -208993.240       -4044.731           0.099  
G09  23050376.312     -205623.867       -4122.183           0.106  
> 2023 05 18 00 01 09.8688020  0  7                     
G02  24435146.883       15008.754         258.434           0.090  
G03  22310429.558     -168784.040       -3123.242           0.113  
G04  23810975.042     -257596.730       -4827.933           0.097  
G05  22547289.618      -35229.074        -674.024           0.110  
G06  20662162.786     -161332.039       -3074.999           0.128  
G07  23573852.136     -209397.880       -4046.999           0.100  
G09  23050479.795     -206036.403       -4128.864           0.106  
> 2023 05 18 00 01 09.9688020  0  7                     
G02  24435141.363       15033.731         249.408           0.089  
G03  22310512.128     -169097.114       -3130.940           0.113  
G04  23811094.158     -258080.259       -4834.124           0.094  
G05  22547309.249      -35297.024        -682.110           0.109  
G06  20662237.381     -161640.144       -3082.801           0.126  
G07  23573958.717     -209803.356       -4056.187           0.097  
G09  23050582.961     -206449.825       -4135.423           0.102  
> 2023 05 18 00 01 10.0688020  0  7                     
G02  24435130.336       15057.794         239.052           0.092  
G03  22310586.491     -169411.090       -3139.876           0.113  
G04  23811219.299     -258564.779       -4847.634           0.095  
G05  22547323.547      -35365.904        -691.321           0.108  
G06  20662321.427     -161949.167       -3091.481           0.125  
G07  23574060.264     -210209.795       -4064.792           0.097  
G09  23050692.991     -206864.117       -4141.769           0.102  
> 2023 05 18 00 01 10.1688020  0  7                     
G02  24435128.806       15081.930         247.778           0.089  
G03  22310668.813     -169725.049       -3134.624           0.111  
G04  23811340.947     -259049.176       -4839.931           0.095  
G05  22547339.358      -35434.675        -684.879           0.107  
G06  20662397.245     -162258.118       -3084.215           0.125  
G07  23574163.716     -210616.136       -4061.157           0.098  
G09  23050796.149     -207278.403       -4137.336           0.103  
> 2023 05 18 00 01 10.2688020  0  7                     
G02  24435122.957       15106.828         250.832           0.087  
G03  22310749.904     -170038.191       -3126.569           0.110  
G04  23811467.995     -259532.836       -4836.268           0.092  
G05  22547357.724      -35502.716        -677.560           0.108  
G06  20662476.546     -162566.316       -3078.103           0.125  
G07  23574264.168     -211021.764       -4055.634           0.098  
G09  23050899.788     -207691.927       -4131.015           0.100  
> 2023 05 18 00 01 10.3688020  0  7                     
G02  24435115.394       15132.873         266.924           0.090  
G03  22310827.112     -170350.245       -3117.134           0.110  
G04  23811593.358     -260015.341       -4824.769           0.094  
G05  22547377.077      -35569.604        -665.096           0.109  
G06  20662555.381     -162873.380       -3068.078           0.123  
G07  23574370.680     -211426.177       -4043.043           0.096  
G09  23051006.373     -208104.256       -4123.450           0.100  
> 2023 05 18 00 01 10.4688020  0  7                     
G02  24435109.007       15159.026         265.223           0.089  
G03  22310904.454     -170662.151       -3120.077           0.112  
G04  23811714.761     -260497.758       -4827.251           0.094  
G05  22547394.271      -35636.394        -669.666           0.107  
G06  20662633.782     -163180.303       -3069.841           0.125  
G07  23574474.303     -211830.520       -4044.539           0.098  
G09  23051110.710     -208516.517       -4125.524           0.100  
> 2023 05 18 00 01 10.5688020  0  7                     
G02  24435102.170       15184.965         260.994           0.089  
G03  22310983.811     -170974.307       -3121.640           0.113  
G04  23811835.491     -260980.354       -4827.260           0.095  
G05  22547408.349      -35703.405        -669.340           0.109  
G06  20662711.022     -163487.515       -3073.432           0.125  
G07  23574574.660     -212235.040       -4044.647           0.098  
G09  23051214.529     -208928.979       -4127.949           0.100  
> 2023 05 18 00 01 10.6688020  0  7                     
G02  24435092.489       15210.810         256.932           0.090  
G03  22311063.483     -171286.488       -3122.087           0.115  
G04  23811958.365     -261463.021       -4825.504           0.096  
G05  22547425.302      -35770.440        -669.826           0.111  
G06  20662790.391     -163794.730       -3073.365           0.126  
G07  23574675.900     -212639.655       -4048.267           0.099  
G09  23051321.008     -209341.468       -4123.391           0.102  
> 2023 05 18 00 01 10.7688020  0  7                     
G02  24435086.642       15236.092         255.404           0.091  
G03  22311145.068     -171599.332       -3130.648           0.115  
G04  23812079.107     -261946.318       -4833.802           0.095  
G05  22547440.496      -35838.189        -680.575           0.111  
G06  20662866.949     -164102.597       -3080.366           0.127  
G07  23574781.553     -213044.929       -4058.464           0.100  
G09  23051421.945     -209754.624       -4133.416           0.102  
> 2023 05 18 00 01 10.8688020  0  7                     
G02  24435085.420       15260.927         252.307           0.091  
G03  22311223.948     -171912.508       -3132.587           0.113  
G04  23812203.381     -262429.976       -4839.190           0.097  
G05  22547457.372      -35906.182        -679.072           0.109  
G06  20662945.350     -164410.779       -3082.482           0.126  
G07  23574884.017     -213450.485       -4054.551           0.099  
G09  23051531.631     -210168.055       -4133.240           0.103  
> 2023 05 18 00 01 10.9688020  0  7                     
G02  24435076.314       15286.207         255.461           0.090  
G03  22311301.792     -172225.298       -3122.661           0.112  
G04  23812327.299     -262913.250       -4827.734           0.095  
G05  22547479.841      -35973.889        -674.420           0.109  
G06  20663023.038     -164718.614       -3072.952           0.126  
G07  23574987.018     -213855.670       -4044.456           0.099  
G09  23051633.648     -210581.201       -4123.191           0.103  
> 2023 05 18 00 01 11.0688020  0  7                     
G02  24435066.761       15312.224         256.238           0.091  
G03  22311383.546     -172537.379       -3119.311           0.112  
G04  23812452.087     -263395.802       -4827.427           0.095  
G05  22547495.578      -36040.779        -664.867           0.107  
G06  20663101.407     -165025.716       -3070.363           0.125  
G07  23575093.194     -214260.172       -4040.220           0.098  
G09  23051738.657     -210993.604       -4123.643           0.101  
> 2023 05 18 00 01 11.1688020  0  7                     
G02  24435064.008       15337.053         241.600           0.089  
G03  22311460.964     -172850.688       -3140.619           0.112  
G04  23812578.615     -263879.541       -4846.329           0.095  
G05  22547511.567      -36108.921        -689.176           0.108  
G06  20663179.247     -165334.014       -3091.297           0.124  
G07  23575193.142     -214665.895       -4067.320           0.097  
G09  23051842.785     -211407.177       -4141.130           0.101  
> 2023 05 18 00 01 11.2688020  0  7                     
G02  24435058.946       15361.444         252.180           0.091  
G03  22311538.580     -173164.396       -3131.264           0.112  
G04  23812699.333     -264363.700       -4832.205           0.095  
G05  22547526.818      -36177.508        -678.982           0.108  
G06  20663260.017     -165642.727       -3080.044           0.125  
G07  23575294.547     -215072.022       -4058.020           0.100  
G09  23051949.598     -211821.224       -4135.146           0.103  
> 2023 05 18 00 01 11.3688020  0  7                     
G02  24435055.074       15386.340         253.333           0.089  
G03  22311620.680     -173477.603       -3129.139           0.114  
G04  23812821.873     -264847.365       -4830.738           0.095  
G05  22547543.592      -36245.556        -679.418           0.109  
G06  20663336.144     -165950.967       -3078.175           0.126  
G07  23575401.285     -215477.636       -4055.033           0.098  
G09  23052058.378     -212234.697       -4134.161           0.103  
> 2023 05 18 00 01 11.4688020  0  7                     
G02  24435046.515       15411.399         248.690           0.093  
G03  22311701.648     -173790.636       -3131.802           0.113  
G04  23812947.801     -265330.828       -4834.179           0.094  
G05  22547560.610      -36313.416        -684.301           0.110  
G06  20663415.520     -166259.029       -3083.959           0.126  
G07  23575502.442     -215883.061       -4061.527           0.099  
G09  23052162.754     -212648.026       -4137.631           0.103  
> 2023 05 18 00 01 11.5688020  0  7                     
G02  24435040.624       15436.006         247.976           0.091  
G03  22311784.025     -174104.187       -3138.771           0.113  
G04  23813068.949     -265814.860       -4843.011           0.095  
G05  22547578.170      -36381.772        -683.082           0.110  
G06  20663494.844     -166567.583       -3087.021           0.127  
G07  23575603.477     -216288.998       -4063.880           0.101  
G09  23052260.232     -213061.852       -4144.658           0.103  
> 2023 05 18 00 01 11.6688020  0  7                     
G02  24435028.918       15460.617         246.549           0.091  
G03  22311864.041     -174417.684       -3132.379           0.114  
G04  23813190.602     -266298.799       -4838.374           0.096  
G05  22547601.048      -36450.078        -676.962           0.108  
G06  20663572.485     -166876.095       -3080.973           0.127  
G07  23575706.869     -216694.850       -4052.360           0.099  
G09  23052369.139     -213475.619       -4135.793           0.104  
> 2023 05 18 00 01 11.7688020  0  7                     
G02  24435022.829       15486.204         257.313           0.089  
G03  22311940.145     -174730.229       -3126.537           0.114  
G04  23813311.148     -266781.757       -4829.188           0.096  
G05  22547614.391      -36517.475        -670.891           0.108  
G06  20663652.656     -167183.634       -3074.124           0.126  
G07  23575813.748     -217099.775       -4045.809           0.099  
G09  23052480.260     -213888.415       -4126.472           0.105  
> 2023 05 18 00 01 11.8688020  0  7                     
G02  24435017.801       15512.181         258.698           0.092  
G03  22312017.201     -175042.371       -3121.361           0.114  
G04  23813436.218     -267264.348       -4826.102           0.096  
G05  22547631.277      -36584.501        -669.041           0.113  
G06  20663728.729     -167490.831       -3070.469           0.127  
G07  23575915.099     -217504.335       -4044.889           0.099  
G09  23052581.845     -214300.827       -4121.989           0.103  
> 2023 05 18 00 01 11.9688020  0  7                     
G02  24435010.052       15538.361         263.581           0.093  
G03  22312102.684     -175354.302       -3117.323           0.114  
G04  23813556.248     -267746.703       -4819.900           0.097  
G05  22547644.591      -36651.267        -665.679           0.111  
G06  20663808.794     -167797.776       -3064.322           0.127  
G07  23576013.843     -217908.659       -4039.239           0.100  
G09  23052683.099     -214713.051       -4119.239           0.103  
> 2023 05 18 00 01 12.0688020  0  7                     
G02  24435000.624       15564.761         260.553           0.091  
G03  22312179.569     -175666.021       -3118.920           0.115  
G04  23813679.818     -268228.799       -4819.505           0.096  
G05  22547663.482      -36718.387        -664.929           0.111  
G06  20663885.008     -168104.488       -3067.672           0.128  
G07  23576117.963     -218312.770       -4043.573           0.099  
G09  23052788.584     -215124.998       -4119.539           0.104  
> 2023 05 18 00 01 12.1688020  0  7                     
G02  24434998.736       15590.482         252.727           0.091  
G03  22312263.565     -175978.443       -3128.878           0.115  
G04  23813804.417     -268711.685       -4833.581           0.097  
G05  22547680.118      -36785.074        -676.650           0.110  
G06  20663960.435     -168411.927       -3078.639           0.127  
G07  23576224.060     -218717.585       -4053.359           0.099  
G09  23052891.407     -215537.719       -4132.274           0.104  
> 2023 05 18 00 01 12.2688020  0  7                     
G02  24434988.969       15615.355         245.295           0.093  
G03  22312341.416     -176291.753       -3138.704           0.114  
G04  23813927.398     -269195.392       -4839.802           0.097  
G05  22547695.964      -36853.180        -685.365           0.109  
G06  20664038.887     -168720.229       -3086.662           0.127  
G07  23576326.745     -219123.309       -4064.358           0.098  
G09  23052995.923     -215951.272       -4138.939           0.105  
> 2023 05 18 00 01 12.3688020  0  7                     
G02  24434980.285       15639.964         244.982           0.093  
G03  22312414.418     -176605.291       -3134.993           0.115  
G04  23814048.761     -269679.325       -4835.611           0.097  
G05  22547715.305      -36921.551        -685.965           0.110  
G06  20664117.384     -169028.788       -3083.574           0.128  
G07  23576428.948     -219529.227       -4062.320           0.100  
G09  23053106.477     -216365.077       -4133.500           0.105  
> 2023 05 18 00 01 12.4688020  0  7                     
G02  24434973.183       15665.152         254.436           0.092  
G03  22312492.145     -176918.263       -3127.629           0.115  
G04  23814168.499     -270162.721       -4833.146           0.097  
G05  22547730.709      -36989.370        -677.472           0.111  
G06  20664197.372     -169336.767       -3078.397           0.127  
G07  23576528.974     -219934.536       -4053.598           0.100  
G09  23053217.312     -216778.310       -4128.958           0.104  
> 2023 05 18 00 01 12.5688020  0  7                     
G02  24434969.483       15690.824         260.378           0.091  
G03  22312576.207     -177230.763       -3121.068           0.115  
G04  23814292.592     -270645.633       -4825.979           0.097  
G05  22547750.991      -37056.699        -673.033           0.112  
G06  20664274.040     -169644.300       -3073.500           0.128  
G07  23576635.087     -220339.464       -4047.955           0.100  
G09  23053314.404     -217191.083       -4126.487           0.104  
> 2023 05 18 00 01 12.6688020  0  7                     
G02  24434960.685       15716.780         264.220           0.092  
G03  22312658.921     -177542.983       -3118.859           0.115  
G04  23814417.662     -271128.226       -4823.893           0.097  
G05  22547766.477      -37123.754        -669.658           0.111  
G06  20664352.589     -169951.513       -3069.592           0.128  
G07  23576735.340     -220743.996       -4040.374           0.100  
G09  23053422.463     -217603.567       -4123.029           0.104  
> 2023 05 18 00 01 12.7688020  0  7                     
G02  24434955.439       15743.064         260.616           0.091  
G03  22312734.435     -177854.811       -3116.865           0.116  
G04  23814540.908     -271610.458       -4820.776           0.096  
G05  22547782.510      -37190.378        -664.056           0.111  
G06  20664431.390     -170258.343       -3065.382           0.127  
G07  23576844.304     -221148.237       -4041.888           0.100  
G09  23053528.255     -218015.616       -4121.180           0.104  
> 2023 05 18 00 01 12.8688020  0  7                     
G02  24434946.414       15769.563         266.966           0.092  
G03  22312811.229     -178165.639       -3013.463           0.114  
G04  23814664.680     -272092.560       -4820.906           0.097  
G05  22547802.929      -37256.911        -665.650           0.112  
G06  20664510.066     -170565.065       -3064.490           0.127  
G07  23576944.938     -221552.031       -3929.146           0.100  
G09  23053628.836     -218427.442       -4141.674           0.106  
> 2023 05 18 00 01 12.9688020  0  7                     
G02  24434935.897       15795.946         261.528           0.092  
G03  22312893.806     -178478.316       -3121.816           0.114  
G04  23814786.929     -272574.760       -4824.943           0.097  
G05  22547816.781      -37323.507        -670.727           0.110  
G06  20664589.298     -170871.852       -3067.635           0.127  
G07  23577044.345     -221956.449       -4043.939           0.100  
G09  23053736.502     -218839.563       -4121.734           0.104  
> 2023 05 18 00 01 13.0688020  0  7                     
G02  24434933.389       15821.779         260.359           0.091  
G03  22312978.667     -178790.681       -3124.313           0.114  
G04  23814912.081     -273057.504       -4826.932           0.095  
G05  22547832.992      -37390.677        -673.259           0.112  
G06  20664667.984     -171179.207       -3075.391           0.127  
G07  23577144.902     -222361.234       -4050.638           0.098  
G09  23053841.575     -219252.160       -4125.868           0.104  
> 2023 05 18 00 01 13.1688020  0  7                     
G02  24434926.027       15847.663         258.222           0.091  
G03  22313051.416     -179102.951       -3121.607           0.114  
G04  23815032.503     -273540.164       -4825.250           0.098  
G05  22547847.231      -37457.734        -669.708           0.110  
G06  20664743.542     -171486.518       -3071.831           0.127  
G07  23577250.943     -222765.847       -4046.903           0.099  
G09  23053941.518     -219664.706       -4127.471           0.103  
> 2023 05 18 00 01 13.2688020  0  7                     
G02  24434921.163       15873.683         262.221           0.091  
G03  22313134.145     -179415.147       -3121.533           0.113  
G04  23815154.334     -274022.744       -4824.421           0.097  
G05  22547865.679      -37524.728        -668.027           0.109  
G06  20664821.254     -171793.693       -3072.335           0.127  
G07  23577356.888     -223170.393       -4044.564           0.100  
G09  23054051.548     -220077.073       -4124.751           0.103  
> 2023 05 18 00 01 13.3688020  0  7                     
G02  24434914.960       15899.595         263.577           0.091  
G03  22313213.103     -179727.410       -3120.014           0.114  
G04  23815276.835     -274505.379       -4823.062           0.096  
G05  22547884.355      -37592.531        -747.415           0.111  
G06  20664897.011     -172100.984       -3072.275           0.127  
G07  23577455.156     -223574.977       -3900.804           0.099  
G09  23054155.815     -220489.587       -4123.001           0.105  
> 2023 05 18 00 01 13.4688020  0  7                     
G02  24434909.335       15925.653         260.909           0.090  
G03  22313293.085     -180039.480       -3118.490           0.114  
G04  23815400.515     -274987.833       -4823.269           0.097  
G05  22547903.782      -37658.700        -665.341           0.109  
G06  20664979.319     -172408.038       -3070.192           0.127  
G07  23577557.024     -223979.477       -4042.377           0.099  
G09  23054260.926     -220901.873       -4120.142           0.105  
> 2023 05 18 00 01 13.5688020  0  7                     
G02  24434899.181       15950.939         240.899           0.088  
G03  22313368.365     -180352.459       -3143.125           0.112  
G04  23815523.817     -275471.122       -4844.924           0.093  
G05  22547919.642      -37726.434        -686.059           0.107  
G06  20665055.595     -172715.995       -3090.282           0.126  
G07  23577659.363     -224384.738       -4061.714           0.096  
G09  23054363.972     -221315.013       -4144.611           0.103  
> 2023 05 18 00 01 13.6688020  0  7                     
G02  24434897.813       15974.734         240.904           0.091  
G03  22313447.651     -180666.890       -3145.362           0.110  
G04  23815648.970     -275955.940       -4848.899           0.095  
G05  22547938.002      -37795.681        -692.261           0.108  
G06  20665135.240     -173025.406       -3092.338           0.125  
G07  23577763.419     -224791.580       -4069.010           0.098  
G09  23054470.485     -221729.664       -4147.254           0.101  
> 2023 05 18 00 01 13.7688020  0  7                     
G02  24434890.931       15999.676         249.056           0.089  
G03  22313529.387     -180980.162       -3130.048           0.114  
G04  23815774.001     -276439.531       -4830.639           0.096  
G05  22547956.856      -37863.734        -676.408           0.110  
G06  20665211.003     -173333.679       -3079.921           0.126  
G07  23577866.959     -225197.351       -4014.253           0.098  
G09  23054573.246     -222142.910       -4061.401           0.102  
> 2023 05 18 00 01 13.8688020  0  7                     
G02  24434878.974       16025.261         257.438           0.091  
G03  22313605.974     -181292.801       -3122.224           0.114  
G04  23815894.996     -276922.556       -4824.911           0.096  
G05  22547969.356      -37931.205        -671.582           0.109  
G06  20665291.824     -173641.321       -3073.748           0.126  
G07  23577974.046     -225602.240       -4045.211           0.099  
G09  23054675.464     -222555.976       -4123.022           0.105  
> 2023 05 18 00 01 13.9688020  0  7                     
G02  24434871.966       16051.268         263.882           0.093  
G03  22313688.555     -181605.037       -3121.891           0.114  
G04  23816010.766     -277405.123       -4826.876           0.098  
G05  22547985.844      -37998.177        -671.184           0.112  
G06  20665369.437     -173948.497       -3069.848           0.127  
G07  23578077.329     -226006.773       -4043.198           0.100  
G09  23054789.586     -222968.392       -4123.947           0.105  
> 2023 05 18 00 01 14.0688020  0  7                     
G02  24434867.598       16077.352         257.927           0.093  
G03  22313767.663     -181917.196       -3121.514           0.114  
G04  23816139.019     -277887.585       -4824.490           0.098  
G05  22548001.111      -38065.104        -667.493           0.109  
G06  20665448.107     -174255.644       -3068.914           0.128  
G07  23578175.650     -226411.252       -4042.650           0.101  
G09  23054892.552     -223380.726       -4123.704           0.105  
> 2023 05 18 00 01 14.1688020  0  7                     
G02  24434859.163       16103.431         257.174           0.093  
G03  22313845.242     -182229.320       -3120.646           0.115  
G04  23816263.760     -278370.110       -4823.920           0.099  
G05  22548018.517      -38132.038        -668.273           0.111  
G06  20665527.698     -174562.785       -3070.621           0.128  
G07  23578281.062     -226815.770       -4043.555           0.100  
G09  23054994.608     -223793.072       -4123.699           0.105  
> 2023 05 18 00 01 14.2688020  0  7                     
G02  24434852.623       16129.511         254.071           0.092  
G03  22313926.580     -182541.433       -3120.757           0.115  
G04  23816382.496     -278852.574       -4826.264           0.098  
G05  22548035.931      -38198.937        -666.718           0.112  
G06  20665603.813     -174869.889       -3070.318           0.128  
G07  23578381.261     -227220.247       -4045.797           0.101  
G09  23055095.985     -224205.349       -4121.862           0.105  
> 2023 05 18 00 01 14.3688020  0  7                     
G02  24434848.719       16155.701         262.607           0.094  
G03  22314006.401     -182853.525       -3118.844           0.115  
G04  23816501.671     -279334.990       -4824.191           0.098  
G05  22548054.496      -38265.845        -669.070           0.112  
G06  20665683.871     -175176.995       -3070.853           0.129  
G07  23578488.266     -227624.707       -4045.556           0.101  
G09  23055205.263     -224617.650       -4121.793           0.105  
> 2023 05 18 00 01 14.4688020  0  7                     
G02  24434842.022       16181.648         259.740           0.094  
G03  22314085.128     -183165.783       -3123.277           0.116  
G04  23816626.330     -279817.572       -4823.151           0.099  
G05  22548072.637      -38332.857        -673.027           0.113  
G06  20665756.763     -175484.217       -3071.036           0.129  
G07  23578586.628     -228029.294       -4046.607           0.103  
G09  23055307.327     -225030.069       -4124.123           0.105  
> 2023 05 18 00 01 14.5688020  0  7                     
G02  24434835.485       16207.644         257.572           0.096  
G03  22314165.900     -183478.102       -3125.728           0.118  
G04  23816748.922     -280300.193       -4827.333           0.101  
G05  22548088.525      -38399.883        -674.428           0.115  
G06  20665836.279     -175791.500       -3075.880           0.131  
G07  23578691.052     -228433.933       -4051.273           0.101  
G09  23055413.757     -225442.515       -4126.712           0.108  
> 2023 05 18 00 01 14.6688020  0  7                     
G02  24434826.957       16233.448         257.287           0.096  
G03  22314243.318     -183790.555       -3124.327           0.118  
G04  23816871.410     -280782.964       -4825.932           0.101  
G05  22548102.973      -38467.150        -672.990           0.114  
G06  20665916.104     -176098.943       -3073.822           0.131  
G07  23578790.104     -228838.734       -4048.821           0.104  
G09  23055515.385     -225855.136       -4124.071           0.109  
> 2023 05 18 00 01 14.7688020  0  7                     
G02  24434813.897       16259.311         257.961           0.095  
G03  22314323.031     -184102.976       -3127.023           0.118  
G04  23816993.925     -281265.692       -4825.521           0.101  
G05  22548120.697      -38534.342        -673.433           0.115  
G06  20665995.756     -176406.317       -3074.693           0.131  
G07  23578897.920     -229243.493       -4049.861           0.104  
G09  23055623.542     -226267.748       -4126.409           0.107  
> 2023 05 18 00 01 14.8688020  0  7                     
G02  24434807.280       16284.959         255.472           0.097  
G03  22314400.976     -184415.561       -3127.865           0.118  
G04  23817112.876     -281748.650       -4831.925           0.100  
G05  22548134.539      -38601.696        -674.218           0.114  
G06  20666071.141     -176713.909       -3076.235           0.131  
G07  23579001.365     -229648.398       -4051.743           0.104  
G09  23055731.447     -226680.472       -4130.121           0.108  
> 2023 05 18 00 01 14.9688020  0  7                     
G02  24434800.000       16310.531         252.688           0.095  
G03  22314480.738     -184728.241       -3126.072           0.118  
G04  23817238.266     -282231.646       -4829.133           0.100  
G05  22548154.675      -38669.142        -676.577           0.115  
G06  20666149.546     -177021.571       -3074.689           0.131  
G07  23579104.092     -230053.453       -4051.628           0.104  
G09  23055837.444     -227093.315       -4127.883           0.109  
> 2023 05 18 00 01 15.0688020  0  7                     
G02  24434796.908       16336.320         257.483           0.095  
G03  22314561.448     -185040.744       -3123.805           0.118  
G04  23817364.641     -282714.495       -4827.000           0.101  
G05  22548174.127      -38736.437        -674.054           0.114  
G06  20666227.718     -177329.055       -3074.489           0.130  
G07  23579205.969     -230458.244       -4042.234           0.103  
G09  23055939.566     -227505.991       -4126.180           0.107  
> 2023 05 18 00 01 15.1688020  0  7                     
G02  24434796.250       16362.225         262.331           0.095  
G03  22314640.221     -185353.134       -3124.391           0.118  
G04  23817490.270     -283197.172       -4826.499           0.100  
G05  22548190.424      -38803.568        -670.744           0.113  
G06  20666307.597     -177636.415       -3073.288           0.131  
G07  23579310.552     -230862.993       -4043.871           0.103  
G09  23056045.021     -227918.522       -4123.432           0.107  
> 2023 05 18 00 01 15.2688020  0  7                     
G02  24434788.349       16388.161         259.312           0.094  
G03  22314719.477     -185665.618       -3122.863           0.118  
G04  23817613.464     -283679.794       -4827.277           0.101  
G05  22548208.589      -38870.655        -671.811           0.113  
G06  20666385.491     -177943.710       -3072.948           0.130  
G07  23579412.891     -231267.314       -3997.792           0.103  
G09  23056152.510     -228330.699       -4155.233           0.107  
> 2023 05 18 00 01 15.3688020  0  7                     
G02  24434776.605       16414.093         259.745           0.093  
G03  22314797.416     -185977.816       -3124.505           0.116  
G04  23817732.091     -284162.436       -4828.935           0.100  
G05  22548225.767      -38937.755        -672.068           0.113  
G06  20666464.408     -178251.032       -3073.678           0.130  
G07  23579517.147     -231671.952       -4029.422           0.104  
G09  23056257.126     -228743.460       -4125.122           0.105  
> 2023 05 18 00 01 15.4688020  0  7                     
G02  24434773.120       16439.919         257.547           0.092  
G03  22314881.073     -186290.232       -3123.801           0.116  
G04  23817853.605     -284645.157       -4826.688           0.098  
G05  22548240.713      -39004.947        -670.777           0.113  
G06  20666541.136     -178558.458       -3073.959           0.129  
G07  23579620.241     -232077.111       -4050.465           0.102  
G09  23056355.810     -229156.077       -4126.441           0.105  
> 2023 05 18 00 01 15.5688020  0  7                     
G02  24434763.837       16465.608         248.792           0.091  
G03  22314959.928     -186602.837       -3130.358           0.115  
G04  23817978.188     -285128.020       -4830.704           0.097  
G05  22548260.439      -39072.254        -678.390           0.109  
G06  20666619.822     -178866.009       -3079.666           0.129  
G07  23579720.866     -232481.986       -4050.795           0.101  
G09  23056464.120     -229568.794       -4132.755           0.106  
> 2023 05 18 00 01 15.6688020  0  7                     
G02  24434755.640       16490.926         249.670           0.091  
G03  22315037.532     -186915.860       -3134.696           0.113  
G04  23818101.466     -285611.359       -4836.842           0.096  
G05  22548275.772      -39140.080        -682.617           0.111  
G06  20666698.779     -179174.018       -3081.383           0.127  
G07  23579822.475     -232887.378       -4058.085           0.099  
G09  23056569.234     -229981.934       -4132.122           0.104  
> 2023 05 18 00 01 15.7688020  0  7                     
G02  24434758.087       16515.685         248.434           0.090  
G03  22315111.194     -187229.421       -3136.170           0.113  
G04  23818224.997     -286095.224       -4837.643           0.095  
G05  22548287.995      -39208.369        -683.966           0.111  
G06  20666776.116     -179482.548       -3084.137           0.127  
G07  23579923.498     -233293.208       -4058.958           0.100  
G09  23056678.359     -230395.596       -4137.278           0.104  
> 2023 05 18 00 01 15.8688020  0  7                     
G02  24434744.092       16540.499         251.039           0.092  
G03  22315193.396     -187542.913       -3137.520           0.113  
G04  23818345.426     -286578.989       -4837.213           0.097  
G05  22548309.283      -39276.613        -684.714           0.109  
G06  20666855.627     -179791.028       -3085.527           0.128  
G07  23580033.690     -233699.078       -4060.178           0.099  
G09  23056788.287     -230809.247       -4133.721           0.102  
> 2023 05 18 00 01 15.9688020  0  7                     
G02  24434740.521       16565.676         256.058           0.091  
G03  22315273.151     -187856.087       -3132.508           0.113  
G04  23818468.999     -287062.407       -4833.249           0.097  
G05  22548324.349      -39344.484        -676.715           0.110  
G06  20666931.554     -180099.148       -3079.548           0.126  
G07  23580133.366     -234104.527       -4053.391           0.100  
G09  23056887.055     -231222.499       -4128.890           0.102  
> 2023 05 18 00 01 16.0688020  0  7                     
G02  24434735.465       16591.298         252.946           0.092  
G03  22315355.221     -188168.747       -3126.409           0.115  
G04  23818593.408     -287545.372       -4829.016           0.098  
G05  22548343.854      -39411.879        -672.455           0.111  
G06  20667012.761     -180406.793       -3074.837           0.127  
G07  23580237.742     -234509.520       -4048.636           0.101  
G09  23056989.629     -231635.327       -4126.553           0.103  
> 2023 05 18 00 01 16.1688020  0  7                     
G02  24434728.024       16616.903         247.584           0.092  
G03  22315434.364     -188481.482       -3136.440           0.116  
G04  23818720.061     -288028.343       -4836.412           0.099  
G05  22548358.962      -39479.378        -682.784           0.111  
G06  20667086.111     -180714.464       -3082.957           0.128  
G07  23580339.550     -234914.560       -4057.073           0.099  
G09  23057093.917     -232048.191       -4136.720           0.106  
> 2023 05 18 00 01 16.2688020  0  7                     
G02  24434723.233       16642.005         252.545           0.092  
G03  22315513.874     -188794.685       -3129.456           0.116  
G04  23818841.259     -288511.825       -4828.292           0.097  
G05  22548378.876      -39547.307        -675.840           0.113  
G06  20667165.568     -181022.655       -3078.091           0.128  
G07  23580445.108     -235320.113       -4054.771           0.100  
G09  23057202.422     -232461.510       -4130.042           0.105  
> 2023 05 18 00 01 16.3688020  0  7                     
G02  24434715.115       16667.667         256.594           0.092  
G03  22315596.504     -189107.344       -3125.849           0.116  
G04  23818965.566     -288994.781       -4828.396           0.098  
G05  22548396.544      -39614.723        -668.869           0.113  
G06  20667243.449     -181330.292       -3074.851           0.128  
G07  23580551.802     -235725.072       -4047.798           0.101  
G09  23057302.449     -232874.265       -4123.488           0.105  
> 2023 05 18 00 01 16.4688020  0  7                     
G02  24434706.520       16693.532         258.837           0.092  
G03  22315674.060     -189419.816       -3122.379           0.114  
G04  23819088.291     -289477.498       -4825.991           0.099  
G05  22548410.038      -39681.925        -670.106           0.110  
G06  20667325.220     -181637.732       -3074.767           0.129  
G07  23580644.456     -236129.869       -4047.692           0.101  
G09  23057406.575     -233286.853       -4124.146           0.104  
> 2023 05 18 00 01 16.5688020  0  7                     
G02  24434701.789       16719.495         257.980           0.092  
G03  22315752.153     -189732.239       -3123.127           0.115  
G04  23819209.648     -289960.141       -4826.766           0.098  
G05  22548424.947      -39749.056        -670.718           0.110  
G06  20667402.635     -181945.096       -3075.573           0.127  
G07  23580752.691     -236534.557       -4045.732           0.101  
G09  23057511.641     -233699.332       -4125.435           0.105  
> 2023 05 18 00 01 16.6688020  0  7                     
G02  24434687.271       16745.389         258.330           0.092  
G03  22315833.813     -190044.665       -3125.557           0.114  
G04  23819329.271     -290442.825       -4826.205           0.097  
G05  22548441.268      -39816.207        -670.295           0.112  
G06  20667480.785     -182252.468       -3073.926           0.128  
G07  23580859.083     -236939.276       -4043.045           0.100  
G09  23057615.785     -234111.867       -4124.894           0.105  
> 2023 05 18 00 01 16.7688020  0  7                     
G02  24434687.467       16771.086         253.621           0.092  
G03  22315910.849     -190357.292       -3125.608           0.114  
G04  23819453.788     -290925.714       -4828.693           0.097  
G05  22548459.705      -39883.569        -672.823           0.109  
G06  20667555.944     -182560.071       -3076.808           0.127  
G07  23580956.565     -237344.260       -4050.967           0.101  
G09  23057724.599     -234524.592       -4127.677           0.104  
> 2023 05 18 00 01 16.8688020  0  7                     
G02  24434677.190       16796.991         256.970           0.090  
G03  22315988.433     -190669.348       -3089.658           0.114  
G04  23819579.127     -291408.390       -4825.434           0.096  
G05  22548478.883      -39950.774        -672.675           0.110  
G06  20667636.619     -182867.475       -3072.672           0.127  
G07  23581065.693     -237748.767       -4040.092           0.099  
G09  23057829.604     -234937.499       -4218.329           0.104  
> 2023 05 18 00 01 16.9688020  0  7                     
G02  24434670.973       16822.981         252.581           0.090  
G03  22316070.786     -190981.984       -3082.853           0.114  
G04  23819699.082     -291890.991       -4824.570           0.096  
G05  22548496.878      -40017.809        -671.959           0.112  
G06  20667712.533     -183174.800       -3075.426           0.127  
G07  23581164.133     -238154.477       -4177.633           0.101  
G09  23057929.560     -235349.579       -4128.116           0.103  
> 2023 05 18 00 01 17.0688020  0  7                     
G02  24434666.929       16848.915         255.180           0.092  
G03  22316151.024     -191294.603       -3125.067           0.115  
G04  23819821.872     -292373.760       -4825.160           0.097  
G05  22548512.879      -40085.047        -670.360           0.110  
G06  20667793.308     -183482.266       -3077.316           0.127  
G07  23581265.555     -238558.443       -4045.445           0.099  
G09  23058033.778     -235762.168       -4127.621           0.103  
> 2023 05 18 00 01 17.1688020  0  7                     
G02  24434653.586       16874.502         255.962           0.092  
G03  22316231.664     -191607.366       -3128.180           0.115  
G04  23819946.491     -292856.779       -4828.765           0.097  
G05  22548530.519      -40152.548        -673.134           0.111  
G06  20667871.391     -183789.976       -3078.472           0.128  
G07  23581369.098     -238963.488       -4045.516           0.098  
G09  23058139.680     -236175.018       -4128.645           0.103  
> 2023 05 18 00 01 17.2688020  0  7                     
G02  24434653.368       16900.053         256.693           0.093  
G03  22316311.373     -191920.199       -3125.078           0.115  
G04  23820067.212     -293339.842       -4830.743           0.099  
G05  22548547.162      -40220.108        -673.781           0.114  
G06  20667948.824     -184097.752       -3077.795           0.129  
G07  23581472.436     -239368.609       -4051.452           0.100  
G09  23058248.974     -236587.964       -4130.839           0.104  
> 2023 05 18 00 01 17.3688020  0  7                     
G02  24434649.159       16925.548         253.951           0.094  
G03  22316391.784     -192233.078       -3130.448           0.117  
G04  23820192.338     -293822.920       -4831.232           0.099  
G05  22548563.572      -40287.425        -506.259           0.113  
G06  20668028.192     -184405.570       -3079.102           0.130  
G07  23581579.775     -239773.753       -4050.228           0.103  
G09  23058355.985     -237001.423       -4192.503           0.106  
> 2023 05 18 00 01 17.4688020  0  7                     
G02  24434637.511       16951.146         256.688           0.094  
G03  22316472.525     -192545.864       -3126.007           0.117  
G04  23820313.509     -294305.965       -4830.657           0.100  
G05  22548580.644      -40355.144        -671.502           0.113  
G06  20668105.900     -184713.302       -3075.989           0.130  
G07  23581675.197     -240178.923       -4051.661           0.102  
G09  23058456.936     -237413.724       -4130.237           0.106  
> 2023 05 18 00 01 17.5688020  0  7                     
G02  24434628.997       16976.762         256.004           0.095  
G03  22316545.194     -192858.651       -3127.847           0.117  
G04  23820438.899     -294788.962       -4830.555           0.099  
G05  22548596.348      -40422.647        -670.279           0.113  
G06  20668186.707     -185021.075       -3076.676           0.130  
G07  23581781.845     -240583.961       -4050.402           0.103  
G09  23058564.971     -237826.560       -4129.351           0.106  
> 2023 05 18 00 01 17.6688020  0  7                     
G02  24434623.006       17002.322         253.916           0.095  
G03  22316624.576     -193171.476       -3131.198           0.117  
G04  23820564.478     -295271.978       -4832.356           0.099  
G05  22548615.347      -40490.200        -678.909           0.115  
G06  20668260.726     -185328.822       -3079.461           0.130  
G07  23581886.220     -240989.035       -4052.705           0.101  
G09  23058671.196     -238239.439       -4132.503           0.105  
> 2023 05 18 00 01 17.7688020  0  7                     
G02  24434623.333       17027.504         250.152           0.095  
G03  22316705.261     -193484.694       -3135.641           0.117  
G04  23820685.935     -295755.424       -4839.769           0.099  
G05  22548631.432      -40558.100        -681.251           0.115  
G06  20668340.045     -185636.991       -3083.827           0.130  
G07  23581985.723     -241394.526       -4049.895           0.103  
G09  23058774.401     -238652.705       -4136.513           0.105  
> 2023 05 18 00 01 17.8688020  0  7                     
G02  24434616.679       17052.423         245.930           0.095  
G03  22316784.784     -193798.137       -3135.617           0.117  
G04  23820799.884     -296239.091       -4836.499           0.101  
G05  22548647.115      -40626.282        -678.869           0.112  
G06  20668418.221     -185945.414       -3085.940           0.131  
G07  23582092.372     -241800.311       -4052.643           0.102  
G09  23058882.938     -239066.203       -4134.899           0.107  
> 2023 05 18 00 01 17.9688020  0  7                     
G02  24434603.572       17077.349         246.656           0.095  
G03  22316864.321     -194111.643       -3133.156           0.117  
G04  23820926.381     -296722.798       -4835.755           0.101  
G05  22548667.107      -40694.477        -680.175           0.114  
G06  20668498.820     -186253.867       -3083.440           0.131  
G07  23582195.259     -242206.089       -4056.071           0.103  
G09  23058985.032     -239479.797       -4136.110           0.107  
> 2023 05 18 00 01 18.0688020  0  7                     
G02  24434599.837       17102.720         253.465           0.093  
G03  22316941.456     -194424.727       -3129.927           0.115  
G04  23821049.353     -297206.051       -4831.173           0.099  
G05  22548682.890      -40762.195        -673.783           0.113  
G06  20668574.137     -186561.843       -3078.407           0.130  
G07  23582297.807     -242611.431       -4050.146           0.102  
G09  23059087.997     -239893.141       -4172.127           0.106  
> 2023 05 18 00 01 18.1688020  0  7                     
G02  24434593.951       17128.351         256.163           0.093  
G03  22317021.163     -194737.874       -3175.184           0.115  
G04  23821176.992     -297689.040       -4832.542           0.099  
G05  22548701.535      -40829.488        -609.624           0.113  
G06  20668654.988     -186869.572       -3075.214           0.129  
G07  23582398.337     -243016.544       -4053.330           0.101  
G09  23059195.209     -240306.224       -4162.589           0.107  
> 2023 05 18 00 01 18.2688020  0  7                     
G02  24434579.793       17154.071         254.654           0.092  
G03  22317102.255     -195050.174       -3124.312           0.113  
G04  23821301.971     -298171.893       -4826.346           0.097  
G05  22548717.527      -40897.110        -673.221           0.111  
G06  20668732.219     -187177.222       -3076.626           0.127  
G07  23582506.013     -243421.542       -4050.699           0.100  
G09  23059299.974     -240718.390       -4126.796           0.105  
> 2023 05 18 00 01 18.3688020  0  7                     
G02  24434574.045       17179.761         251.403           0.090  
G03  22317182.735     -195362.878       -3125.049           0.113  
G04  23821419.992     -298654.772       -4826.824           0.097  
G05  22548732.331      -40964.483        -674.400           0.112  
G06  20668809.132     -187484.851       -3078.350           0.127  
G07  23582608.501     -243826.486       -4053.541           0.100  
G09  23059400.261     -241131.080       -4125.299           0.104  
> 2023 05 18 00 01 18.4688020  0  7                     
G02  24434570.421       17205.496         253.316           0.091  
G03  22317266.567     -195675.582       -3127.181           0.113  
G04  23821545.982     -299137.635       -4827.603           0.097  
G05  22548751.744      -41031.863        -670.975           0.109  
G06  20668886.025     -187792.489       -3078.169           0.127  
G07  23582708.264     -244231.441       -4050.770           0.100  
G09  23059508.249     -241543.817       -4124.813           0.102  
> 2023 05 18 00 01 18.5688020  0  7                     
G02  24434564.681       17230.987         251.797           0.090  
G03  22317346.074     -195988.529       -3126.828           0.112  
G04  23821662.196     -299620.827       -4830.911           0.097  
G05  22548765.883      -41099.493        -674.657           0.112  
G06  20668964.087     -188100.391       -3080.719           0.126  
G07  23582811.975     -244636.694       -4052.186           0.098  
G09  23059618.623     -241956.817       -4127.577           0.102  
> 2023 05 18 00 01 18.6688020  0  7                     
G02  24434564.457       17256.648         259.036           0.091  
G03  22317422.164     -196301.340       -3127.818           0.113  
G04  23821787.994     -300103.793       -4827.716           0.097  
G05  22548782.002      -41166.978        -674.969           0.110  
G06  20669042.948     -188408.119       -3078.067           0.126  
G07  23582912.138     -245041.676       -4047.815           0.098  
G09  23059724.670     -242369.636       -4129.734           0.102  
> 2023 05 18 00 01 18.7688020  0  7                     
G02  24434553.262       17282.353         254.988           0.091  
G03  22317504.916     -196614.089       -3128.476           0.113  
G04  23821913.311     -300586.672       -4828.742           0.096  
G05  22548800.421      -41234.413        -677.120           0.110  
G06  20669122.410     -188715.777       -3075.216           0.126  
G07  23583017.523     -245446.690       -4052.507           0.098  
G09  23059824.862     -242782.367       -4129.091           0.103  
> 2023 05 18 00 01 18.8688020  0  7                     
G02  24434547.441       17308.040         258.191           0.091  
G03  22317583.163     -196926.845       -3130.052           0.113  
G04  23822034.966     -301069.638       -4829.068           0.096  
G05  22548818.686      -41301.822        -674.914           0.110  
G06  20669203.693     -189023.496       -3077.086           0.127  
G07  23583118.649     -245851.769       -4053.583           0.099  
G09  23059929.217     -243195.153       -4126.876           0.102  
> 2023 05 18 00 01 18.9688020  0  7                     
G02  24434542.933       17333.776         257.035           0.091  
G03  22317660.473     -197239.573       -3129.385           0.114  
G04  23822156.607     -301552.537       -4826.187           0.096  
G05  22548834.980      -41369.255        -674.628           0.110  
G06  20669278.564     -189331.165       -3076.716           0.126  
G07  23583228.331     -246256.781       -4052.165           0.099  
G09  23060034.705     -243607.902       -4128.670           0.101  
> 2023 05 18 00 01 19.0688020  0  7                     
G02  24434529.617       17359.444         253.563           0.091  
G03  22317738.917     -197552.327       -3128.217           0.113  
G04  23822284.085     -302035.466       -4829.157           0.095  
G05  22548849.828      -41436.701        -675.254           0.112  
G06  20669358.119     -189638.863       -3078.302           0.127  
G07  23583329.596     -246661.781       -4052.437           0.099  
G09  23060139.806     -244020.660       -4128.111           0.102  
> 2023 05 18 00 01 19.1688020  0  7                     
G02  24434518.342       17385.013         254.718           0.090  
G03  22317819.323     -197865.202       -3127.616           0.113  
G04  23822402.184     -302518.476       -4828.263           0.096  
G05  22548871.049      -41504.280        -677.363           0.110  
G06  20669433.993     -189946.661       -3076.329           0.126  
G07  23583430.884     -247066.926       -4048.983           0.098  
G09  23060244.020     -244433.504       -4126.416           0.102  
> 2023 05 18 00 01 19.2688020  0  7                     
G02  24434512.731       17409.886         234.875           0.086  
G03  22317898.706     -198178.846       -3154.389           0.112  
G04  23822522.710     -303002.262       -4853.423           0.091  
G05  22548886.539      -41572.510        -700.446           0.105  
G06  20669512.505     -190255.223       -3100.972           0.124  
G07  23583533.830     -247472.776       -4071.787           0.094  
G09  23060354.725     -244847.140       -4152.339           0.099  
> 2023 05 18 00 01 19.3688020  0  7                     
G02  24434505.507       17432.772         225.491           0.091  
G03  22317980.081     -198494.420       -3160.655           0.112  
G04  23822650.183     -303487.998       -4861.976           0.095  
G05  22548908.009      -41642.763        -707.269           0.110  
G06  20669587.411     -190565.717       -3110.251           0.123  
G07  23583636.360     -247880.611       -4078.965           0.098  
G09  23060454.925     -245262.707       -4159.888           0.101  
> 2023 05 18 00 01 19.4688020  0  7                     
G02  24434504.282       17456.364         246.418           0.089  
G03  22318056.980     -198809.304       -3136.694           0.112  
G04  23822773.817     -303973.035       -4842.951           0.094  
G05  22548926.566      -41712.326        -685.952           0.108  
G06  20669672.048     -190875.556       -3086.807           0.126  
G07  23583742.585     -248287.775       -4061.863           0.097  
G09  23060560.699     -245677.586       -4140.047           0.100  
> 2023 05 18 00 01 19.5688020  0  7                     
G02  24434497.757       17481.660         258.966           0.091  
G03  22318136.975     -199122.469       -3129.374           0.112  
G04  23822896.298     -304456.408       -4835.620           0.097  
G05  22548939.665      -41780.188        -677.787           0.112  
G06  20669750.103     -191183.673       -3078.308           0.125  
G07  23583846.690     -248693.228       -4051.262           0.100  
G09  23060662.431     -246090.766       -4128.695           0.100  
> 2023 05 18 00 01 19.6688020  0  7                     
G02  24434491.854       17507.408         255.794           0.093  
G03  22318215.394     -199436.218       -3281.018           0.114  
G04  23823018.990     -304939.223       -4829.366           0.098  
G05  22548955.839      -41847.514        -675.932           0.111  
G06  20669828.462     -191491.287       -3077.873           0.128  
G07  23583945.942     -249098.167       -4049.537           0.100  
G09  23060768.684     -246502.849       -4060.255           0.105  
> 2023 05 18 00 01 19.7688020  0  7                     
G02  24434485.734       17533.288         255.157           0.093  
G03  22318296.190     -199747.789       -3124.882           0.114  
G04  23823143.006     -305421.942       -4828.223           0.099  
G05  22548971.716      -41914.779        -672.732           0.112  
G06  20669907.707     -191798.810       -3074.639           0.129  
G07  23584052.171     -249503.026       -4045.950           0.101  
G09  23060880.060     -246916.026       -4126.286           0.105  
> 2023 05 18 00 01 19.8688020  0  7                     
G02  24434478.704       17559.116         250.431           0.093  
G03  22318377.095     -200060.442       -3126.510           0.116  
G04  23823264.453     -305904.739       -4827.657           0.100  
G05  22548989.426      -41982.146        -673.407           0.114  
G06  20669983.278     -192106.410       -3077.888           0.129  
G07  23584149.109     -249907.924       -4050.323           0.102  
G09  23060983.270     -247328.689       -4128.683           0.105  
> 2023 05 18 00 01 19.9688020  0  7                     
G02  24434469.735       17584.897         257.664           0.094  
G03  22318451.596     -200373.209       -3128.814           0.116  
G04  23823389.855     -306387.645       -4828.945           0.099  
G05  22549006.869      -42049.490        -673.920           0.115  
G06  20670063.075     -192414.091       -3079.492           0.129  
G07  23584253.066     -250312.959       -4052.864           0.103  
G09  23061091.386     -247741.415       -4130.031           0.107  
> 2023 05 18 00 01 20.0688020  0  7                     
G02  24434462.609       17610.556         255.191           0.095  
G03  22318530.892     -200686.059       -3130.560           0.116  
G04  23823509.801     -306870.631       -4831.341           0.100  
G05  22549021.453      -42117.029        -673.646           0.113  
G06  20670142.027     -192721.862       -3078.808           0.130  
G07  23584358.251     -250717.375       -4004.178           0.104  
G09  23061198.146     -248153.773       -4017.553           0.107  
> 2023 05 18 00 01 20.1688020  0  7                     
G02  24434459.348       17636.293         261.751           0.093  
G03  22318610.219     -200998.850       -3126.480           0.116  
G04  23823630.325     -307353.563       -4828.720           0.099  
G05  22549040.056      -42184.464        -673.182           0.116  
G06  20670219.744     -193029.584       -3077.572           0.130  
G07  23584460.325     -251123.093       -4049.094           0.102  
G09  23061305.586     -248566.983       -4127.186           0.107  
> 2023 05 18 00 01 20.2688020  0  7                     
G02  24434449.068       17662.096         259.489           0.094  
G03  22318691.934     -201311.503       -3127.358           0.117  
G04  23823758.137     -307836.320       -4826.231           0.100  
G05  22549058.388      -42251.761        -673.300           0.115  
G06  20670296.640     -193337.155       -3076.435           0.130  
G07  23584569.098     -251527.981       -4050.987           0.103  
G09  23061407.594     -248979.591       -4125.754           0.107  
> 2023 05 18 00 01 20.3688020  0  7                     
G02  24434446.531       17687.946         260.935           0.095  
G03  22318769.301     -201624.211       -3128.327           0.117  
G04  23823882.931     -308319.157       -4827.160           0.098  
G05  22549074.542      -42319.093        -672.449           0.113  
G06  20670376.380     -193644.758       -3076.731           0.130  
G07  23584667.912     -251932.933       -4052.773           0.102  
G09  23061508.002     -249392.257       -4129.080           0.107  
> 2023 05 18 00 01 20.4688020  0  7                     
G02  24434436.105       17713.708         255.297           0.093  
G03  22318856.876     -201936.924       -3126.576           0.117  
G04  23824002.988     -308802.003       -4830.548           0.098  
G05  22549091.910      -42386.486        -675.155           0.112  
G06  20670452.915     -193952.390       -3075.113           0.129  
G07  23584774.426     -252337.946       -4052.354           0.102  
G09  23061612.071     -249804.936       -4126.267           0.105  
> 2023 05 18 00 01 20.5688020  0  7                     
G02  24434431.894       17739.479         256.546           0.093  
G03  22318933.466     -202249.684       -3128.219           0.115  
G04  23824123.298     -309284.863       -4829.534           0.098  
G05  22549110.908      -42453.863        -670.040           0.110  
G06  20670532.335     -194260.073       -3073.896           0.129  
G07  23584878.069     -252742.627       -3961.494           0.100  
G09  23061713.170     -250217.459       -4044.427           0.105  
> 2023 05 18 00 01 20.6688020  0  7                     
G02  24434421.522       17765.242         258.493           0.092  
G03  22319015.079     -202562.439       -3126.372           0.114  
G04  23824246.961     -309767.751       -4831.882           0.097  
G05  22549127.319      -42521.268        -672.424           0.111  
G06  20670609.660     -194567.744       -3074.183           0.128  
G07  23584978.068     -253147.921       -4053.158           0.101  
G09  23061815.102     -250630.358       -4125.966           0.106  
> 2023 05 18 00 01 20.7688020  0  7                     
G02  24434412.151       17791.028         261.364           0.091  
G03  22319094.352     -202875.184       -3129.354           0.114  
G04  23824368.858     -310250.576       -4828.662           0.095  
G05  22549143.587      -42588.652        -671.622           0.110  
G06  20670690.373     -194875.417       -3075.562           0.127  
G07  23585078.903     -253552.884       -4047.441           0.099  
G09  23061924.540     -251043.019       -4125.825           0.104  
> 2023 05 18 00 01 20.8688020  0  7                     
G02  24434410.564       17816.778         253.201           0.092  
G03  22319173.149     -203187.949       -3131.000           0.113  
G04  23824490.941     -310733.404       -4829.206           0.096  
G05  22549158.752      -42656.078        -675.755           0.111  
G06  20670764.167     -195183.123       -3078.034           0.127  
G07  23585181.898     -253957.906       -4050.768           0.099  
G09  23062034.866     -251455.764       -4129.770           0.104  
> 2023 05 18 00 01 20.9688020  0  7                     
G02  24434402.900       17842.535         256.207           0.090  
G03  22319250.957     -203500.775       -3127.967           0.111  
G04  23824616.315     -311216.337       -4831.036           0.096  
G05  22549175.786      -42723.525        -676.424           0.111  
G06  20670844.293     -195490.825       -3075.654           0.126  
G07  23585286.339     -254362.936       -4044.308           0.098  
G09  23062134.072     -251868.524       -4127.965           0.101  
> 2023 05 18 00 01 21.0688020  0  7                     
G02  24434396.523       17867.837         246.346           0.091  
G03  22319326.421     -203813.968       -3136.557           0.111  
G04  23824740.458     -311699.617       -4835.197           0.096  
G05  22549192.396      -42791.346        -682.532           0.110  
G06  20670923.727     -195798.958       -3085.460           0.125  
G07  23585394.276     -254768.414       -4057.615           0.098  
G09  23062238.285     -252281.668       -4136.221           0.100  
> 2023 05 18 00 01 21.1688020  0  7                     
G02  24434384.798       17892.831         254.579           0.091  
G03  22319405.204     -204127.534       -3132.931           0.111  
G04  23824861.528     -312183.333       -4838.470           0.096  
G05  22549211.580      -42859.539        -679.925           0.111  
G06  20671000.944     -196107.447       -3083.638           0.126  
G07  23585486.550     -255174.190       -4054.115           0.099  
G09  23062350.751     -252695.158       -4132.912           0.100  
> 2023 05 18 00 01 21.2688020  0  7                     
G02  24434383.446       17917.984         251.749           0.091  
G03  22319482.339     -204439.791       -2986.152           0.112  
G04  23824981.646     -312666.860       -4838.667           0.096  
G05  22549227.637      -42927.633        -684.263           0.108  
G06  20671080.183     -196415.789       -3085.697           0.127  
G07  23585595.520     -255579.881       -4062.828           0.099  
G09  23062454.412     -253108.314       -4076.843           0.101  
> 2023 05 18 00 01 21.3688020  0  7                     
G02  24434374.100       17942.767         248.857           0.091  
G03  22319569.145     -204754.779       -3140.014           0.112  
G04  23825103.952     -313150.733       -4844.809           0.097  
G05  22549244.882      -42996.032        -687.748           0.112  
G06  20671158.262     -196724.504       -3090.853           0.127  
G07  23585699.944     -255985.877       -4062.652           0.099  
G09  23062559.111     -253522.214       -4137.944           0.104  
> 2023 05 18 00 01 21.4688020  0  7                     
G02  24434366.364       17967.273         244.666           0.090  
G03  22319652.657     -205068.807       -3143.392           0.113  
G04  23825231.508     -313634.818       -4848.274           0.095  
G05  22549265.561      -43064.689        -688.832           0.108  
G06  20671235.762     -197033.439       -3093.088           0.126  
G07  23585803.097     -256392.127       -4064.644           0.100  
G09  23062657.475     -253936.179       -4144.562           0.103  
> 2023 05 18 00 01 21.5688020  0  7                     
G02  24434362.928       17990.817         236.194           0.092  
G03  22319737.684     -205383.831       -3151.481           0.113  
G04  23825356.381     -314119.925       -4854.423           0.095  
G05  22549279.303      -43134.322        -697.910           0.109  
G06  20671312.772     -197343.358       -3102.120           0.126  
G07  23585904.504     -256799.342       -4071.902           0.099  
G09  23062754.576     -254351.089       -4148.184           0.103  
> 2023 05 18 00 01 21.6688020  0  7                     
G02  24434358.565       18013.894         228.275           0.090  
G03  22319819.507     -205699.341       -3157.644           0.114  
G04  23825478.792     -314605.494       -4863.499           0.095  
G05  22549297.111      -43204.460        -702.965           0.109  
G06  20671392.809     -197653.743       -3106.415           0.127  
G07  23586009.678     -257207.064       -4077.341           0.100  
G09  23062853.981     -254766.493       -4155.227           0.104  
> 2023 05 18 00 01 21.7688020  0  7                     
G02  24434354.217       18037.926         246.105           0.092  
G03  22319897.132     -206013.904       -3138.657           0.114  
G04  23825603.050     -315090.072       -4843.130           0.095  
G05  22549312.867      -43273.556        -682.029           0.112  
G06  20671469.977     -197963.183       -3085.935           0.126  
G07  23586112.885     -257613.840       -4060.558           0.099  
G09  23062963.024     -255180.973       -4140.074           0.102  
> 2023 05 18 00 01 21.8688020  0  7                     
G02  24434345.181       18063.236         258.842           0.092  
G03  22319973.065     -206327.166       -3129.320           0.115  
G04  23825728.627     -315573.416       -4832.642           0.097  
G05  22549331.682      -43341.476        -673.756           0.110  
G06  20671550.876     -198271.350       -3075.496           0.127  
G07  23586216.202     -258019.332       -4049.026           0.100  
G09  23063074.513     -255594.135       -4130.328           0.104  
> 2023 05 18 00 01 21.9688020  0  7                     
G02  24434335.397       18089.016         256.693           0.096  
G03  22320048.353     -206639.942       -3129.164           0.115  
G04  23825847.626     -316056.274       -4826.355           0.099  
G05  22549350.402      -43408.855        -674.553           0.114  
G06  20671628.346     -198579.043       -3075.771           0.129  
G07  23586319.855     -258424.332       -4047.994           0.102  
G09  23063186.523     -256006.802       -4126.063           0.104  
> 2023 05 18 00 01 22.0688020  0  7                     
G02  24434333.716       18115.019         257.557           0.094  
G03  22320122.794     -206952.505       -3125.039           0.117  
G04  23825966.929     -316538.926       -4826.661           0.099  
G05  22549364.453      -43476.049        -670.614           0.112  
G06  20671709.378     -198886.525       -3075.259           0.129  
G07  23586421.702     -258829.118       -4047.283           0.102  
G09  23063300.393     -256419.290       -4124.578           0.107  
> 2023 05 18 00 01 22.1688020  0  7                     
G02  24434321.470       18141.089         259.870           0.094  
G03  22320203.341     -207265.030       -3123.440           0.118  
G04  23826091.213     -317021.488       -4825.701           0.100  
G05  22549381.641      -43543.162        -670.227           0.115  
G06  20671783.779     -199193.938       -3073.812           0.130  
G07  23586525.713     -259233.862       -4045.768           0.102  
G09  23063407.477     -256831.680       -4121.176           0.110  
> 2023 05 18 00 01 22.2688020  0  7                     
G02  24434316.782       18167.168         259.494           0.095  
G03  22320281.354     -207577.582       -3125.661           0.118  
G04  23826217.424     -317504.096       -4828.236           0.098  
G05  22549398.108      -43610.310        -673.123           0.113  
G06  20671865.298     -199501.408       -3078.311           0.130  
G07  23586625.211     -259638.616       -4049.095           0.102  
G09  23063504.021     -257244.127       -4123.725           0.106  
> 2023 05 18 00 01 22.3688020  0  7                     
G02  24434313.850       18191.897         239.381           0.090  
G03  22320365.879     -207891.457       -3150.906           0.114  
G04  23826341.417     -317988.039       -4851.150           0.097  
G05  22549417.082      -43678.779        -696.463           0.114  
G06  20671942.032     -199810.184       -3099.605           0.126  
G07  23586731.349     -260044.717       -4072.430           0.099  
G09  23063605.729     -257657.924       -4151.923           0.106  
> 2023 05 18 00 01 22.4688020  0  7                     
G02  24434302.395       18215.345         238.070           0.093  
G03  22320451.848     -208206.544       -3148.313           0.117  
G04  23826461.682     -318473.158       -4848.303           0.099  
G05  22549431.691      -43748.498        -694.253           0.113  
G06  20672022.632     -200120.165       -3097.400           0.130  
G07  23586833.618     -260452.027       -4068.642           0.102  
G09  23063709.335     -258072.905       -4150.692           0.105  
> 2023 05 18 00 01 22.5688020  0  7                     
G02  24434297.844       18239.971         249.468           0.094  
G03  22320529.760     -208519.963       -3013.675           0.117  
G04  23826584.599     -318957.224       -4837.708           0.099  
G05  22549449.301      -43817.067        -680.695           0.111  
G06  20672100.574     -200429.033       -3084.152           0.129  
G07  23586933.515     -260857.925       -3965.347           0.101  
G09  23063816.284     -258486.726       -4135.123           0.104  
> 2023 05 18 00 01 22.6688020  0  7                     
G02  24434287.767       18265.026         255.112           0.093  
G03  22320611.109     -208834.137       -3133.050           0.115  
G04  23826708.279     -319440.855       -4838.167           0.099  
G05  22549469.943      -43885.278        -679.975           0.113  
G06  20672179.880     -200737.536       -3081.358           0.130  
G07  23587037.167     -261263.982       -4052.419           0.102  
G09  23063922.408     -258900.185       -4133.097           0.104  
> 2023 05 18 00 01 22.7688020  0  7                     
G02  24434279.135       18290.528         257.510           0.093  
G03  22320687.390     -209147.201       -3126.898           0.116  
G04  23826831.125     -319923.964       -4829.602           0.097  
G05  22549484.140      -43952.969        -671.823           0.112  
G06  20672256.319     -201045.513       -3076.123           0.129  
G07  23587145.020     -261669.319       -4053.239           0.100  
G09  23064022.802     -259313.118       -4126.560           0.104  
> 2023 05 18 00 01 22.8688020  0  7                     
G02  24434273.458       18316.104         255.561           0.092  
G03  22320768.945     -209460.238       -3130.629           0.115  
G04  23826953.659     -320407.040       -4832.802           0.097  
G05  22549503.190      -44020.597        -676.783           0.111  
G06  20672333.892     -201353.458       -3081.087           0.128  
G07  23587247.298     -262074.541       -4057.258           0.100  
G09  23064127.847     -259726.048       -4130.520           0.105  
> 2023 05 18 00 01 22.9688020  0  7                     
G02  24434273.734       18341.380         250.836           0.091  
G03  22320848.542     -209773.611       -3133.630           0.114  
G04  23827075.786     -320890.416       -4831.809           0.096  
G05  22549518.027      -44088.512        -680.240           0.109  
G06  20672412.305     -201661.708       -3082.595           0.127  
G07  23587349.166     -262480.092       -4056.426           0.100  
G09  23064229.606     -260139.283       -4132.631           0.105  
> 2023 05 18 00 01 23.0688020  0  7                     
G02  24434265.413       18366.938         262.226           0.091  
G03  22320926.222     -210086.710       -3128.321           0.113  
G04  23827200.019     -321373.518       -4830.790           0.096  
G05  22549536.222      -44156.230        -674.473           0.111  
G06  20672492.060     -201969.703       -3079.178           0.127  
G07  23587455.175     -262885.397       -4048.598           0.100  
G09  23064333.961     -260552.202       -4124.725           0.105  
> 2023 05 18 00 01 23.1688020  0  7                     
G02  24434260.366       18392.884         261.706           0.092  
G03  22321001.180     -210399.378       -3125.065           0.113  
G04  23827321.801     -321856.193       -4827.133           0.096  
G05  22549555.111      -44223.464        -670.359           0.111  
G06  20672569.203     -202277.240       -3075.742           0.126  
G07  23587554.682     -263290.241       -4046.191           0.098  
G09  23064447.191     -260964.760       -4123.808           0.105  
> 2023 05 18 00 01 23.2688020  0  7                     
G02  24434248.645       18418.884         265.780           0.091  
G03  22321077.715     -210712.049       -3125.047           0.111  
G04  23827443.949     -322338.909       -4827.733           0.096  
G05  22549571.636      -44290.695        -670.896           0.110  
G06  20672644.620     -202584.797       -3076.001           0.127  
G07  23587657.469     -263695.100       -4051.044           0.100  
G09  23064557.784     -261377.259       -4123.339           0.102  
> 2023 05 18 00 01 23.3688020  0  7                     
G02  24434245.491       18444.101         238.165           0.090  
G03  22321156.470     -211025.451       -3146.743           0.111  
G04  23827567.172     -322822.322       -4845.365           0.094  
G05  22549583.741      -44358.690        -693.462           0.107  
G06  20672726.111     -202893.049       -3092.247           0.126  
G07  23587766.221     -264100.026       -4092.133           0.097  
G09  23064664.535     -261790.475       -4141.615           0.100  
> 2023 05 18 00 01 23.4688020  0  7                     
G02  24434234.608       18467.876         240.497           0.091  
G03  22321242.576     -211340.317       -3147.386           0.114  
G04  23827691.233     -323307.144       -4843.150           0.097  
G05  22549602.149      -44428.110        -691.087           0.111  
G06  20672803.640     -203202.812       -3092.914           0.125  
G07  23587867.791     -264507.746       -4067.260           0.098  
G09  23064763.767     -262205.163       -4140.398           0.104  
> 2023 05 18 00 01 23.5688020  0  7                     
G02  24434231.306       18491.758         237.604           0.091  
G03  22321330.508     -211655.099       -3152.193           0.114  
G04  23827814.938     -323791.915       -4847.013           0.096  
G05  22549623.372      -44497.511        -695.528           0.111  
G06  20672883.653     -203512.495       -3098.426           0.127  
G07  23587965.558     -264914.748       -4074.077           0.099  
G09  23064861.379     -262619.813       -4148.311           0.104  
> 2023 05 18 00 01 23.6688020  0  7                     
G02  24434225.137       18516.102         255.260           0.091  
G03  22321407.764     -211969.397       -3131.968           0.113  
G04  23827937.657     -324276.295       -4830.855           0.094  
G05  22549641.978      -44566.369        -675.857           0.108  
G06  20672962.311     -203821.703       -3082.556           0.126  
G07  23588074.014     -265321.235       -4053.308           0.096  
G09  23064966.942     -263033.995       -4130.840           0.103  
> 2023 05 18 00 01 23.7688020  0  7                     
G02  24434216.366       18541.589         258.637           0.090  
G03  22321488.662     -212283.073       -3264.895           0.113  
G04  23828064.080     -324759.471       -4828.705           0.096  
G05  22549658.069      -44634.081        -672.952           0.111  
G06  20673040.930     -204129.714       -3077.448           0.127  
G07  23588180.650     -265727.283       -3979.351           0.098  
G09  23065077.922     -263446.969       -4128.852           0.104  
> 2023 05 18 00 01 23.8688020  0  7                     
G02  24434208.098       18567.213         249.852           0.089  
G03  22321558.362     -212595.603       -3132.435           0.114  
G04  23828184.083     -325242.498       -4832.869           0.096  
G05  22549674.714      -44701.720        -677.618           0.108  
G06  20673117.749     -204437.655       -3082.373           0.127  
G07  23588278.622     -266131.797       -4054.675           0.100  
G09  23065191.294     -263859.834       -4130.021           0.103  
> 2023 05 18 00 01 23.9688020  0  7                     
G02  24434201.633       18591.680         236.205           0.090  
G03  22321638.938     -212909.800       -3148.927           0.114  
G04  23828306.122     -325726.668       -4847.178           0.098  
G05  22549690.516      -44770.437        -691.995           0.110  
G06  20673196.964     -204746.722       -3097.797           0.126  
G07  23588384.035     -266538.190       -4073.277           0.098  
G09  23065296.400     -264273.864       -4146.587           0.103  
> 2023 05 18 00 01 24.0688020  0  7                     
G02  24434195.535       18615.903         248.652           0.093  
G03  22321721.240     -213224.302       -3140.622           0.114  
G04  23828430.524     -326211.130       -4837.937           0.098  
G05  22549709.810      -44839.506        -686.557           0.111  
G06  20673275.435     -205056.097       -3089.646           0.128  
G07  23588486.544     -266944.848       -4062.262           0.100  
G09  23065398.216     -264688.138       -4135.021           0.105  
> 2023 05 18 00 01 24.1688020  0  7                     
G02  24434192.231       18640.914         251.192           0.092  
G03  22321804.979     -213537.910       -3131.508           0.115  
G04  23828552.888     -326694.773       -4829.407           0.098  
G05  22549724.871      -44907.706        -676.953           0.112  
G06  20673353.120     -205364.596       -3082.799           0.128  
G07  23588590.837     -267350.659       -4053.927           0.101  
G09  23065490.228     -265101.610       -4131.554           0.104  
> 2023 05 18 00 01 24.2688020  0  7                     
G02  24434183.198       18666.444         252.241           0.092  
G03  22321884.023     -213851.084       -3135.302           0.116  
G04  23828676.148     -327177.908       -4835.404           0.098  
G05  22549741.825      -44975.446        -679.453           0.113  
G06  20673431.208     -205672.628       -3081.471           0.129  
G07  23588697.635     -267756.044       -4059.432           0.101  
G09  23065596.630     -265514.570       -4133.774           0.104  
> 2023 05 18 00 01 24.3688020  0  7                     
G02  24434176.982       18692.039         257.425           0.093  
G03  22321960.176     -214164.167       -3129.814           0.116  
G04  23828795.316     -327660.936       -4828.336           0.098  
G05  22549759.318      -45043.037        -672.277           0.113  
G06  20673508.227     -205980.580       -3075.544           0.130  
G07  23588797.744     -268161.274       -4052.233           0.102  
G09  23065714.198     -265927.474       -4125.318           0.106  
> 2023 05 18 00 01 24.4688020  0  7                     
G02  24434175.073       18718.220         263.329           0.094  
G03  22322037.421     -214476.686       -3123.092           0.119  
G04  23828917.091     -328143.449       -4823.024           0.099  
G05  22549778.161      -45110.141        -669.076           0.114  
G06  20673588.695     -206287.982       -3068.877           0.130  
G07  23588897.700     -268566.787       -4184.273           0.102  
G09  23065823.810     -266339.715       -4164.609           0.108  
> 2023 05 18 00 01 24.5688020  0  7                     
G02  24434163.962       18744.579         262.456           0.094  
G03  22322118.112     -214789.057       -3124.261           0.119  
G04  23829041.756     -328625.793       -4823.978           0.099  
G05  22549793.424      -45177.070        -670.736           0.113  
G06  20673665.912     -206595.241       -3071.538           0.129  
G07  23589001.011     -268970.521       -4045.593           0.103  
G09  23065924.306     -266751.998       -4122.212           0.109  
> 2023 05 18 00 01 24.6688020  0  7                     
G02  24434162.851       18770.968         264.974           0.095  
G03  22322200.610     -215101.351       -3125.749           0.117  
G04  23829163.936     -329108.058       -4823.072           0.099  
G05  22549812.392      -45243.949        -671.761           0.115  
G06  20673744.382     -206902.421       -3072.136           0.130  
G07  23589102.199     -269374.979       -4044.917           0.102  
G09  23066030.372     -267164.094       -4123.031           0.106  
> 2023 05 18 00 01 24.7688020  0  7                     
G02  24434155.525       18797.210         262.412           0.094  
G03  22322279.699     -215413.808       -3127.879           0.115  
G04  23829291.635     -329590.446       -4823.464           0.097  
G05  22549827.921      -45310.919        -671.748           0.114  
G06  20673821.321     -207209.752       -3077.147           0.129  
G07  23589210.435     -269779.615       -4049.977           0.103  
G09  23066122.786     -267576.325       -4124.771           0.105  
> 2023 05 18 00 01 24.8688020  0  7                     
G02  24434144.908       18822.527         248.927           0.093  
G03  22322358.699     -215727.247       -3141.416           0.114  
G04  23829412.660     -330073.832       -4837.801           0.097  
G05  22549842.365      -45378.886        -685.315           0.112  
G06  20673902.986     -207518.025       -3088.109           0.127  
G07  23589311.052     -270185.175       -4060.022           0.100  
G09  23066230.513     -267989.507       -4134.946           0.104  
> 2023 05 18 00 01 24.9688020  0  7                     
G02  24434137.499       18847.773         253.821           0.092  
G03  22322436.017     -216040.697       -3132.587           0.116  
G04  23829537.886     -330557.262       -4831.768           0.096  
G05  22549859.037      -45446.893        -676.492           0.112  
G06  20673979.528     -207826.341       -3079.770           0.128  
G07  23589409.409     -270591.819       -4178.703           0.100  
G09  23066342.754     -268403.949       -4197.946           0.105  
> 2023 05 18 00 01 25.0688020  0  7                     
G02  24434135.274       18872.975         242.298           0.090  
G03  22322518.771     -216354.210       -3144.351           0.116  
G04  23829664.537     -331040.715       -4841.697           0.095  
G05  22549875.723      -45514.934        -688.202           0.111  
G06  20674059.210     -208134.728       -3094.224           0.127  
G07  23589514.442     -270996.515       -4068.748           0.099  
G09  23066451.427     -268816.077       -4140.078           0.107  
> 2023 05 18 00 01 25.1688020  0  7                     
G02  24434122.075       18898.093         253.783           0.090  
G03  22322597.358     -216667.842       -3136.708           0.115  
G04  23829788.895     -331524.328       -4835.781           0.095  
G05  22549893.735      -45583.129        -681.543           0.111  
G06  20674133.205     -208443.239       -3083.795           0.127  
G07  23589622.141     -271402.277       -4058.878           0.098  
G09  23066546.354     -269229.492       -4130.686           0.104  
> 2023 05 18 00 01 25.2688020  0  7                     
G02  24434123.192       18923.309         253.247           0.091  
G03  22322678.993     -216981.323       -3130.426           0.114  
G04  23829911.184     -332007.760       -4832.584           0.095  
G05  22549913.210      -45651.128        -678.022           0.109  
G06  20674215.250     -208751.608       -3082.159           0.127  
G07  23589723.031     -271807.925       -4059.905           0.098  
G09  23066647.948     -269642.717       -4128.444           0.100  
> 2023 05 18 00 01 25.3688020  0  7                     
G02  24434114.669       18948.758         254.457           0.092  
G03  22322756.955     -217294.599       -3131.057           0.114  
G04  23830028.180     -332490.976       -4833.798           0.095  
G05  22549930.981      -45718.987        -680.085           0.110  
G06  20674291.645     -209059.761       -3084.288           0.126  
G07  23589831.930     -272213.397       -4061.331           0.098  
G09  23066755.927     -270055.791       -4134.569           0.101  
> 2023 05 18 00 01 25.4688020  0  7                     
G02  24434109.623       18974.138         257.100           0.090  
G03  22322834.891     -217607.999       -3129.750           0.114  
G04  23830150.147     -332974.292       -4832.033           0.095  
G05  22549948.860      -45786.883        -677.928           0.110  
G06  20674370.379     -209368.017       -3080.345           0.125  
G07  23589934.826     -272618.907       -4052.492           0.099  
G09  23066864.201     -270468.970       -4129.125           0.105  
> 2023 05 18 00 01 25.5688020  0  7                     
G02  24434099.179       19000.106         260.347           0.091  
G03  22322915.154     -217920.743       -3125.567           0.113  
G04  23830271.948     -333456.968       -4826.365           0.097  
G05  22549961.926      -45854.154        -672.279           0.111  
G06  20674449.893     -209675.625       -3075.135           0.125  
G07  23590027.645     -273023.801       -4046.357           0.099  
G09  23066970.349     -270881.486       -4124.539           0.105  
> 2023 05 18 00 01 25.6688020  0  7                     
G02  24434087.017       19026.166         260.894           0.090  
G03  22322993.899     -218233.477       -3128.188           0.112  
G04  23830397.151     -333939.571       -4824.463           0.097  
G05  22549980.545      -45921.346        -670.596           0.111  
G06  20674527.574     -209983.186       -3076.435           0.126  
G07  23590127.927     -273428.643       -4047.613           0.099  
G09  23067072.894     -271293.912       -4120.935           0.102  
> 2023 05 18 00 01 25.7688020  0  7                     
G02  24434085.590       19052.273         262.209           0.091  
G03  22323075.108     -218546.114       -3125.403           0.115  
G04  23830519.141     -334422.156       -4828.025           0.097  
G05  22549994.262      -45988.554        -672.797           0.110  
G06  20674608.151     -210290.695       -3076.293           0.127  
G07  23590234.271     -273832.442       -3954.218           0.099  
G09  23067177.469     -271706.312       -4210.899           0.102  
> 2023 05 18 00 01 25.8688020  0  7                     
G02  24434079.562       19078.327         257.271           0.091  
G03  22323157.476     -218858.800       -3127.373           0.117  
G04  23830644.774     -334904.783       -4826.615           0.097  
G05  22550012.153      -46055.758        -672.616           0.110  
G06  20674683.388     -210598.230       -3075.459           0.128  
G07  23590339.502     -274238.281       -4050.818           0.099  
G09  23067280.230     -272118.814       -4127.312           0.105  
> 2023 05 18 00 01 25.9688020  0  7                     
G02  24434072.029       19104.345         260.761           0.091  
G03  22323235.327     -219171.506       -3127.025           0.117  
G04  23830764.200     -335387.443       -4824.260           0.097  
G05  22550031.067      -46123.039        -673.765           0.113  
G06  20674763.401     -210905.828       -3073.034           0.128  
G07  23590442.873     -274643.187       -4047.708           0.100  
G09  23067387.186     -272531.307       -4126.212           0.106  
> 2023 05 18 00 01 26.0688020  0  7                     
G02  24434061.845       19130.509         260.681           0.093  
G03  22323311.393     -219484.161       -3127.476           0.115  
G04  23830882.895     -335869.974       -4826.251           0.098  
G05  22550044.709      -46190.198        -673.058           0.110  
G06  20674839.802     -211213.313       -3074.855           0.128  
G07  23590543.798     -275047.956       -4048.130           0.099  
G09  23067499.558     -272943.656       -4123.698           0.104  
> 2023 05 18 00 01 26.1688020  0  7                     
G02  24434055.871       19156.392         252.916           0.094  
G03  22323392.332     -219797.069       -3132.938           0.114  
G04  23831011.537     -336352.771       -4832.647           0.097  
G05  22550064.552      -46257.592        -678.096           0.113  
G06  20674918.408     -211521.101       -3081.691           0.128  
G07  23590648.696     -275453.026       -4057.720           0.101  
G09  23067603.341     -273356.274       -4128.283           0.108  
> 2023 05 18 00 01 26.2688020  0  7                     
G02  24434049.277       19181.848         256.323           0.093  
G03  22323474.178     -220110.388       -3133.533           0.117  
G04  23831131.998     -336836.014       -4833.344           0.099  
G05  22550081.052      -46325.457        -680.217           0.113  
G06  20674995.389     -211829.296       -3084.032           0.129  
G07  23590752.217     -275858.470       -4057.466           0.102  
G09  23067699.714     -273769.423       -4131.952           0.107  
> 2023 05 18 00 01 26.3688020  0  7                     
G02  24434046.179       19207.434         259.533           0.093  
G03  22323552.334     -220423.560       -3131.008           0.117  
G04  23831256.189     -337319.107       -4832.173           0.097  
G05  22550099.987      -46393.115        -675.329           0.112  
G06  20675073.505     -212137.311       -3081.543           0.129  
G07  23590853.472     -276263.794       -4054.884           0.101  
G09  23067805.547     -274182.348       -4130.727           0.107  
> 2023 05 18 00 01 26.4688020  0  7                     
G02  24434036.524       19232.189         247.199           0.092  
G03  22323625.312     -220737.602       -3145.041           0.114  
G04  23831377.008     -337803.020       -4844.273           0.098  
G05  22550116.960      -46461.670        -687.283           0.114  
G06  20675148.797     -212446.207       -3093.185           0.128  
G07  23590960.304     -276670.002       -4067.240           0.100  
G09  23067918.253     -274596.109       -4140.006           0.102  
> 2023 05 18 00 01 26.5688020  0  7                     
G02  24434029.543       19256.388         238.641           0.093  
G03  22323708.579     -221052.162       -3148.132           0.116  
G04  23831499.489     -338287.487       -4847.634           0.100  
G05  22550133.287      -46530.744        -693.112           0.111  
G06  20675230.431     -212755.621       -3096.871           0.129  
G07  23591062.417     -277076.657       -4070.314           0.101  
G09  23068018.566     -275010.408       -4145.859           0.107  
> 2023 05 18 00 01 26.6688020  0  7                     
G02  24434027.200       19280.205         235.517           0.093  
G03  22323797.162     -221367.156       -3151.302           0.117  
G04  23831626.153     -338772.418       -4852.232           0.100  
G05  22550154.846      -46600.253        -697.710           0.114  
G06  20675310.366     -213065.476       -3100.132           0.129  
G07  23591164.158     -277483.793       -4073.495           0.102  
G09  23068120.399     -275425.164       -4151.133           0.108  
> 2023 05 18 00 01 26.7688020  0  7                     
G02  24434015.970       19304.164         246.987           0.092  
G03  22323872.505     -221682.003       -3144.321           0.116  
G04  23831747.510     -339257.110       -4842.488           0.098  
G05  22550169.490      -46669.611        -688.465           0.112  
G06  20675390.653     -213375.157       -3091.614           0.129  
G07  23591265.519     -277890.745       -4061.610           0.102  
G09  23068233.876     -275839.666       -4142.367           0.105  
> 2023 05 18 00 01 26.8688020  0  7                     
G02  24434009.401       19329.081         244.167           0.092  
G03  22323951.746     -221995.861       -3141.303           0.115  
G04  23831869.739     -339740.843       -4840.993           0.097  
G05  22550183.458      -46737.948        -687.233           0.110  
G06  20675468.984     -213683.843       -3089.900           0.129  
G07  23591371.827     -278296.774       -4067.500           0.102  
G09  23068338.511     -276253.244       -4139.891           0.107  
> 2023 05 18 00 01 26.9688020  0  7                     
G02  24434005.278       19352.782         230.117           0.092  
G03  22324033.239     -222310.947       -3157.486           0.115  
G04  23831993.995     -340225.809       -4855.036           0.096  
G05  22550200.900      -46807.557        -701.836           0.113  
G06  20675546.365     -213993.808       -3105.245           0.127  
G07  23591473.103     -278704.002       -4081.214           0.099  
G09  23068440.142     -276668.044       -4154.735           0.105  
> 2023 05 18 00 01 27.0688020  0  7                     
G02  24433996.477       19376.933         240.156           0.092  
G03  22324113.344     -222625.665       -3150.076           0.115  
G04  23832118.235     -340710.366       -4843.506           0.097  
G05  22550220.460      -46876.758        -694.527           0.109  
G06  20675627.060     -214303.362       -3096.946           0.128  
G07  23591579.099     -279110.873       -4075.188           0.100  
G09  23068547.930     -277082.470       -4146.689           0.102  
> 2023 05 18 00 01 27.1688020  0  7                     
G02  24433992.996       19401.404         254.271           0.091  
G03  22324193.006     -222940.028       -3138.433           0.113  
G04  23832243.973     -341194.618       -4833.540           0.095  
G05  22550238.824      -46945.573        -682.017           0.110  
G06  20675704.331     -214612.530       -3083.838           0.127  
G07  23591684.738     -279517.336       -4060.234           0.099  
G09  23068652.163     -277496.485       -4131.151           0.102  
> 2023 05 18 00 01 27.2688020  0  7                     
G02  24433990.097       19426.946         256.880           0.091  
G03  22324274.017     -223253.285       -3132.390           0.113  
G04  23832368.842     -341677.753       -4829.611           0.098  
G05  22550257.365      -47013.366        -675.974           0.111  
G06  20675783.174     -214920.649       -3077.727           0.127  
G07  23591787.262     -279922.728       -4054.627           0.100  
G09  23068754.386     -277909.461       -4128.725           0.103  
> 2023 05 18 00 01 27.3688020  0  7                     
G02  24433981.652       19452.610         259.559           0.092  
G03  22324348.322     -223566.387       -3124.452           0.115  
G04  23832488.490     -342160.779       -4826.969           0.097  
G05  22550279.161      -47081.018        -675.591           0.108  
G06  20675860.577     -215228.646       -3077.746           0.127  
G07  23591891.243     -280327.958       -4048.355           0.099  
G09  23068865.846     -278322.322       -4124.860           0.105  
> 2023 05 18 00 01 27.4688020  0  7                     
G02  24433974.662       19479.302         268.808           0.091  
G03  22324427.050     -223878.548       -3115.484           0.114  
G04  23832608.843     -342642.753       -4814.811           0.097  
G05  22550292.802      -47147.620        -665.625           0.114  
G06  20675938.576     -215535.633       -3069.272           0.127  
G07  23591994.214     -280732.193       -4039.642           0.099  
G09  23068966.363     -278734.175       -4117.613           0.103  
> 2023 05 18 00 01 27.5688020  0  7                     
G02  24433963.169       19505.802         266.460           0.091  
G03  22324508.226     -224190.918       -3124.625           0.114  
G04  23832733.341     -343125.025       -4821.320           0.097  
G05  22550306.880      -47214.454        -667.080           0.110  
G06  20676014.871     -215842.817       -3072.380           0.128  
G07  23592097.461     -281136.731       -4047.727           0.100  
G09  23069066.575     -279146.213       -4123.065           0.103  
> 2023 05 18 00 01 27.6688020  0  7                     
G02  24433960.258       19532.028         257.781           0.093  
G03  22324586.312     -224503.477       -3128.692           0.115  
G04  23832854.651     -343607.430       -4823.737           0.097  
G05  22550324.759      -47281.483        -671.782           0.111  
G06  20676095.285     -216150.239       -3077.288           0.128  
G07  23592198.357     -281541.372       -4048.734           0.100  
G09  23069179.877     -279558.439       -4123.813           0.106  
> 2023 05 18 00 01 27.7688020  0  7                     
G02  24433947.767       19558.010         259.214           0.092  
G03  22324665.469     -224816.350       -3126.361           0.114  
G04  23832977.177     -344090.184       -4826.364           0.096  
G05  22550338.780      -47348.874        -673.075           0.113  
G06  20676170.660     -216457.955       -3078.717           0.127  
G07  23592300.217     -281946.381       -4046.268           0.099  
G09  23069283.794     -279970.998       -4123.082           0.105  
> 2023 05 18 00 01 27.8688020  0  7                     
G02  24433940.465       19584.248         267.442           0.091  
G03  22324749.756     -225129.015       -3125.158           0.113  
G04  23833100.052     -344572.671       -4820.022           0.096  
G05  22550358.485      -47416.010        -668.694           0.110  
G06  20676250.635     -216765.424       -3072.472           0.127  
G07  23592405.015     -282351.144       -4040.657           0.099  
G09  23069384.452     -280383.285       -4116.636           0.104  
> 2023 05 18 00 01 27.9688020  0  7                     
G02  24433934.253       19610.506         258.197           0.091  
G03  22324826.957     -225441.600       -3128.062           0.113  
G04  23833221.922     -345055.137       -4826.135           0.096  
G05  22550374.382      -47483.050        -671.808           0.111  
G06  20676326.488     -217072.840       -3075.294           0.127  
G07  23592505.165     -282755.837       -4049.336           0.099  
G09  23069491.052     -280795.576       -4124.085           0.104  
> 2023 05 18 00 01 28.0688020  0  7                     
G02  24433923.145       19635.824         248.657           0.090  
G03  22324904.126     -225755.110       -3136.975           0.113  
G04  23833346.349     -345538.501       -4837.507           0.095  
G05  22550394.259      -47551.063        -683.911           0.112  
G06  20676406.193     -217381.223       -3087.970           0.126  
G07  23592611.109     -283161.453       -4058.907           0.099  
G09  23069595.683     -281208.788       -4136.473           0.103  
> 2023 05 18 00 01 28.1688020  0  7                     
G02  24433921.795       19660.835         251.695           0.089  
G03  22324988.486     -226068.969       -3137.827           0.113  
G04  23833469.647     -346022.207       -4836.252           0.097  
G05  22550406.075      -47619.400        -681.392           0.109  
G06  20676484.763     -217689.944       -3087.239           0.126  
G07  23592715.771     -283567.407       -4055.761           0.100  
G09  23069697.897     -281622.305       -4134.663           0.104  
> 2023 05 18 00 01 28.2688020  0  7                     
G02  24433915.365       19685.368         242.285           0.092  
G03  22325065.112     -226383.287       -3142.858           0.114  
G04  23833595.638     -346506.320       -4838.408           0.095  
G05  22550426.030      -47688.158        -686.264           0.111  
G06  20676565.404     -217999.073       -3089.772           0.126  
G07  23592817.196     -283973.848       -4063.357           0.098  
G09  23069808.382     -282036.295       -4137.978           0.103  
> 2023 05 18 00 01 28.3688020  0  7                     
G02  24433910.482       19710.581         252.849           0.090  
G03  22325145.257     -226696.979       -3137.569           0.114  
G04  23833720.423     -346989.838       -4834.020           0.096  
G05  22550442.005      -47756.333        -681.648           0.111  
G06  20676643.695     -218307.570       -3083.852           0.126  
G07  23592917.705     -284379.628       -4058.996           0.099  
G09  23069912.027     -282449.649       -4131.052           0.103  
> 2023 05 18 00 01 28.4688020  0  7                     
G02  24433904.988       19735.472         243.187           0.090  
G03  22325225.984     -227010.951       -3143.645           0.113  
G04  23833839.309     -347473.657       -4841.862           0.097  
G05  22550460.650      -47824.764        -688.255           0.108  
G06  20676722.447     -218616.391       -3089.671           0.127  
G07  23593024.935     -284785.506       -4089.961           0.099  
G09  23070013.075     -282863.691       -4144.351           0.102  
> 2023 05 18 00 01 28.5688020  0  7                     
G02  24433900.884       19760.724         255.012           0.090  
G03  22325304.587     -227324.566       -3130.333           0.114  
G04  23833964.900     -347957.106       -4831.682           0.096  
G05  22550478.157      -47892.851        -677.963           0.112  
G06  20676800.340     -218924.857       -3078.363           0.126  
G07  23593126.685     -285191.473       -4053.770           0.099  
G09  23070120.809     -283276.537       -4127.208           0.103  
> 2023 05 18 00 01 28.6688020  0  7                     
G02  24433892.376       19786.687         262.480           0.093  
G03  22325383.501     -227637.454       -3123.231           0.115  
G04  23834082.595     -348439.809       -4824.078           0.097  
G05  22550496.938      -47960.231        -670.789           0.112  
G06  20676875.845     -219232.586       -3074.001           0.127  
G07  23593228.549     -285596.463       -4047.308           0.101  
G09  23070230.413     -283689.065       -4120.625           0.104  
> 2023 05 18 00 01 28.7688020  0  7                     
G02  24433890.468       19813.112         264.865           0.092  
G03  22325464.389     -227949.957       -3122.549           0.115  
G04  23834207.890     -348922.148       -4822.510           0.098  
G05  22550514.334      -48027.162        -667.995           0.110  
G06  20676954.006     -219539.914       -3074.058           0.128  
G07  23593329.127     -286001.038       -4044.499           0.100  
G09  23070328.485     -284101.224       -4120.717           0.105  
> 2023 05 18 00 01 28.8688020  0  7                     
G02  24433879.125       19839.736         268.839           0.093  
G03  22325544.812     -228262.232       -3121.880           0.116  
G04  23834330.099     -349404.255       -4821.189           0.098  
G05  22550529.478      -48093.883        -667.133           0.114  
G06  20677033.530     -219847.007       -3070.423           0.128  
G07  23593436.532     -286405.419       -4045.756           0.101  
G09  23070437.799     -284513.149       -4118.243           0.106  
> 2023 05 18 00 01 28.9688020  0  7                     
G02  24433871.774       19866.333         269.255           0.092  
G03  22325623.695     -228574.533       -3122.928           0.115  
G04  23834456.664     -349886.342       -4822.647           0.098  
G05  22550545.688      -48160.950        -687.586           0.112  
G06  20677113.545     -220154.130       -3071.499           0.129  
G07  23593538.632     -286809.763       -4042.472           0.101  
G09  23070540.226     -284925.074       -4121.577           0.105  
> 2023 05 18 00 01 29.0688020  0  7                     
G02  24433862.366       19892.983         269.523           0.091  
G03  22325704.187     -228886.808       -3123.061           0.115  
G04  23834578.101     -350368.398       -4819.734           0.098  
G05  22550561.013      -48227.359        -666.942           0.110  
G06  20677190.774     -220461.212       -3070.746           0.128  
G07  23593636.304     -287214.164       -4042.707           0.101  
G09  23070642.256     -285336.990       -4120.826           0.105  
> 2023 05 18 00 01 29.1688020  0  7                     
G02  24433859.628       19919.317         258.471           0.092  
G03  22325780.467     -229199.347       -3131.804           0.116  
G04  23834703.044     -350850.773       -4827.797           0.098  
G05  22550579.808      -48294.384        -677.618           0.113  
G06  20677269.613     -220768.603       -3079.691           0.128  
G07  23593743.672     -287618.828       -4053.498           0.101  
G09  23070749.682     -285749.163       -4126.877           0.104  
> 2023 05 18 00 01 29.2688020  0  7                     
G02  24433855.701       19944.880         257.881           0.091  
G03  22325862.578     -229512.721       -3132.452           0.114  
G04  23834819.236     -351333.929       -4829.645           0.097  
G05  22550596.637      -48362.193        -678.221           0.111  
G06  20677346.433     -221076.763       -3080.027           0.127  
G07  23593847.572     -288024.270       -4056.798           0.100  
G09  23070853.157     -286162.161       -4129.171           0.104  
> 2023 05 18 00 01 29.3688020  0  7                     
G02  24433842.503       19970.338         250.008           0.091  
G03  22325942.949     -229826.138       -3176.835           0.113  
G04  23834943.789     -351817.196       -4842.058           0.096  
G05  22550612.074      -48429.869        -633.622           0.109  
G06  20677425.713     -221385.063       -3089.447           0.127  
G07  23593948.746     -288431.636       -4273.040           0.099  
G09  23070956.858     -286575.252       -4138.379           0.103  
> 2023 05 18 00 01 29.4688020  0  7                     
G02  24433834.537       19995.074         250.382           0.092  
G03  22326019.691     -230140.375       -3143.845           0.113  
G04  23835066.498     -352301.134       -4840.109           0.096  
G05  22550628.108      -48498.727        -687.547           0.112  
G06  20677502.726     -221694.076       -3091.545           0.126  
G07  23594053.557     -288836.112       -4061.881           0.098  
G09  23071066.179     -286989.058       -4138.883           0.103  
> 2023 05 18 00 01 29.5688020  0  7                     
G02  24433827.669       20020.231         256.369           0.091  
G03  22326100.239     -230454.123       -3133.195           0.114  
G04  23835190.272     -352784.707       -4831.486           0.096  
G05  22550644.713      -48566.941        -678.745           0.110  
G06  20677581.528     -222002.638       -3082.034           0.126  
G07  23594158.055     -289241.949       -4054.544           0.097  
G09  23071168.342     -287402.446       -4128.882           0.104  
> 2023 05 18 00 01 29.6688020  0  7                     
G02  24433822.336       20046.216         262.492           0.092  
G03  22326181.781     -230767.067       -3126.435           0.113  
G04  23835316.773     -353267.450       -4823.382           0.095  
G05  22550663.299      -48634.306        -670.684           0.108  
G06  20677659.134     -222310.393       -3073.947           0.126  
G07  23594263.113     -289646.989       -4049.793           0.099  
G09  23071274.052     -287814.982       -4120.441           0.103  
> 2023 05 18 00 01 29.7688020  0  7                     
G02  24433816.240       20072.566         261.036           0.091  
G03  22326259.794     -231079.810       -3193.596           0.114  
G04  23835437.686     -353749.822       -4828.465           0.095  
G05  22550680.680      -48700.916        -634.600           0.111  
G06  20677737.715     -222617.833       -3077.558           0.127  
G07  23594363.834     -290051.933       -4143.866           0.099  
G09  23071379.606     -288227.215       -4126.653           0.103  
> 2023 05 18 00 01 29.8688020  0  7                     
G02  24433804.916       20098.011         254.254           0.090  
G03  22326342.645     -231393.109       -3133.544           0.113  
G04  23835557.617     -354233.025       -4830.850           0.097  
G05  22550695.652      -48769.229        -678.590           0.112  
G06  20677817.122     -222926.090       -3082.102           0.126  
G07  23594461.592     -290457.173       -4053.912           0.099  
G09  23071487.497     -288640.273       -4133.595           0.103  
> 2023 05 18 00 01 29.9688020  0  7                     
G02  24433800.619       20123.636         259.159           0.092  
G03  22326419.590     -231706.442       -3132.077           0.113  
G04  23835682.947     -354716.126       -4830.059           0.096  
G05  22550713.325      -48837.015        -678.047           0.110  
G06  20677895.510     -223234.248       -3081.652           0.127  
G07  23594569.119     -290862.609       -4056.506           0.098  
G09  23071592.059     -289053.205       -4130.269           0.105  
> 2023 05 18 00 01 30.0688020  0  7                     
G02  24433799.134       20149.276         253.310           0.089  
G03  22326497.202     -232019.780       -3134.369           0.115  
G04  23835805.367     -355199.210       -4826.388           0.096  
G05  22550732.253      -48904.771        -678.431           0.110  
G06  20677974.431     -223542.380       -3081.571           0.127  
G07  23594669.330     -291267.975       -4054.291           0.099  
G09  23071694.768     -289466.140       -4130.690           0.104  
> 2023 05 18 00 01 30.1688020  0  7                     
G02  24433790.831       20175.109         263.066           0.091  
G03  22326580.618     -232333.578       -3079.723           0.114  
G04  23835929.743     -355682.136       -4826.438           0.097  
G05  22550750.209      -48972.329        -674.518           0.110  
G06  20678048.434     -223850.316       -3077.447           0.127  
G07  23594766.535     -291673.510       -4223.060           0.099  
G09  23071800.231     -289878.832       -4124.939           0.105  
> 2023 05 18 00 01 30.2688020  0  7                     
G02  24433781.519       20200.819         252.246           0.091  
G03  22326657.110     -232646.112       -3134.570           0.115  
G04  23836049.710     -356165.136       -4834.686           0.096  
G05  22550765.214      -49039.957        -683.529           0.109  
G06  20678130.808     -224158.367       -3084.628           0.128  
G07  23594877.712     -292078.528       -4062.780           0.099  
G09  23071907.970     -290291.672       -4133.286           0.105  
> 2023 05 18 00 01 30.3688020  0  7                     
G02  24433775.214       20224.994         231.562           0.089  
G03  22326737.164     -232960.917       -3156.138           0.111  
G04  23836173.527     -356649.654       -4854.654           0.095  
G05  22550782.382      -49109.161        -699.966           0.109  
G06  20678205.022     -224467.959       -3106.695           0.124  
G07  23594978.187     -292485.317       -4079.427           0.097  
G09  23072013.641     -290705.997       -4149.435           0.102  
> 2023 05 18 00 01 30.4688020  0  7                     
G02  24433768.511       20249.338         250.806           0.090  
G03  22326816.976     -233275.537       -3137.433           0.111  
G04  23836298.492     -357134.041       -4835.846           0.095  
G05  22550800.061      -49178.196        -681.101           0.106  
G06  20678287.297     -224777.385       -3085.983           0.126  
G07  23595082.028     -292892.025       -4056.494           0.098  
G09  23072118.042     -291120.240       -4134.860           0.101  
> 2023 05 18 00 01 30.5688020  0  7                     
G02  24433761.618       20275.315         263.476           0.091  
G03  22326896.630     -233588.553       -3128.352           0.112  
G04  23836422.444     -357616.807       -4824.200           0.095  
G05  22550818.229      -49244.811        -613.500           0.111  
G06  20678364.285     -225085.212       -3073.880           0.125  
G07  23595186.168     -293295.628       -3937.970           0.098  
G09  23072222.479     -291532.471       -4069.319           0.102  
> 2023 05 18 00 01 30.6688020  0  7                     
G02  24433754.769       20301.554         262.635           0.091  
G03  22326976.082     -233901.257       -3125.874           0.112  
G04  23836543.401     -358099.249       -4823.334           0.097  
G05  22550835.463      -49312.746        -670.095           0.110  
G06  20678444.982     -225392.736       -3074.809           0.127  
G07  23595293.798     -293701.855       -4047.230           0.099  
G09  23072325.795     -291945.073       -4122.021           0.103  
> 2023 05 18 00 01 30.7688020  0  7                     
G02  24433746.625       20327.941         263.871           0.091  
G03  22327055.811     -234213.837       -3124.084           0.114  
G04  23836666.366     -358581.622       -4823.870           0.096  
G05  22550853.615      -49379.771        -667.039           0.111  
G06  20678522.420     -225700.139       -3073.321           0.127  
G07  23595392.389     -294106.534       -4042.056           0.099  
G09  23072429.405     -292357.279       -4122.428           0.106  
> 2023 05 18 00 01 30.8688020  0  7                     
G02  24433740.335       20354.472         266.855           0.091  
G03  22327138.092     -234526.310       -3121.049           0.112  
G04  23836788.611     -359063.832       -4820.060           0.096  
G05  22550870.300      -49446.646        -668.811           0.109  
G06  20678601.154     -226007.435       -3072.781           0.127  
G07  23595500.411     -294511.065       -4044.852           0.099  
G09  23072537.556     -292769.298       -4121.454           0.103  
> 2023 05 18 00 01 30.9688020  0  7                     
G02  24433733.158       20381.012         267.136           0.091  
G03  22327220.232     -234838.804       -3124.755           0.112  
G04  23836909.741     -359546.030       -4823.039           0.095  
G05  22550884.868      -49513.535        -670.581           0.111  
G06  20678677.011     -226314.689       -3073.359           0.127  
G07  23595600.592     -294915.611       -4045.445           0.098  
G09  23072640.863     -293181.344       -4121.287           0.103  
> 2023 05 18 00 01 31.0688020  0  7                     
G02  24433728.855       20407.467         266.301           0.090  
G03  22327296.846     -235151.333       -3126.507           0.114  
G04  23837031.499     -360028.247       -4818.421           0.095  
G05  22550899.161      -49580.466        -670.488           0.109  
G06  20678754.562     -226622.026       -3072.217           0.126  
G07  23595699.421     -295320.187       -4044.359           0.098  
G09  23072741.458     -293593.440       -4123.396           0.103  
> 2023 05 18 00 01 31.1688020  0  7                     
G02  24433724.041       20433.953         268.507           0.091  
G03  22327374.246     -235463.853       -3126.052           0.114  
G04  23837152.036     -360510.498       -4821.835           0.096  
G05  22550914.529      -49647.385        -669.221           0.110  
G06  20678831.531     -226929.332       -3071.022           0.126  
G07  23595802.114     -295724.760       -4046.142           0.099  
G09  23072849.870     -294005.488       -4122.159           0.103  
> 2023 05 18 00 01 31.2688020  0  7                     
G02  24433718.688       20460.299         257.540           0.091  
G03  22327454.348     -235776.455       -3125.867           0.112  
G04  23837280.986     -360992.838       -4823.028           0.096  
G05  22550932.688      -49714.441        -671.772           0.110  
G06  20678911.413     -227236.744       -3075.253           0.127  
G07  23595905.309     -296129.461       -4066.284           0.098  
G09  23072957.401     -294417.408       -4183.614           0.104  
> 2023 05 18 00 01 31.3688020  0  7                     
G02  24433705.464       20486.605         261.535           0.091  
G03  22327531.082     -236089.209       -3126.876           0.112  
G04  23837402.245     -361475.340       -4824.475           0.096  
G05  22550952.300      -49781.590        -673.562           0.111  
G06  20678989.868     -227544.317       -3077.769           0.126  
G07  23596008.261     -296534.232       -4048.125           0.098  
G09  23073055.189     -294829.948       -4124.860           0.104  
> 2023 05 18 00 01 31.4688020  0  7                     
G02  24433699.288       20512.615         255.541           0.091  
G03  22327610.396     -236402.174       -3129.876           0.112  
G04  23837524.972     -361958.049       -4826.677           0.095  
G05  22550972.394      -49848.917        -673.310           0.111  
G06  20679069.402     -227852.072       -3079.187           0.126  
G07  23596109.737     -296939.272       -4052.751           0.099  
G09  23073160.128     -295242.450       -4126.871           0.104  
> 2023 05 18 00 01 31.5688020  0  7                     
G02  24433692.658       20538.767         263.136           0.092  
G03  22327687.880     -236715.107       -3132.577           0.113  
G04  23837648.617     -362440.652       -4824.422           0.098  
G05  22550986.489      -49916.231        -675.782           0.110  
G06  20679147.733     -228159.766       -3076.343           0.127  
G07  23596212.612     -297344.245       -4053.104           0.098  
G09  23073274.023     -295654.878       -4124.107           0.104  
