     3.03           OBSERVATION DATA    M: Mixed            RINEX VERSION / TYPE
GNSS-SDRLIB v1.1                        20240902 104212 UTC PGM / RUN BY / DATE 
                                                            MARKER NAME         
                                                            MARKER NUMBER       
                                                            MARKER TYPE         
                                                            OBSERVER / AGENCY   
GNSS-SDRLIB         GNSS-SDRLIB         1.1                 REC # / TYPE / VERS 
                                                            ANT # / TYPE        
        0.0000        0.0000        0.0000                  APPROX POSITION XYZ 
        0.0000        0.0000        0.0000                  ANTENNA: DELTA H/E/N
G    4 C1C L1C D1C S1C                                      SYS / # / OBS TYPES 
R    4 C1C L1C D1C S1C                                      SYS / # / OBS TYPES 
E    4 C1C L1C D1C S1C                                      SYS / # / OBS TYPES 
J    4 C1C L1C D1C S1C                                      SYS / # / OBS TYPES 
S    4 C1C L1C D1C S1C                                      SYS / # / OBS TYPES 
C    4 C1C L1C D1C S1C                                      SYS / # / OBS TYPES 
I    4 C1C L1C D1C S1C                                      SYS / # / OBS TYPES 
  1970    01    01    00    00   00.0000000     GPS         TIME OF FIRST OBS   
  1970    01    01    00    00   00.0000000     GPS         TIME OF LAST OBS    
G L1C                                                       SYS / PHASE SHIFT   
R L1C                                                       SYS / PHASE SHIFT   
E L1C  0.00000                                              SYS / PHASE SHIFT   
J L1C                                                       SYS / PHASE SHIFT   
S L1C                                                       SYS / PHASE SHIFT   
C L1C  0.00000                                              SYS / PHASE SHIFT   
I L1C  0.00000                                              SYS / PHASE SHIFT   
  0                                                         GLONASS SLOT / FRQ #
 C1C    0.000 C1P    0.000 C2C    0.000 C2P    0.000        GLONASS COD/PHS/BIS 
                                                            END OF HEADER       
> 2022 01 01 00 01 06.0688020  0  1                     
G10  20624784.226       17426.606         496.854           0.255  
> 2022 01 01 00 01 06.0688020  0  2                     
G10  20624784.226       17426.606         496.854           0.255  
G15  22793666.371      -52393.528       -3483.265           0.233  
> 2022 01 01 00 01 06.1688020  0  2                     
G10  20624774.687       17476.510         503.769           0.254  
G15  22793737.551      -52742.220       -3486.206           0.232  
> 2022 01 01 00 01 06.2688020  0  2                     
G10  20624766.236       17526.378         501.379           0.254  
G15  22793803.676      -53090.907       -3483.783           0.232  
> 2022 01 01 00 01 06.3688020  0  2                     
G10  20624757.189       17576.235         477.993           0.255  
G15  22793867.578      -53439.607       -3480.429           0.233  
> 2022 01 01 00 01 06.4688020  0  2                     
G10  20624747.167       17626.080         468.418           0.255  
G15  22793934.460      -53788.312       -3488.211           0.232  
> 2022 01 01 00 01 06.5688020  0  2                     
G10  20624737.766       17676.008         494.418           0.254  
G15  22793995.003      -54137.009       -3473.579           0.232  
> 2022 01 01 00 01 06.6688020  0  2                     
G10  20624730.584       17725.870         495.263           0.254  
G15  22794061.548      -54485.686       -3485.549           0.232  
> 2022 01 01 00 01 06.7688020  0  2                     
G10  20624718.476       17775.737         498.076           0.254  
G15  22794131.822      -54834.371       -3487.858           0.232  
> 2022 01 01 00 01 06.8688020  0  2                     
G10  20624707.580       17825.621         504.488           0.255  
G15  22794205.405      -55183.056       -3487.527           0.232  
> 2022 01 01 00 01 06.9688020  0  2                     
G10  20624700.469       17875.518         502.861           0.254  
G15  22794262.916      -55531.751       -3485.524           0.231  
> 2022 01 01 00 01 07.0688020  0  2                     
G10  20624689.518       17925.386         502.502           0.254  
G15  22794334.585      -55880.445       -3487.505           0.231  
> 2022 01 01 00 01 07.1688020  0  2                     
G10  20624681.154       17975.255         498.790           0.254  
G15  22794396.865      -56229.130       -3489.740           0.231  
> 2022 01 01 00 01 07.2688020  0  2                     
G10  20624670.522       18025.121         497.203           0.255  
G15  22794467.605      -56577.810       -3487.291           0.232  
> 2022 01 01 00 01 07.3688020  0  2                     
G10  20624662.303       18075.029         493.375           0.254  
G15  22794530.219      -56926.322       -3269.027           0.233  
> 2022 01 01 00 01 07.4688020  0  2                     
G10  20624650.697       18124.899         495.931           0.254  
G15  22794597.922      -57275.187       -3483.333           0.233  
> 2022 01 01 00 01 07.5688020  0  2                     
G10  20624644.453       18174.760         496.151           0.254  
G15  22794663.063      -57623.867       -3484.733           0.232  
> 2022 01 01 00 01 07.6688020  0  2                     
G10  20624634.490       18224.635         501.965           0.254  
G15  22794728.715      -57972.569       -3492.110           0.232  
> 2022 01 01 00 01 07.7688020  0  2                     
G10  20624624.426       18274.548         504.409           0.254  
G15  22794800.193      -58321.255       -3492.194           0.231  
> 2022 01 01 00 01 07.8688020  0  2                     
G10  20624614.201       18324.418         500.646           0.254  
G15  22794862.335      -58669.932       -3484.971           0.231  
> 2022 01 01 00 01 07.9688020  0  2                     
G10  20624604.205       18374.272         500.483           0.254  
G15  22794930.054      -59018.609       -3044.988           0.232  
> 2022 01 01 00 01 08.0688020  0  2                     
G10  20624594.336       18424.148         498.747           0.254  
G15  22794996.571      -59367.295       -3492.082           0.232  
> 2022 01 01 00 01 08.1688020  0  2                     
G10  20624585.235       18474.052         493.886           0.255  
G15  22795067.628      -59715.979       -3487.920           0.231  
> 2022 01 01 00 01 08.2688020  0  2                     
G10  20624576.924       18523.976         589.307           0.254  
G15  22795126.941      -60064.660       -3484.854           0.233  
> 2022 01 01 00 01 08.3688020  0  2                     
G10  20624567.024       18573.788         496.566           0.254  
G15  22795191.593      -60413.350       -3491.227           0.231  
> 2022 01 01 00 01 08.4688020  0  2                     
G10  20624557.456       18623.657         497.513           0.255  
G15  22795262.977      -60762.022       -3486.490           0.233  
> 2022 01 01 00 01 08.5688020  0  2                     
G10  20624547.027       18673.575         500.830           0.254  
G15  22795328.886      -61110.708       -3485.934           0.231  
> 2022 01 01 00 01 08.6688020  0  2                     
G10  20624537.587       18723.442         502.517           0.255  
G15  22795394.770      -61459.371       -3483.169           0.232  
> 2022 01 01 00 01 08.7688020  0  2                     
G10  20624528.972       18773.363         556.806           0.255  
G15  22795458.623      -61816.612      -28655.766           0.232  
> 2022 01 01 00 01 08.8688020  0  2                     
G10  20624518.999       18823.195         502.428           0.255  
G15  22795530.433      -62156.739       -3481.155           0.232  
> 2022 01 01 00 01 08.9688020  0  2                     
G10  20624509.854       18873.228         947.907           0.254  
G15  22795598.220      -62505.429       -3484.744           0.232  
> 2022 01 01 00 01 09.0688020  0  2                     
G10  20624499.721       18922.984         494.161           0.254  
G15  22795662.111      -62854.119       -3500.938           0.232  
> 2022 01 01 00 01 09.1688020  0  2                     
G10  20624491.024       18972.860         493.647           0.254  
G15  22795725.220      -63202.773       -3485.610           0.232  
> 2022 01 01 00 01 09.2688020  0  2                     
G10  20624480.300       19022.729         498.022           0.254  
G15  22795791.768      -63551.458       -3490.157           0.232  
> 2022 01 01 00 01 09.3688020  0  2                     
G10  20624471.271       19072.605         499.228           0.254  
G15  22795857.379      -63900.121       -3488.073           0.232  
> 2022 01 01 00 01 09.4688020  0  2                     
G10  20624462.198       19122.515         501.654           0.254  
G15  22795923.534      -64248.807       -3488.271           0.232  
> 2022 01 01 00 01 09.5688020  0  2                     
G10  20624453.561       19172.348         404.844           0.254  
G15  22795991.596      -64597.463       -3485.109           0.232  
> 2022 01 01 00 01 09.6688020  0  2                     
G10  20624444.881       19222.270         498.809           0.254  
G15  22796056.285      -64946.158       -3486.759           0.231  
> 2022 01 01 00 01 09.7688020  0  2                     
G10  20624433.393       19272.151         499.416           0.255  
G15  22796122.930      -65294.836       -3486.722           0.232  
> 2022 01 01 00 01 09.8688020  0  2                     
G10  20624424.563       19322.056         493.229           0.254  
G15  22796191.454      -65643.508       -3484.092           0.231  
> 2022 01 01 00 01 09.9688020  0  2                     
G10  20624415.585       19371.932         494.929           0.254  
G15  22796257.847      -65992.184       -3487.774           0.232  
> 2022 01 01 00 01 10.0688020  0  2                     
G10  20624405.698       19421.813         498.364           0.254  
G15  22796321.161      -66340.856       -3481.000           0.232  
> 2022 01 01 00 01 10.1688020  0  2                     
G10  20624395.319       19471.733         522.026           0.255  
G15  22796389.914      -66689.537       -3488.111           0.232  
> 2022 01 01 00 01 10.2688020  0  2                     
G10  20624385.472       19521.596         503.651           0.254  
G15  22796458.104      -67038.198       -3481.854           0.232  
> 2022 01 01 00 01 10.3688020  0  2                     
G10  20624377.749       19571.481         502.046           0.254  
G15  22796519.735      -67386.879       -3485.038           0.231  
> 2022 01 01 00 01 10.4688020  0  2                     
G10  20624366.595       19621.100         -23.066           0.254  
G15  22796587.526      -67713.705       13489.281           0.231  
> 2022 01 01 00 01 10.5688020  0  2                     
G10  20624357.493       19671.198         417.740           0.255  
G15  22796654.607      -68084.208       -3491.795           0.233  
> 2022 01 01 00 01 10.6688020  0  2                     
G10  20624347.682       19721.110         498.265           0.254  
G15  22796723.626      -68432.883       -3512.698           0.232  
> 2022 01 01 00 01 10.7688020  0  2                     
G10  20624337.668       19771.021         493.047           0.254  
G15  22796787.769      -68781.559       -3489.384           0.232  
> 2022 01 01 00 01 10.8688020  0  2                     
G10  20624330.591       19820.903         496.944           0.254  
G15  22796856.095      -69130.223       -3488.718           0.232  
> 2022 01 01 00 01 10.9688020  0  2                     
G10  20624320.146       19870.866         600.236           0.254  
G15  22796917.596      -69478.883       -3479.621           0.231  
> 2022 01 01 00 01 11.0688020  0  2                     
G10  20624311.844       19920.671         497.247           0.255  
G15  22796985.748      -69827.573       -3489.677           0.232  
> 2022 01 01 00 01 11.1688020  0  2                     
G10  20624301.257       19970.593         504.004           0.254  
G15  22797051.977      -70176.233       -3483.126           0.232  
> 2022 01 01 00 01 11.2688020  0  2                     
G10  20624292.131       20020.322         218.726           0.254  
G15  22797116.163      -70524.914       -3487.096           0.232  
> 2022 01 01 00 01 11.3688020  0  2                     
G10  20624280.846       20070.240         229.277           0.254  
G15  22797189.167      -70873.572       -3488.940           0.231  
> 2022 01 01 00 01 11.4688020  0  2                     
G10  20624271.039       20120.238         499.133           0.255  
G15  22797252.798      -71222.225       -3487.271           0.232  
> 2022 01 01 00 01 11.5688020  0  2                     
G10  20624263.090       20170.121         499.511           0.254  
G15  22797316.334      -71570.905       -3487.934           0.231  
> 2022 01 01 00 01 11.6688020  0  2                     
G10  20624252.353       20220.529        1424.491           0.254  
G15  22797387.117      -71927.768      -18274.930           0.232  
> 2022 01 01 00 01 11.7688020  0  2                     
G10  20624243.351       20269.922         495.235           0.254  
G15  22797454.975      -72268.229       -3484.245           0.232  
> 2022 01 01 00 01 11.8688020  0  2                     
G10  20624234.890       20319.784         469.282           0.254  
G15  22797516.229      -72616.883       -3488.683           0.231  
> 2022 01 01 00 01 11.9688020  0  2                     
G10  20624224.884       20369.682         497.922           0.255  
G15  22797582.120      -72965.563       -3489.434           0.232  
> 2022 01 01 00 01 12.0688020  0  2                     
G10  20624216.146       20419.600         505.023           0.254  
G15  22797649.692      -73314.201       -3488.209           0.232  
> 2022 01 01 00 01 12.1688020  0  2                     
G10  20624206.997       20469.489         501.667           0.254  
G15  22797718.949      -73662.862       -3473.212           0.232  
> 2022 01 01 00 01 12.2688020  0  2                     
G10  20624196.439       20519.339         429.500           0.254  
G15  22797777.465      -74011.533       -3490.045           0.232  
> 2022 01 01 00 01 12.3688020  0  2                     
G10  20624186.242       20569.244         501.544           0.255  
G15  22797856.945      -74360.190       -3485.496           0.232  
> 2022 01 01 00 01 12.4688020  0  2                     
G10  20624177.918       20619.187         567.124           0.255  
G15  22797915.907      -74706.803        5376.093           0.232  
> 2022 01 01 00 01 12.5688020  0  2                     
G10  20624167.404       20669.019         435.166           0.254  
G15  22797980.089      -75057.519       -3484.321           0.231  
> 2022 01 01 00 01 12.6688020  0  2                     
G10  20624158.375       20718.934         495.295           0.254  
G15  22798050.346      -75406.180       -3493.821           0.232  
> 2022 01 01 00 01 12.7688020  0  2                     
G10  20624148.298       20768.824         495.769           0.254  
G15  22798109.653      -75754.836       -3484.102           0.231  
> 2022 01 01 00 01 12.8688020  0  2                     
G10  20624141.488       20818.719         496.147           0.254  
G15  22798175.195      -76103.491       -3489.340           0.233  
> 2022 01 01 00 01 12.9688020  0  2                     
G10  20624129.298       20868.607         499.087           0.255  
G15  22798249.287      -76452.143       -3489.235           0.232  
> 2022 01 01 00 01 13.0688020  0  2                     
G10  20624121.392       20918.449         366.789           0.254  
G15  22798313.868      -76800.804       -3485.524           0.232  
> 2022 01 01 00 01 13.1688020  0  2                     
G10  20624110.302       20968.418         501.791           0.254  
G15  22798380.306      -77149.464       -3483.432           0.232  
> 2022 01 01 00 01 13.2688020  0  2                     
G10  20624101.912       21018.492         788.011           0.254  
G15  22798446.822      -77497.326        8620.393           0.232  
> 2022 01 01 00 01 13.3688020  0  2                     
G10  20624091.972       21068.194         501.053           0.254  
G15  22798513.507      -77846.787       -3489.318           0.232  
> 2022 01 01 00 01 13.4688020  0  2                     
G10  20624080.287       21117.651        -316.898           0.255  
G15  22798585.005      -78178.851       34876.402           0.232  
> 2022 01 01 00 01 13.5688020  0  2                     
G10  20624072.128       21168.004         494.452           0.254  
G15  22798645.071      -78544.088       -3483.062           0.232  
> 2022 01 01 00 01 13.6688020  0  2                     
G10  20624066.662       21217.895         495.818           0.254  
G15  22798702.482      -78892.751       -3485.022           0.232  
> 2022 01 01 00 01 13.7688020  0  2                     
G10  20624053.577       21267.726         387.177           0.254  
G15  22798774.953      -79241.398       -3489.843           0.230  
> 2022 01 01 00 01 13.8688020  0  2                     
G10  20624043.403       21317.681         502.920           0.255  
G15  22798846.221      -79590.058       -3487.145           0.231  
> 2022 01 01 00 01 13.9688020  0  2                     
G10  20624036.138       21367.594         503.203           0.254  
G15  22798909.636      -79938.706       -3483.698           0.232  
> 2022 01 01 00 01 14.0688020  0  2                     
G10  20624026.042       21417.522         565.309           0.254  
G15  22798974.629      -80287.337       -3482.363           0.233  
> 2022 01 01 00 01 14.1688020  0  2                     
G10  20624016.262       21467.451         620.922           0.254  
G15  22799045.203      -80636.007       -3488.634           0.232  
> 2022 01 01 00 01 14.2688020  0  2                     
G10  20624005.954                                           0.254  
G15  22799112.107      -80984.836       -3483.090           0.232  
> 2022 01 01 00 01 14.3688020  0  2                     
G10  20623998.503                                           0.255  
G15  22799176.979      -81333.475       -3483.136           0.231  
> 2022 01 01 00 01 14.4688020  0  2                     
G10  20623987.550       21617.081         496.493           0.254  
G15  22799242.209      -81681.963       -3489.102           0.231  
> 2022 01 01 00 01 14.5688020  0  2                     
G10  20623978.696       21666.967         495.330           0.254  
G15  22799304.733      -82030.623       -3492.432           0.232  
> 2022 01 01 00 01 14.6688020  0  2                     
G10  20623968.057       21716.913         620.078           0.254  
G15  22799376.841      -82379.266       -3487.718           0.232  
> 2022 01 01 00 01 14.7688020  0  2                     
G10  20623959.675       21766.755         499.362           0.254  
G15  22799442.479      -82727.902       -3487.982           0.231  
> 2022 01 01 00 01 14.8688020  0  2                     
G10  20623949.658       21816.655         499.827           0.255  
G15  22799512.877      -83076.552       -3482.640           0.232  
> 2022 01 01 00 01 14.9688020  0  2                     
G10  20623939.911       21866.615         556.965           0.254  
G15  22799575.011      -83425.196       -3485.551           0.232  
> 2022 01 01 00 01 15.0688020  0  2                     
G10  20623932.348       21916.493         531.410           0.254  
G15  22799636.065      -83773.856       -3490.397           0.232  
> 2022 01 01 00 01 15.1688020  0  2                     
G10  20623921.422       21966.427         705.587           0.254  
G15  22799708.303      -84122.506       -3485.361           0.232  
> 2022 01 01 00 01 15.2688020  0  2                     
G10  20623912.911       22016.265         500.591           0.255  
G15  22799772.432      -84471.246       -3702.924           0.232  
> 2022 01 01 00 01 15.3688020  0  2                     
G10  20623901.905       22066.162         495.238           0.254  
G15  22799842.271      -84819.792       -3485.792           0.232  
> 2022 01 01 00 01 15.4688020  0  2                     
G10  20623892.963       22116.154         620.790           0.255  
G15  22799908.101      -85168.430       -3485.311           0.232  
> 2022 01 01 00 01 15.5688020  0  2                     
G10  20623881.386       22165.991         496.505           0.254  
G15  22799973.425      -85517.080       -3489.925           0.232  
> 2022 01 01 00 01 15.6688020  0  2                     
G10  20623873.322       22215.890         498.685           0.254  
G15  22800044.228      -85865.724       -3482.073           0.232  
> 2022 01 01 00 01 15.7688020  0  2                     
G10  20623862.759       22265.780         495.001           0.254  
G15  22800107.635      -86214.370       -3486.618           0.232  
> 2022 01 01 00 01 15.8688020  0  2                     
G10  20623854.175       22315.676         496.392           0.255  
G15  22800171.470      -86563.026       -3491.977           0.232  
> 2022 01 01 00 01 15.9688020  0  2                     
G10  20623845.415                                           0.255  
G15  22800238.191      -86911.848       -3497.399           0.232  
> 2022 01 01 00 01 16.0688020  0  2                     
G10  20623837.367       22415.501         505.830           0.254  
G15  22800301.876      -87260.303       -3485.235           0.232  
> 2022 01 01 00 01 16.1688020  0  2                     
G10  20623824.552       22465.402         503.434           0.254  
G15  22800374.110      -87608.951       -3487.110           0.232  
> 2022 01 01 00 01 16.2688020  0  2                     
G10  20623816.277       22515.241         392.596           0.254  
G15  22800436.131      -87957.581       -3487.315           0.231  
> 2022 01 01 00 01 16.3688020  0  2                     
G10  20623809.482       22565.190         500.917           0.255  
G15  22800501.603      -88306.217       -3485.868           0.232  
> 2022 01 01 00 01 16.4688020  0  2                     
G10  20623795.438                                           0.254  
G15  22800567.540      -88655.053       -3489.442           0.232  
> 2022 01 01 00 01 16.5688020  0  2                     
G10  20623787.546       22665.015         495.856           0.254  
G15  22800640.256      -89003.498       -3490.783           0.231  
> 2022 01 01 00 01 16.6688020  0  2                     
G10  20623777.871       22714.941         578.709           0.254  
G15  22800703.030      -89352.123       -3487.870           0.231  
> 2022 01 01 00 01 16.7688020  0  2                     
G10  20623769.032                                           0.254  
G15  22800767.804      -89700.971       -3496.341           0.232  
> 2022 01 01 00 01 16.8688020  0  2                     
G10  20623757.437       22814.713         499.950           0.254  
G15  22800832.947      -90049.409       -3484.022           0.232  
> 2022 01 01 00 01 16.9688020  0  2                     
G10  20623750.323       22864.616         499.597           0.254  
G15  22800901.827      -90398.051       -3486.132           0.231  
> 2022 01 01 00 01 17.0688020  0  2                     
G10  20623740.620       22914.487         380.646           0.254  
G15  22800964.887      -90746.687       -3483.676           0.232  
> 2022 01 01 00 01 17.1688020  0  2                     
G10  20623731.940       22964.452         501.051           0.254  
G15  22801033.248      -91095.332       -3487.486           0.232  
> 2022 01 01 00 01 17.2688020  0  2                     
G10  20623722.214       23014.360         501.168           0.254  
G15  22801101.049      -91443.959       -3486.020           0.232  
> 2022 01 01 00 01 17.3688020  0  2                     
G10  20623711.227       23064.260         500.966           0.255  
G15  22801163.805      -91792.592       -3485.574           0.232  
> 2022 01 01 00 01 17.4688020  0  2                     
G10  20623701.958       23114.161         499.921           0.255  
G15  22801235.489      -92141.226       -3485.872           0.232  
> 2022 01 01 00 01 17.5688020  0  2                     
G10  20623692.693       23164.091         491.664           0.254  
G15  22801297.561      -92489.857       -3481.062           0.232  
> 2022 01 01 00 01 17.6688020  0  2                     
G10  20623682.033       23214.002         495.277           0.254  
G15  22801370.156      -92838.492       -3485.313           0.232  
> 2022 01 01 00 01 17.7688020  0  2                     
G10  20623673.305       23263.893         493.440           0.254  
G15  22801432.751      -93187.128       -3486.905           0.231  
> 2022 01 01 00 01 17.8688020  0  2                     
G10  20623663.982       23313.797         498.118           0.254  
G15  22801495.406      -93535.761       -3488.225           0.232  
> 2022 01 01 00 01 17.9688020  0  2                     
G10  20623655.099       23363.702         497.701           0.255  
G15  22801567.072      -93884.381       -3487.179           0.232  
> 2022 01 01 00 01 18.0688020  0  2                     
G10  20623646.315       23413.604         499.806           0.255  
G15  22801630.669      -94233.020       -3489.811           0.232  
> 2022 01 01 00 01 18.1688020  0  2                     
G10  20623634.289       23463.548         501.274           0.254  
G15  22801697.328      -94581.671       -3482.701           0.232  
> 2022 01 01 00 01 18.2688020  0  2                     
G10  20623626.109       23513.388         373.704           0.254  
G15  22801767.492      -94930.284       -3482.960           0.232  
> 2022 01 01 00 01 18.3688020  0  2                     
G10  20623614.942       23563.353         501.033           0.254  
G15  22801832.594      -95278.935       -3488.816           0.232  
> 2022 01 01 00 01 18.4688020  0  2                     
G10  20623608.269       23613.242         489.355           0.254  
G15  22801893.438      -95627.539       -3483.975           0.231  
> 2022 01 01 00 01 18.5688020  0  2                     
G10  20623598.197       23663.153         499.221           0.255  
G15  22801961.722      -95976.200       -3487.846           0.232  
> 2022 01 01 00 01 18.6688020  0  2                     
G10  20623589.772       23713.086         492.780           0.255  
G15  22802031.348      -96324.822       -3492.239           0.232  
> 2022 01 01 00 01 18.7688020  0  2                     
G10  20623579.189       23762.996         496.909           0.253  
G15  22802092.252      -96673.439       -3488.571           0.232  
> 2022 01 01 00 01 18.8688020  0  2                     
G10  20623569.125       23812.960         603.714           0.254  
G15  22802163.717      -97022.048       -3491.246           0.232  
> 2022 01 01 00 01 18.9688020  0  2                     
G10  20623561.932       23862.820         495.858           0.254  
G15  22802224.955      -97370.689       -3488.685           0.231  
> 2022 01 01 00 01 19.0688020  0  2                     
G10  20623550.881       23912.724         496.718           0.255  
G15  22802295.211      -97719.307       -3483.968           0.232  
> 2022 01 01 00 01 19.1688020  0  2                     
G10  20623540.552       23962.641         499.140           0.255  
G15  22802360.215      -98067.943       -3483.902           0.232  
> 2022 01 01 00 01 19.2688020  0  2                     
G10  20623532.487       24012.582         504.728           0.254  
G15  22802426.077      -98416.559       -3479.862           0.232  
> 2022 01 01 00 01 19.3688020  0  2                     
G10  20623521.668       24062.482         501.686           0.254  
G15  22802492.180      -98765.186       -3482.680           0.232  
> 2022 01 01 00 01 19.4688020  0  2                     
G10  20623511.108       24112.389         501.017           0.254  
G15  22802559.586      -99113.819       -3485.400           0.232  
> 2022 01 01 00 01 19.5688020  0  2                     
G10  20623505.155       24162.301         503.007           0.254  
G15  22802622.518      -99462.436       -3492.044           0.232  
> 2022 01 01 00 01 19.6688020  0  2                     
G10  20623493.229       24212.215         503.610           0.254  
G15  22802698.309      -99811.079       -3489.955           0.232  
> 2022 01 01 00 01 19.7688020  0  2                     
G10  20623484.693       24262.118         497.953           0.255  
G15  22802757.419     -100159.674       -3486.272           0.232  
> 2022 01 01 00 01 19.8688020  0  2                     
G10  20623475.352       24312.043         445.882           0.254  
G15  22802828.705     -100508.312       -3488.829           0.232  
> 2022 01 01 00 01 19.9688020  0  2                     
G10  20623465.143       24361.971         498.320           0.254  
G15  22802893.946     -100856.922       -3486.533           0.233  
> 2022 01 01 00 01 20.0688020  0  2                     
G10  20623455.847       24411.879         495.678           0.254  
G15  22802952.979     -101205.553       -3483.143           0.232  
> 2022 01 01 00 01 20.1688020  0  2                     
G10  20623446.336       24461.787         497.974           0.254  
G15  22803020.868     -101554.161       -3480.739           0.232  
> 2022 01 01 00 01 20.2688020  0  2                     
G10  20623438.495       24511.695         498.439           0.254  
G15  22803085.921     -101902.791       -3486.684           0.232  
> 2022 01 01 00 01 20.3688020  0  2                     
G10  20623425.045       24561.609         501.080           0.255  
G15  22803157.064     -102251.411       -3486.006           0.232  
> 2022 01 01 00 01 20.4688020  0  2                     
G10  20623417.427       24611.557         502.178           0.254  
G15  22803222.088     -102600.032       -3487.170           0.232  
> 2022 01 01 00 01 20.5688020  0  2                     
G10  20623408.015       24661.446         469.517           0.254  
G15  22803290.342     -102948.642       -3487.040           0.232  
> 2022 01 01 00 01 20.6688020  0  2                     
G10  20623398.733       24711.364         501.265           0.254  
G15  22803357.675     -103297.273       -3487.052           0.232  
> 2022 01 01 00 01 20.7688020  0  2                     
G10  20623389.255                                           0.254  
G15  22803423.549     -103646.111       -3499.466           0.232  
> 2022 01 01 00 01 20.8688020  0  2                     
G10  20623380.855       24811.206         525.490           0.255  
G15  22803485.251     -103994.500       -3488.477           0.232  
> 2022 01 01 00 01 20.9688020  0  2                     
G10  20623367.331       24861.114         499.908           0.254  
G15  22803549.070     -104343.119       -3490.974           0.232  
> 2022 01 01 00 01 21.1688020  0  2                     
G10  20623351.331       24960.973         496.557           0.254  
G15  22803691.260     -105040.341       -3488.984           0.232  
> 2022 01 01 00 01 21.2688020  0  2                     
G10  20623343.204       25010.887         497.167           0.254  
G15  22803750.665     -105388.947       -3487.690           0.231  
> 2022 01 01 00 01 21.3688020  0  2                     
G10  20623332.024       25061.084         894.032           0.254  
G15  22803822.291     -105729.670       10425.070           0.232  
> 2022 01 01 00 01 21.4688020  0  2                     
G10  20623321.643       25110.723         499.584           0.254  
G15  22803889.982     -106086.191       -3485.466           0.232  
> 2022 01 01 00 01 21.5688020  0  2                     
G10  20623312.031       25160.638         496.643           0.255  
G15  22803956.264     -106434.803       -3485.254           0.232  
> 2022 01 01 00 01 21.6688020  0  2                     
G10  20623306.182       25210.592         504.131           0.254  
G15  22804016.844     -106783.413       -3487.733           0.232  
> 2022 01 01 00 01 21.7688020  0  2                     
G10  20623293.576       25260.409         296.729           0.254  
G15  22804087.705     -107132.027       -3486.004           0.231  
> 2022 01 01 00 01 21.8688020  0  2                     
G10  20623285.612       25310.418         497.981           0.254  
G15  22804151.833     -107480.645       -3483.364           0.232  
> 2022 01 01 00 01 21.9688020  0  2                     
G10  20623275.250       25360.332         502.624           0.254  
G15  22804219.506     -107829.253       -3484.174           0.231  
> 2022 01 01 00 01 22.0688020  0  2                     
G10  20623264.565       25410.255         499.244           0.255  
G15  22804286.901     -108177.861       -3485.434           0.232  
> 2022 01 01 00 01 22.1688020  0  2                     
G10  20623257.148       25460.158         497.826           0.254  
G15  22804349.649     -108526.461       -3485.224           0.231  
> 2022 01 01 00 01 22.2688020  0  2                     
G10  20623245.687       25509.482        -650.487           0.254  
G15  22804420.020     -108872.507       10718.106           0.232  
> 2022 01 01 00 01 22.3688020  0  2                     
G10  20623237.950       25559.947         326.991           0.254  
G15  22804483.445     -109223.668       -3485.044           0.232  
> 2022 01 01 00 01 22.4688020  0  2                     
G10  20623227.542       25609.942         495.832           0.254  
G15  22804549.059     -109572.293       -3483.947           0.232  
> 2022 01 01 00 01 22.6688020  0  2                     
G10  20623211.335       25709.779         499.368           0.254  
G15  22804674.458     -110269.518       -3490.455           0.232  
> 2022 01 01 00 01 22.7688020  0  2                     
G10  20623198.408       25759.692         496.906           0.254  
G15  22804749.887     -110618.121       -3487.235           0.232  
> 2022 01 01 00 01 22.8688020  0  2                     
G10  20623190.487       25809.535         679.669           0.255  
G15  22804817.274     -110961.358       -2177.907           0.232  
> 2022 01 01 00 01 22.9688020  0  2                     
G10  20623179.602       25859.419         247.781           0.254  
G15  22804885.905     -111315.339       -3487.516           0.231  
> 2022 01 01 00 01 23.0688020  0  2                     
G10  20623172.122       25909.493         501.621           0.254  
G15  22804948.057     -111663.882       -3524.446           0.232  
> 2022 01 01 00 01 23.1688020  0  2                     
G10  20623161.859       25959.291         230.506           0.254  
G15  22805012.402     -112012.541       -3489.323           0.232  
> 2022 01 01 00 01 23.2688020  0  2                     
G10  20623150.537       26009.341         497.354           0.255  
G15  22805086.463     -112361.134       -3487.396           0.233  
> 2022 01 01 00 01 23.3688020  0  2                     
G10  20623140.955       26059.261         503.816           0.254  
G15  22805148.251     -112709.745       -3489.670           0.232  
> 2022 01 01 00 01 23.4688020  0  2                     
G10  20623132.671       26109.162         467.671           0.255  
G15  22805215.393     -113058.333       -3489.076           0.232  
> 2022 01 01 00 01 23.5688020  0  2                     
G10  20623122.719       26159.109         497.692           0.255  
G15  22805280.090     -113406.978       -3489.907           0.232  
> 2022 01 01 00 01 23.6688020  0  2                     
G10  20623113.440       26209.059         495.425           0.254  
G15  22805349.121     -113755.565       -3486.897           0.232  
> 2022 01 01 00 01 23.7688020  0  2                     
G10  20623104.604       26258.986         493.649           0.254  
G15  22805407.411     -114104.164       -3489.449           0.231  
> 2022 01 01 00 01 23.8688020  0  2                     
G10  20623095.341       26308.895         497.066           0.254  
G15  22805478.918     -114452.737       -3487.797           0.232  
> 2022 01 01 00 01 23.9688020  0  2                     
G10  20623085.738       26358.694         287.420           0.254  
G15  22805543.336     -114801.355       -3486.372           0.232  
> 2022 01 01 00 01 24.0688020  0  2                     
G10  20623076.234       26408.741         495.496           0.255  
G15  22805612.012     -115149.944       -3481.995           0.232  
> 2022 01 01 00 01 24.1688020  0  2                     
G10  20623065.649       26458.671         501.762           0.255  
G15  22805678.142     -115498.553       -3483.464           0.232  
> 2022 01 01 00 01 24.2688020  0  2                     
G10  20623056.382       26508.521         354.286           0.255  
G15  22805743.155     -115847.144       -3479.557           0.232  
> 2022 01 01 00 01 24.3688020  0  2                     
G10  20623048.686       26558.548         504.323           0.254  
G15  22805807.608     -116195.762       -3481.364           0.232  
> 2022 01 01 00 01 24.4688020  0  2                     
G10  20623036.644                                           0.254  
G15  22805876.810     -116544.609       -3472.427           0.232  
> 2022 01 01 00 01 24.5688020  0  2                     
G10  20623028.894       26658.388         500.261           0.254  
G15  22805943.633     -116892.962       -3490.667           0.231  
> 2022 01 01 00 01 24.7688020  0  2                     
G10  20623009.530       26758.238         498.756           0.254  
G15  22806072.306     -117590.157       -3553.519           0.232  
> 2022 01 01 00 01 24.8688020  0  2                     
G10  20622999.563                                           0.255  
G15  22806141.252     -117938.992       -3483.561           0.232  
> 2022 01 01 00 01 24.9688020  0  2                     
G10  20622990.326       26858.103         500.052           0.255  
G15  22806210.929     -118287.330       -3486.803           0.232  
> 2022 01 01 00 01 25.1688020  0  2                     
G10  20622971.442       26957.988         497.342           0.254  
G15  22806346.226     -118984.533       -3484.949           0.232  
> 2022 01 01 00 01 25.2688020  0  2                     
G10  20622960.814       27008.019         710.452           0.254  
G15  22806406.304     -119333.118       -3486.260           0.232  
> 2022 01 01 00 01 25.3688020  0  2                     
G10  20622952.193       27057.840         497.686           0.254  
G15  22806473.165     -119681.702       -3487.223           0.232  
> 2022 01 01 00 01 25.4688020  0  2                     
G10  20622942.346       27107.776         500.385           0.254  
G15  22806539.480     -120030.291       -3485.805           0.232  
> 2022 01 01 00 01 25.5688020  0  2                     
G10  20622934.140       27157.698         496.605           0.254  
G15  22806606.335     -120378.880       -3480.774           0.232  
> 2022 01 01 00 01 25.7688020  0  2                     
G10  20622916.367       27257.595         503.134           0.254  
G15  22806737.220     -121076.063       -3485.788           0.232  
> 2022 01 01 00 01 25.8688020  0  2                     
G10  20622905.211       27307.459         374.869           0.254  
G15  22806803.483     -121424.662       -3486.925           0.231  
> 2022 01 01 00 01 25.9688020  0  2                     
G10  20622895.345       27357.452         502.625           0.254  
G15  22806870.839     -121773.244       -3483.039           0.232  
> 2022 01 01 00 01 26.0688020  0  2                     
G10  20622885.635       27407.367         482.612           0.254  
G15  22806942.602     -122121.839       -3487.458           0.232  
> 2022 01 01 00 01 26.1688020  0  2                     
G10  20622875.734       27457.308         501.322           0.254  
G15  22807005.576     -122470.434       -3486.081           0.232  
> 2022 01 01 00 01 26.2688020  0  2                     
G10  20622867.123       27507.231         501.357           0.254  
G15  22807074.397     -122819.021       -3487.999           0.232  
> 2022 01 01 00 01 26.3688020  0  2                     
G10  20622857.355       27557.233         577.541           0.255  
G15  22807136.850     -123167.616       -3488.707           0.232  
> 2022 01 01 00 01 26.4688020  0  2                     
G10  20622847.768       27606.870          53.471           0.255  
G15  22807203.062     -123516.201       -3485.060           0.232  
> 2022 01 01 00 01 26.5688020  0  2                     
G10  20622838.010       27657.126         645.786           0.254  
G15  22807269.059     -123864.790       -3487.152           0.232  
> 2022 01 01 00 01 26.6688020  0  2                     
G10  20622829.446       27706.978         500.277           0.254  
G15  22807336.381     -124213.367       -3489.081           0.232  
> 2022 01 01 00 01 26.7688020  0  2                     
G10  20622819.027       27756.915         495.785           0.254  
G15  22807402.876     -124561.955       -3488.644           0.231  
> 2022 01 01 00 01 26.8688020  0  2                     
G10  20622809.836       27806.850         499.909           0.254  
G15  22807468.679     -124910.529       -3490.996           0.231  
> 2022 01 01 00 01 26.9688020  0  2                     
G10  20622799.609       27856.787         498.646           0.254  
G15  22807535.878     -125259.123       -3483.327           0.232  
> 2022 01 01 00 01 27.0688020  0  2                     
G10  20622791.190       27906.717         496.125           0.255  
G15  22807602.147     -125607.669       -3412.129           0.232  
> 2022 01 01 00 01 27.1688020  0  2                     
G10  20622779.592       27956.657         499.320           0.255  
G15  22807669.121     -125956.292       -3478.942           0.231  
> 2022 01 01 00 01 27.2688020  0  2                     
G10  20622772.830       28006.607         507.800           0.255  
G15  22807734.553     -126304.869       -3487.253           0.231  
> 2022 01 01 00 01 27.3688020  0  2                     
G10  20622761.641       28056.207        -179.679           0.254  
G15  22807801.561     -126653.465       -3483.194           0.232  
> 2022 01 01 00 01 27.4688020  0  2                     
G10  20622752.662       28106.426         372.676           0.254  
G15  22807866.082     -127002.031       -3488.334           0.232  
> 2022 01 01 00 01 27.6688020  0  2                     
G10  20622733.098       28206.359         501.658           0.254  
G15  22807998.691     -127699.193       -3487.819           0.232  
> 2022 01 01 00 01 27.7688020  0  2                     
G10  20622724.136       28256.206         224.302           0.254  
G15  22808063.340     -128067.705      -21085.227           0.232  
> 2022 01 01 00 01 27.8688020  0  2                     
G10  20622714.098       28306.230         500.434           0.255  
G15  22808134.000     -128396.346       -3484.109           0.232  
> 2022 01 01 00 01 27.9688020  0  2                     
G10  20622705.728       28356.254         614.989           0.255  
G15  22808196.640     -128744.935       -3487.704           0.232  
> 2022 01 01 00 01 28.0688020  0  2                     
G10  20622695.112       28406.113         499.638           0.255  
G15  22808267.635     -129093.507       -3483.231           0.232  
> 2022 01 01 00 01 28.1688020  0  2                     
G10  20622686.898       28456.066         493.488           0.254  
G15  22808329.557     -129442.085       -3487.064           0.232  
> 2022 01 01 00 01 28.2688020  0  2                     
G10  20622674.934       28506.006         496.324           0.254  
G15  22808401.564     -129790.656       -3457.304           0.232  
> 2022 01 01 00 01 28.3688020  0  2                     
G10  20622668.743       28555.938         496.697           0.254  
G15  22808462.624     -130139.242       -3485.336           0.232  
> 2022 01 01 00 01 28.4688020  0  2                     
G10  20622658.219       28605.906         566.604           0.254  
G15  22808530.958     -130487.837       -3490.492           0.232  
> 2022 01 01 00 01 28.5688020  0  2                     
G10  20622648.865       28655.810         496.741           0.255  
G15  22808594.390     -130836.398       -3486.098           0.232  
> 2022 01 01 00 01 28.6688020  0  2                     
G10  20622638.693       28705.748         496.808           0.254  
G15  22808659.717     -131184.994       -3488.807           0.231  
> 2022 01 01 00 01 28.7688020  0  2                     
G10  20622628.865       28755.683         499.320           0.255  
G15  22808731.100     -131533.816       -3894.091           0.231  
> 2022 01 01 00 01 28.8688020  0  2                     
G10  20622620.048       28805.632         497.058           0.255  
G15  22808792.631     -131882.128       -3483.707           0.231  
> 2022 01 01 00 01 28.9688020  0  2                     
G10  20622610.280       28855.602         503.010           0.254  
G15  22808863.108     -132230.690       -3477.298           0.232  
> 2022 01 01 00 01 29.0688020  0  2                     
G10  20622602.046       28905.553         505.378           0.254  
G15  22808925.969     -132579.282       -3480.106           0.232  
> 2022 01 01 00 01 29.1688020  0  2                     
G10  20622589.902       28955.485         502.918           0.254  
G15  22808998.215     -132927.844       -3490.354           0.232  
> 2022 01 01 00 01 29.2688020  0  2                     
G10  20622581.563       29005.429         501.830           0.254  
G15  22809058.824     -133276.419       -3479.298           0.232  
> 2022 01 01 00 01 29.3688020  0  2                     
G10  20622571.916       29055.375         499.923           0.254  
G15  22809130.122     -133624.987       -3487.112           0.232  
> 2022 01 01 00 01 29.4688020  0  2                     
G10  20622563.479       29105.307         498.483           0.254  
G15  22809191.905     -133973.559       -3486.255           0.232  
> 2022 01 01 00 01 29.5688020  0  2                     
G10  20622552.623                                           0.254  
G15  22809263.780     -134322.424       -3490.517           0.232  
> 2022 01 01 00 01 29.6688020  0  2                     
G10  20622543.469       29205.193         496.700           0.255  
G15  22809325.039     -134670.703       -3485.626           0.232  
> 2022 01 01 00 01 29.7688020  0  2                     
G10  20622534.028       29255.135         498.333           0.255  
G15  22809393.632     -135019.269       -3483.231           0.232  
> 2022 01 01 00 01 29.8688020  0  2                     
G10  20622524.445       29305.105         495.070           0.254  
G15  22809458.947     -135367.851       -3487.478           0.231  
> 2022 01 01 00 01 29.9688020  0  2                     
G10  20622514.437       29355.046         496.218           0.254  
G15  22809525.299     -135716.410       -3483.763           0.231  
> 2022 01 01 00 01 30.0688020  0  2                     
G10  20622505.248       29404.993         494.475           0.254  
G15  22809592.793     -136064.984       -3483.665           0.232  
> 2022 01 01 00 01 30.3688020  0  2                     
G10  20622476.377       29554.814         498.352           0.254  
G15  22809789.269     -137110.668       -3482.652           0.232  
> 2022 01 01 00 01 30.4688020  0  2                     
G10  20622467.349       29604.758         500.960           0.254  
G15  22809860.205     -137459.250       -3487.164           0.232  
> 2022 01 01 00 01 30.5688020  0  2                     
G10  20622458.602       29654.698         498.662           0.255  
G15  22809924.836     -137807.815       -3556.863           0.232  
> 2022 01 01 00 01 30.6688020  0  2                     
G10  20622447.773       29704.621         462.406           0.255  
G15  22809995.920     -138156.375       -3486.644           0.232  
> 2022 01 01 00 01 30.7688020  0  2                     
G10  20622440.013       29754.612         507.623           0.254  
G15  22810056.302     -138504.946       -3489.948           0.232  
> 2022 01 01 00 01 30.9688020  0  2                     
G10  20622420.507       29854.520         503.371           0.254  
G15  22810187.594     -139202.074       -3486.954           0.232  
> 2022 01 01 00 01 31.0688020  0  2                     
G10  20622410.299       29904.387         366.896           0.254  
G15  22810253.214     -139550.624       -3485.964           0.232  
> 2022 01 01 00 01 31.1688020  0  2                     
G10  20622400.431       29954.419         504.044           0.254  
G15  22810321.852     -139899.190       -3484.832           0.232  
> 2022 01 01 00 01 31.3688020  0  2                     
G10  20622382.554       30054.319         503.574           0.255  
G15  22810450.167     -140596.324       -3489.441           0.232  
> 2022 01 01 00 01 31.5688020  0  2                     
G10  20622363.210       30154.210         502.113           0.255  
G15  22810588.533     -141293.432       -3484.010           0.232  
> 2022 01 01 00 01 31.6688020  0  2                     
G10  20622352.957       30204.151         498.620           0.255  
G15  22810653.460     -141641.986       -3491.045           0.232  
> 2022 01 01 00 01 31.7688020  0  2                     
G10  20622342.983       30254.110         499.107           0.255  
G15  22810718.354     -141990.561       -3483.731           0.232  
> 2022 01 01 00 01 31.8688020  0  2                     
G10  20622334.195       30304.080         495.870           0.254  
G15  22810785.481     -142339.092       -3484.548           0.232  
> 2022 01 01 00 01 31.9688020  0  2                     
G10  20622325.363       30354.042         514.170           0.254  
G15  22810848.544     -142687.676       -3484.762           0.232  
> 2022 01 01 00 01 32.1688020  0  2                     
G10  20622306.614       30453.926         496.052           0.254  
G15  22810981.999     -143384.792       -3484.164           0.232  
> 2022 01 01 00 01 32.2688020  0  2                     
G10  20622296.050       30503.870         495.302           0.254  
G15  22811052.897     -143733.369       -3532.996           0.232  
> 2022 01 01 00 01 32.3688020  0  2                     
G10  20622287.763       30553.820         495.274           0.254  
G15  22811117.097     -144081.900       -3488.713           0.232  
> 2022 01 01 00 01 32.4688020  0  2                     
G10  20622278.798       30603.768         500.491           0.254  
G15  22811183.574     -144430.442       -3486.404           0.232  
> 2022 01 01 00 01 32.5688020  0  2                     
G10  20622267.221       30653.940         875.986           0.254  
G15  22811252.521     -144779.010       -3486.347           0.232  
> 2022 01 01 00 01 32.6688020  0  2                     
G10  20622258.980       30703.667         500.808           0.255  
G15  22811315.325     -145127.553       -3485.189           0.232  
> 2022 01 01 00 01 32.7688020  0  2                     
G10  20622249.332       30753.623         498.296           0.255  
G15  22811380.429     -145476.125       -3576.200           0.232  
> 2022 01 01 00 01 32.8688020  0  2                     
G10  20622238.132                                           0.254  
G15  22811449.003     -145824.986       -3492.315           0.232  
> 2022 01 01 00 01 33.0688020  0  2                     
G10  20622219.627       30903.522         504.008           0.254  
G15  22811582.221     -146521.777       -3486.972           0.232  
> 2022 01 01 00 01 33.1688020  0  2                     
G10  20622211.722       30953.475         506.057           0.254  
G15  22811643.208     -146870.319       -3488.480           0.232  
> 2022 01 01 00 01 33.2688020  0  2                     
G10  20622200.987       31003.431         503.523           0.254  
G15  22811715.048     -147218.875       -3484.110           0.232  
> 2022 01 01 00 01 33.3688020  0  2                     
G10  20622191.357       31053.381         503.813           0.254  
G15  22811778.989     -147567.423       -3485.901           0.231  
> 2022 01 01 00 01 33.4688020  0  2                     
G10  20622182.369       31103.340         505.903           0.254  
G15  22811846.676     -147915.974       -3481.883           0.231  
> 2022 01 01 00 01 33.5688020  0  2                     
G10  20622172.580       31153.527         646.328           0.254  
G15  22811915.054     -148271.138      -11842.675           0.232  
> 2022 01 01 00 01 33.6688020  0  2                     
G10  20622163.998       31203.241         498.430           0.254  
G15  22811976.826     -148612.965       -3488.363           0.232  
> 2022 01 01 00 01 33.7688020  0  2                     
G10  20622152.513       31253.070         242.962           0.255  
G15  22812049.049     -148961.630       -3483.380           0.232  
> 2022 01 01 00 01 33.9688020  0  2                     
G10  20622135.188       31353.114         499.926           0.255  
G15  22812177.361     -149658.729       -3483.133           0.232  
> 2022 01 01 00 01 34.0688020  0  2                     
G10  20622124.608       31403.094         496.121           0.254  
G15  22812244.805     -150007.265       -3490.708           0.232  
> 2022 01 01 00 01 34.1688020  0  2                     
G10  20622116.369                                           0.254  
G15  22812310.912     -150356.125       -3483.489           0.232  
> 2022 01 01 00 01 34.2688020  0  2                     
G10  20622107.503       31502.998         493.857           0.254  
G15  22812378.724     -150705.204       -5117.465           0.232  
> 2022 01 01 00 01 34.3688020  0  2                     
G10  20622096.699       31552.959         497.816           0.254  
G15  22812443.328     -151052.907       -3485.981           0.232  
> 2022 01 01 00 01 34.4688020  0  2                     
G10  20622087.964       31602.911         495.323           0.254  
G15  22812510.031     -151401.448       -3482.654           0.232  
> 2022 01 01 00 01 34.6688020  0  2                     
G10  20622066.911       31702.822         497.993           0.254  
G15  22812643.281     -152098.535       -3485.307           0.232  
> 2022 01 01 00 01 34.7688020  0  2                     
G10  20622058.864       31752.783         498.201           0.254  
G15  22812705.492     -152447.075       -3485.800           0.232  
> 2022 01 01 00 01 34.8688020  0  2                     
G10  20622048.883       31802.611         239.590           0.254  
G15  22812780.514     -152785.948       18440.674           0.232  
> 2022 01 01 00 01 34.9688020  0  2                     
G10  20622039.683       31852.701         499.022           0.255  
G15  22812839.899     -153144.157       -3483.776           0.232  
> 2022 01 01 00 01 35.1688020  0  2                     
G10  20622020.520       31952.625         497.913           0.255  
G15  22812977.619     -153841.215       -3458.911           0.232  
> 2022 01 01 00 01 35.2688020  0  2                     
G10  20622011.286       32002.597         493.624           0.254  
G15  22813038.409     -154189.782       -3486.184           0.231  
> 2022 01 01 00 01 35.3688020  0  2                     
G10  20622000.527       32052.594         506.083           0.254  
G15  22813109.897     -154538.330       -3489.844           0.231  
> 2022 01 01 00 01 35.4688020  0  2                     
G10  20621991.939       32102.546         504.429           0.254  
G15  22813172.546     -154886.863       -3482.150           0.232  
> 2022 01 01 00 01 35.5688020  0  2                     
G10  20621981.490       32152.510         505.816           0.254  
G15  22813242.265     -155235.403       -3482.759           0.232  
> 2022 01 01 00 01 35.6688020  0  2                     
G10  20621973.551       32202.469         504.186           0.254  
G15  22813306.370     -155583.936       -3484.160           0.232  
> 2022 01 01 00 01 35.7688020  0  2                     
G10  20621964.083       32252.427         501.546           0.254  
G15  22813375.130     -155932.479       -3484.334           0.232  
> 2022 01 01 00 01 35.8688020  0  2                     
G10  20621955.725       32302.391         502.077           0.254  
G15  22813437.752     -156281.016       -3486.480           0.231  
> 2022 01 01 00 01 35.9688020  0  2                     
G10  20621945.073                                           0.254  
G15  22813510.373     -156629.884       -3487.789           0.232  
> 2022 01 01 00 01 36.1688020  0  6                     
G10  22539983.039       32449.061         480.019           0.254  
G15  24731691.984     -157304.350       -3513.746           0.232  
G18  20626728.494       -1745.497        -175.731           0.255  
G23  21993253.011       -7620.984        -379.516           0.255  
G24  22272612.677       -9530.364        -493.135           0.252  
G25  25856782.248        3631.939       -1476.090           0.227  
> 2022 01 01 00 01 36.2688020  0  6                     
G10  22539974.725       32498.988         402.028           0.255  
G15  24731757.180     -157652.901       -3345.617           0.232  
G18  20626729.515       -1751.550          49.116           0.255  
G23  21993259.882       -7658.542        -170.519           0.255  
G24  22272624.557       -9585.566        -273.074           0.252  
G25  25856779.506        3653.002         549.304           0.227  
> 2022 01 01 00 01 36.3688020  0  6                     
G10  22539962.423       32548.979         451.739           0.255  
G15  24731830.353     -158001.415       -3510.267           0.232  
G18  20626730.729       -1757.765         -47.586           0.255  
G23  21993267.628       -7696.242        -308.062           0.255  
G24  22272632.198       -9640.839        -600.179           0.252  
G25  25856776.796        3673.704         536.449           0.227  
> 2022 01 01 00 01 36.6688020  0  6                     
G10  22539935.430       32698.942         521.656           0.254  
G15  24732028.091     -159047.042       -3508.945           0.231  
G18  20626733.694       -1776.218         -62.728           0.255  
G23  21993289.004       -7809.250        -376.860           0.255  
G24  22272665.628       -9806.355         -82.857           0.252  
G25  25856761.737        3734.508         578.504           0.227  
> 2022 01 01 00 01 37.1688020  0  6                     
G10  22539889.062       32948.827         461.730           0.254  
G15  24732356.617     -160787.905       -3510.128           0.232  
G18  20626740.500                                           0.255  
G23  21993325.821       -7997.268        -401.786           0.255  
G24  22272716.729                                           0.252  
G25  25856741.349        3836.470         456.112           0.226  
> 2022 01 01 00 01 37.2688020  0  6                     
G10  22539877.249                                           0.254  
G15  24732423.383                                           0.232  
G18  20626741.155                                           0.255  
G23  21993332.994                                           0.255  
G24  22272731.579                                           0.252  
G25  25856741.937                                           0.227  
> 2022 01 01 00 01 37.3688020  0  6                     
G10  22539868.477       33048.839         594.446           0.254  
G15  24732489.679     -161484.967       -3528.788           0.232  
G18  20626742.657                                           0.255  
G23  21993340.498                                           0.255  
G24  22272738.185      -10193.513        -512.675           0.252  
G25  25856739.859        3877.155         189.873           0.227  
> 2022 01 01 00 01 37.5688020  0  6                     
G10  22539851.740       33148.618         495.902           0.254  
G15  24732617.367     -162183.864       -3636.821           0.231  
G18  20626744.928       -1831.861         -61.182           0.255  
G23  21993353.348       -8148.079        -376.894           0.255  
G24  22272761.048      -10303.959        -549.728           0.252  
G25  25856727.794        3917.512        -148.949           0.226  
> 2022 01 01 00 01 37.7688020  0  6                     
G10  22539831.315                                           0.254  
G15  24732755.340                                           0.232  
G18  20626747.030                                           0.255  
G23  21993368.186                                           0.255  
G24  22272780.323                                           0.252  
G25  25856722.804                                           0.227  
> 2022 01 01 00 01 37.8688020  0  6                     
G10  22539820.207       33298.522         502.217           0.254  
G15  24732826.336     -163229.563       -3776.142           0.231  
G18  20626748.180       -1850.498         -61.591           0.255  
G23  21993375.583       -8261.077        -530.060           0.255  
G24  22272789.957      -10469.652        -288.430           0.252  
G25  25856716.199        3978.758         -81.215           0.227  
> 2022 01 01 00 01 37.9688020  0  6                     
G10  22539813.834                                           0.254  
G15  24732886.687                                           0.232  
G18  20626750.346                                           0.255  
G23  21993382.799                                           0.255  
G24  22272801.583                                           0.252  
G25  25856715.462                                           0.226  
> 2022 01 01 00 01 38.0688020  0  6                     
G10  22539802.090       33398.561         516.656           0.254  
G15  24732952.133     -164029.204       -3402.875           0.231  
G18  20626750.539                                           0.255  
G23  21993388.351       -8336.087        -366.357           0.255  
G24  22272812.321                                           0.252  
G25  25856708.161        4019.994         204.100           0.226  
> 2022 01 01 00 01 38.1688020  0  6                     
G10  22539793.183       33448.573         518.908           0.255  
G15  24733016.501     -164274.819       -3420.548           0.232  
G18  20626751.847       -1869.135          34.472           0.255  
G23  21993397.157       -8374.035        -540.939           0.255  
G24  22272821.800      -10635.841        -553.076           0.252  
G25  25856702.787        4040.110        -378.195           0.227  
> 2022 01 01 00 01 38.4688020  0  6                     
G10  22539765.646       33596.861       -2482.205           0.254  
G15  24733216.843     -165320.434       -3295.068           0.233  
G18  20626755.185       -1887.882         -45.605           0.255  
G23  21993419.433       -8487.179        -884.539           0.255  
G24  22272853.905      -10801.857        -648.892           0.252  
G25  25856692.266        4101.387        -420.679           0.227  
> 2022 01 01 00 01 38.5688020  0  6                     
G10  22539754.290       33649.018        1851.167           0.254  
G15  24733283.185     -165668.731       -3175.893           0.232  
G18  20626756.432       -1894.158         -87.962           0.255  
G23  21993425.548       -8524.536        -311.011           0.255  
G24  22272863.693      -10857.386        -774.304           0.252  
G25  25856688.685        4122.011          30.697           0.227  
> 2022 01 01 00 01 38.6688020  0  6                     
G10  22539745.393       33697.810        -387.513           0.254  
G15  24733352.418     -166017.449       -3387.262           0.231  
G18  20626758.332       -1900.312          71.980           0.255  
G23  21993433.292       -8562.234        -358.253           0.255  
G24  22272874.590      -10912.570        -625.896           0.252  
G25  25856689.218        4142.538          -8.455           0.227  
> 2022 01 01 00 01 38.7688020  0  6                     
G10  22539738.329       33748.166         216.374           0.254  
G15  24733413.856     -166366.030       -3793.027           0.232  
G18  20626759.629       -1906.596          30.865           0.255  
G23  21993440.273       -8599.860        -425.564           0.255  
G24  22272885.225      -10967.850        -393.675           0.252  
G25  25856681.633        4162.709        -384.445           0.227  
> 2022 01 01 00 01 38.8688020  0  6                     
G10  22539725.795       33798.229         471.724           0.254  
G15  24733484.240     -166714.589       -3483.332           0.232  
G18  20626759.776       -1912.913         -55.184           0.255  
G23  21993446.525       -8637.475        -434.219           0.255  
G24  22272895.890      -11023.212        -384.646           0.252  
G25  25856677.233        4182.920       -1067.880           0.227  
> 2022 01 01 00 01 38.9688020  0  6                     
G10  22539714.750                                           0.254  
G15  24733553.084     -167061.380       -3472.288           0.232  
G18  20626761.740                                           0.255  
G23  21993453.616       -8674.884        -376.774           0.255  
G24  22272908.524      -11078.858        -553.898           0.252  
G25  25856677.438                                           0.227  
> 2022 01 01 00 01 39.1688020  0  6                     
G10  22539696.547       33947.460        -721.753           0.254  
G15  24733685.091     -167760.049       -2990.247           0.232  
G18  20626763.435       -1931.735         -63.570           0.255  
G23  21993470.475       -8750.339        -301.069           0.255  
G24  22272927.130      -11189.312         -39.751           0.252  
G25  25856664.769        4244.579         -52.691           0.226  
> 2022 01 01 00 01 39.2688020  0  6                     
G10  22539688.705       33997.755        -199.179           0.254  
G15  24733750.143     -168108.710       -3535.188           0.232  
G18  20626765.080       -1937.931         -39.409           0.255  
G23  21993475.692       -8788.088        -392.435           0.255  
G24  22272938.436      -11244.074         925.941           0.252  
G25  25856664.690        4265.091         219.678           0.227  
> 2022 01 01 00 01 39.3688020  0  6                     
G10  22539676.177       34048.429        1363.140           0.254  
G15  24733815.354     -168457.190       -3257.073           0.232  
G18  20626766.303       -1944.206         137.346           0.255  
G23  21993483.265       -8825.781        -449.064           0.255  
G24  22272949.232      -11300.199        -390.407           0.252  
G25  25856662.684        4285.744         372.000           0.227  
> 2022 01 01 00 01 39.4688020  0  6                     
G10  22539668.696       34097.980         150.601           0.254  
G15  24733883.394     -168805.685       -3523.589           0.232  
G18  20626767.342       -1950.642        -176.925           0.255  
G23  21993489.814       -8863.386        -446.010           0.255  
G24  22272960.001      -11355.676        -562.686           0.252  
G25  25856658.198        4306.500         607.699           0.226  
> 2022 01 01 00 01 39.5688020  0  6                     
G10  22539657.620                                           0.254  
G15  24733950.891                                           0.231  
G18  20626768.457                                           0.255  
G23  21993496.164                                           0.255  
G24  22272970.581                                           0.252  
G25  25856653.058                                           0.227  
> 2022 01 01 00 01 39.6688020  0  6                     
G10  22539650.051       34198.030         484.408           0.254  
G15  24734012.799     -169502.652       -3364.993           0.231  
G18  20626769.576       -1963.181          83.304           0.255  
G23  21993504.645       -8938.577        -303.226           0.255  
G24  22272980.438      -11466.497        -536.627           0.252  
G25  25856649.123        4346.840        -654.888           0.227  
> 2022 01 01 00 01 39.7688020  0  6                     
G10  22539639.896       34248.005         498.753           0.254  
G15  24734080.973     -169851.174       -3337.646           0.232  
G18  20626770.709       -1969.509        -111.208           0.255  
G23  21993511.451       -8976.262        -371.975           0.255  
G24  22272991.843      -11521.931        -555.460           0.252  
G25  25856642.988        4367.199        -741.566           0.227  
> 2022 01 01 00 01 39.8688020  0  6                     
G10  22539627.595       34297.880         393.243           0.255  
G15  24734148.679     -170200.483       -5121.778           0.232  
G18  20626772.073       -1975.740          -1.549           0.255  
G23  21993518.591       -9014.115        -640.555           0.255  
G24  22273003.271      -11577.360        -552.765           0.252  
G25  25856638.647        4388.281         242.145           0.227  
> 2022 01 01 00 01 39.9688020  0  6                     
G10  22539622.391       34348.186         949.713           0.254  
G15  24734213.202     -170548.351       -3605.434           0.232  
G18  20626773.077       -1982.153         -94.686           0.255  
G23  21993526.448       -9051.549        -386.647           0.255  
G24  22273012.390      -11632.731        -398.384           0.252  
G25  25856635.823        4408.920         876.879           0.227  
> 2022 01 01 00 01 40.0688020  0  6                     
G10  22539611.452                                           0.255  
G15  24734280.799     -170895.063       -3484.109           0.231  
G18  20626774.313                                           0.255  
G23  21993532.022                                           0.255  
G24  22273021.828                                           0.252  
G25  25856630.934                                           0.226  
> 2022 01 01 00 01 40.1688020  0  6                     
G10  22539602.710       34447.891         407.926           0.255  
G15  24734350.765     -171245.462       -3984.161           0.232  
G18  20626775.665       -1994.749         -49.932           0.255  
G23  21993540.328       -9126.785        -391.537           0.255  
G24  22273034.005      -11743.957        -993.003           0.252  
G25  25856629.510        4449.242        -567.830           0.227  
> 2022 01 01 00 01 40.2688020  0  6                     
G10  22539595.069       34497.840         382.224           0.254  
G15  24734407.269     -171594.349       -4279.919           0.232  
G18  20626777.001       -2001.046          74.955           0.255  
G23  21993546.808       -9164.458        -373.562           0.255  
G24  22273046.826      -11799.144        -596.070           0.252  
G25  25856625.720        4470.136         143.396           0.227  
> 2022 01 01 00 01 40.3688020  0  6                     
G10  22539582.177       34548.424        1714.302           0.254  
G15  24734479.376     -171942.231       -3369.141           0.232  
G18  20626778.166       -2007.420         -47.568           0.255  
G23  21993554.694       -9202.158        -513.831           0.255  
G24  22273055.499      -11854.553        -460.121           0.252  
G25  25856618.302        4490.240        -623.819           0.226  
> 2022 01 01 00 01 40.4688020  0  6                     
G10  22539574.933       34597.886         551.675           0.254  
G15  24734546.776     -172290.889       -3543.419           0.232  
G18  20626779.278       -2013.803         -91.384           0.255  
G23  21993561.940       -9239.752        -376.881           0.255  
G24  22273064.951      -11910.282        -925.050           0.252  
G25  25856618.214        4511.200         379.127           0.227  
> 2022 01 01 00 01 40.5688020  0  6                     
G10  22539563.494                                           0.254  
G15  24734611.948     -172637.662       -3528.172           0.232  
G18  20626780.708                                           0.255  
G23  21993568.334       -9277.154        -387.684           0.255  
G24  22273075.832                                           0.251  
G25  25856612.792        4534.623         150.874           0.227  
> 2022 01 01 00 01 40.6688020  0  6                     
G10  22539554.417                                           0.254  
G15  24734681.413     -173014.032       -3500.718           0.232  
G18  20626781.565                                           0.255  
G23  21993576.213                                           0.255  
G24  22273085.255                                           0.252  
G25  25856607.319                                           0.227  
> 2022 01 01 00 01 40.7688020  0  6                     
G10  22539543.514                                           0.254  
G15  24734748.719                                           0.231  
G18  20626782.915                                           0.255  
G23  21993582.702                                           0.255  
G24  22273095.472                                           0.252  
G25  25856604.152                                           0.227  
> 2022 01 01 00 01 40.8688020  0  6                     
G10  22539535.943                                           0.255  
G15  24734811.232                                           0.232  
G18  20626784.873                                           0.255  
G23  21993591.434                                           0.255  
G24  22273107.145      -12132.209        -583.888           0.252  
G25  25856599.422                                           0.227  
> 2022 01 01 00 01 40.9688020  0  6                     
G10  22539528.235                                           0.254  
G15  24734874.496                                           0.232  
G18  20626785.274                                           0.255  
G23  21993597.306                                           0.255  
G24  22273118.314                                           0.252  
G25  25856597.054                                           0.227  
> 2022 01 01 00 01 41.0688020  0  6                     
G10  22539516.097       34898.200        1309.073           0.254  
G15  24734947.055     -174381.839       -3526.512           0.232  
G18  20626787.157       -2051.824         -11.658           0.255  
G23  21993604.707       -9465.612        -452.288           0.255  
G24  22273127.845      -12245.055       -4057.264           0.252  
G25  25856592.516        4634.432         616.649           0.227  
> 2022 01 01 00 01 41.1688020  0  6                     
G10  22539508.301                                           0.254  
G15  24735007.645                                           0.233  
G18  20626788.963                                           0.255  
G23  21993610.618                                           0.255  
G24  22273139.480                                           0.252  
G25  25856588.941                                           0.227  
> 2022 01 01 00 01 41.3688020  0  6                     
G10  22539488.144       35061.711         404.286           0.254  
G15  24735142.173                                           0.232  
G18  20626790.487                                           0.255  
G23  21993626.180                                           0.255  
G24  22273158.280                                           0.252  
G25  25856581.003        4696.003         206.028           0.227  
> 2022 01 01 00 01 41.5688020  0  6                     
G10  22539467.166                                           0.254  
G15  24735276.277     -176150.601       -3467.985           0.231  
G18  20626792.730                                           0.255  
G23  21993639.964                                           0.255  
G24  22273180.196      -12520.808        -556.062           0.252  
G25  25856572.269                                           0.227  
> 2022 01 01 00 01 41.7688020  0  6                     
G10  22539448.671       35247.588         497.961           0.255  
G15  24735411.606     -176821.454       -3464.202           0.232  
G18  20626795.312       -2096.608         -28.758           0.255  
G23  21993653.980       -9729.055        -376.651           0.255  
G24  22273203.243      -12631.772        -396.806           0.252  
G25  25856563.992        4778.115         -32.309           0.227  
> 2022 01 01 00 01 41.8688020  0  6                     
G10  22539442.198       35297.765         886.103           0.254  
G15  24735469.445     -177169.831       -3575.672           0.232  
G18  20626796.325       -2103.087        -238.985           0.255  
G23  21993660.838       -9766.716        -363.037           0.255  
G24  22273212.681      -12687.188        -391.050           0.252  
G25  25856560.336        4798.862         378.199           0.227  
> 2022 01 01 00 01 41.9688020  0  6                     
G10  22539430.535       35347.499         384.065           0.255  
G15  24735544.050     -177518.453       -3400.543           0.233  
G18  20626797.760       -2109.360         187.697           0.255  
G23  21993667.307       -9804.224        -129.725           0.255  
G24  22273225.465      -12742.981        -799.366           0.252  
G25  25856558.931        4819.324          28.084           0.227  
> 2022 01 01 00 01 42.0688020  0  6                     
G10  22539420.586       35397.394         262.098           0.255  
G15  24735608.927     -177867.006       -3560.993           0.233  
G18  20626798.881       -2115.830         -53.189           0.255  
G23  21993676.541       -9841.955        -398.523           0.255  
G24  22273233.256      -12798.419        -568.019           0.252  
G25  25856552.848        4840.007         528.837           0.227  
> 2022 01 01 00 01 42.1688020  0  6                     
G10  22539411.957       35447.497         473.507           0.255  
G15  24735676.970     -178215.502       -3508.095           0.233  
G18  20626800.099       -2122.322        -161.957           0.255  
G23  21993683.956       -9879.591        -376.721           0.255  
G24  22273243.822      -12853.985        -554.693           0.252  
G25  25856550.306        4860.539        -124.293           0.226  
> 2022 01 01 00 01 42.2688020  0  6                     
G10  22539401.028       35511.569         463.279           0.254  
G15  24735737.517                                           0.232  
G18  20626801.413                                           0.255  
G23  21993690.572       -9916.973        -372.692           0.255  
G24  22273254.688                                           0.252  
G25  25856543.597        4881.120         244.505           0.227  
> 2022 01 01 00 01 42.5688020  0  6                     
G10  22539374.148       35647.529         687.292           0.255  
G15  24735938.893     -179609.471       -3468.563           0.231  
G18  20626805.261       -2148.060        -172.057           0.255  
G23  21993712.091      -10029.986        -254.364           0.255  
G24  22273286.879      -13076.340        -558.234           0.252  
G25  25856534.151        4942.668          87.442           0.227  
> 2022 01 01 00 01 42.7688020  0  6                     
G10  22539353.921       35747.629         648.077           0.255  
G15  24736069.641     -180306.211       -4343.227           0.231  
G18  20626807.590       -2160.740         155.454           0.255  
G23  21993726.370      -10105.419        -480.953           0.255  
G24  22273308.110      -13187.474        -262.661           0.252  
G25  25856526.807        4984.028         166.882           0.227  
> 2022 01 01 00 01 42.8688020  0  6                     
G10  22539348.179       35797.418         489.316           0.254  
G15  24736131.511     -180655.033       -3556.088           0.231  
G18  20626808.528       -2167.301         -54.364           0.255  
G23  21993733.290      -10143.142        -533.313           0.255  
G24  22273317.676      -13243.287        -759.221           0.252  
G25  25856520.588        5004.558          61.083           0.227  
> 2022 01 01 00 01 42.9688020  0  6                     
G10  22539332.813                                           0.254  
G15  24736208.640                                           0.231  
G18  20626809.394                                           0.255  
G23  21993740.154                                           0.255  
G24  22273330.431                                           0.252  
G25  25856517.339                                           0.227  
> 2022 01 01 00 01 43.1688020  0  6                     
G10  22539316.838       35947.387         510.160           0.254  
G15  24736334.567     -181700.963       -4564.438           0.232  
G18  20626812.695       -2186.711         -65.895           0.255  
G23  21993754.355      -10256.052        -474.940           0.255  
G24  22273352.729      -13410.050        -558.763           0.252  
G25  25856512.031        5066.795         701.431           0.226  
> 2022 01 01 00 01 43.4688020  0  6                     
G10  22539287.298       36096.756        -554.753           0.254  
G15  24736536.618     -182745.853       -3228.454           0.232  
G18  20626815.985       -2206.073          39.857           0.255  
G23  21993776.252      -10368.834        -340.861           0.255  
G24  22273380.638      -13581.793       -6633.252           0.252  
G25  25856496.057        5128.444         380.627           0.227  
> 2022 01 01 00 01 43.5688020  0  6                     
G10  22539279.471                                           0.254  
G15  24736599.511                                           0.231  
G18  20626817.285                                           0.255  
G23  21993782.669                                           0.255  
G24  22273393.769                                           0.252  
G25  25856492.429                                           0.227  
> 2022 01 01 00 01 43.6688020  0  6                     
G10  22539269.568       36197.241         341.183           0.254  
G15  24736667.752     -183442.803       -3194.466           0.232  
G18  20626818.280       -2219.064         -13.615           0.255  
G23  21993788.377      -10444.105        -379.043           0.255  
G24  22273403.390      -13688.289        -711.717           0.252  
G25  25856490.506        5169.500         161.210           0.227  
> 2022 01 01 00 01 43.7688020  0  6                     
G10  22539258.264                                           0.254  
G15  24736733.171                                           0.232  
G18  20626819.584                                           0.255  
G23  21993795.713      -10481.480        -357.318           0.255  
G24  22273413.100      -13744.101        -528.377           0.252  
G25  25856485.970        5190.208         200.711           0.227  
> 2022 01 01 00 01 43.8688020  0  6                     
G10  22539249.508       36297.804        1471.549           0.254  
G15  24736798.057     -184139.991       -3541.285           0.232  
G18  20626821.216       -2232.025          82.610           0.255  
G23  21993804.978      -10524.372       -8097.942           0.255  
G24  22273425.610      -13799.634        -571.239           0.252  
G25  25856482.032        5210.929         739.697           0.226  
> 2022 01 01 00 01 43.9688020  0  6                     
G10  22539240.724       36347.319         395.135           0.254  
G15  24736868.757                                           0.231  
G18  20626822.025                                           0.255  
G23  21993811.828                                           0.255  
G24  22273434.112                                           0.252  
G25  25856479.384        5231.583         341.934           0.227  
> 2022 01 01 00 01 44.0688020  0  6                     
G10  22539230.751       36397.351         463.337           0.254  
G15  24736934.910     -184835.245       -3515.095           0.231  
G18  20626823.582                                           0.255  
G23  21993819.185                                           0.255  
G24  22273444.350      -13911.150        -543.744           0.252  
G25  25856475.560                                           0.227  
> 2022 01 01 00 01 44.1688020  0  6                     
G10  22539222.351                                           0.254  
G15  24737002.375                                           0.231  
G18  20626824.722                                           0.255  
G23  21993826.993                                           0.255  
G24  22273454.649                                           0.253  
G25  25856472.476                                           0.227  
> 2022 01 01 00 01 44.2688020  0  6                     
G10  22539214.506       36497.248         504.652           0.254  
G15  24737059.975     -185533.948       -3488.876           0.232  
G18  20626825.701       -2258.148         -67.218           0.255  
G23  21993835.071      -10669.901        -422.728           0.255  
G24  22273467.410      -14022.247        -428.995           0.251  
G25  25856466.271        5293.134        -380.287           0.227  
> 2022 01 01 00 01 44.3688020  0  6                     
G10  22539201.744                                           0.254  
G15  24737139.099                                           0.231  
G18  20626826.975                                           0.255  
G23  21993841.081                                           0.255  
G24  22273478.637                                           0.252  
G25  25856463.237                                           0.227  
> 2022 01 01 00 01 44.4688020  0  6                     
G10  22539194.542       36597.506        1426.486           0.254  
G15  24737194.857     -186230.962       -3588.444           0.231  
G18  20626828.608       -2271.132          77.424           0.255  
G23  21993848.937      -10745.067        -278.704           0.255  
G24  22273487.057      -14133.552         -84.678           0.252  
G25  25856458.431        5334.421         -86.446           0.226  
> 2022 01 01 00 01 44.5688020  0  6                     
G10  22539184.873                                           0.254  
G15  24737264.881                                           0.231  
G18  20626829.718                                           0.255  
G23  21993855.312                                           0.255  
G24  22273501.689                                           0.252  
G25  25856454.618        5355.475         141.317           0.227  
> 2022 01 01 00 01 44.8688020  0  6                     
G10  22539153.752       36797.264         452.181           0.254  
G15  24737465.136     -187623.165       -3485.859           0.232  
G18  20626835.441                                           0.255  
G23  21993876.854                                           0.255  
G24  22273529.951                                           0.252  
G25  25856443.214                                           0.227  
> 2022 01 01 00 01 44.9688020  0  6                     
G10  22539144.901                                           0.254  
G15  24737527.992                                           0.232  
G18  20626834.728                                           0.255  
G23  21993884.044                                           0.255  
G24  22273540.256      -14412.542        -549.980           0.252  
G25  25856439.338                                           0.227  
> 2022 01 01 00 01 45.0688020  0  6                     
G10  22539135.341       36897.073         236.232           0.254  
G15  24737602.386     -188321.920       -3623.008           0.232  
G18  20626835.850       -2310.478         -66.636           0.255  
G23  21993891.171      -10971.000        -440.430           0.255  
G24  22273550.285      -14467.962        -301.965           0.252  
G25  25856435.472        5458.873         412.605           0.227  
> 2022 01 01 00 01 45.1688020  0  6                     
G10  22539126.702       36947.382        1168.112           0.254  
G15  24737662.440     -188669.833       -2363.226           0.231  
G18  20626837.293       -2317.041         -83.874           0.255  
G23  21993898.873      -11008.560        -802.825           0.255  
G24  22273561.860      -14524.371       -1385.078           0.252  
G25  25856431.110        5479.829         401.845           0.227  
> 2022 01 01 00 01 45.2688020  0  6                     
G10  22539118.487                                           0.254  
G15  24737729.206     -189017.133       -3482.329           0.231  
G18  20626838.257                                           0.255  
G23  21993903.839                                           0.255  
G24  22273573.409                                           0.252  
G25  25856427.871        5504.355         202.572           0.227  
> 2022 01 01 00 01 45.3688020  0  6                     
G10  22539107.636       37047.332         947.115           0.254  
G15  24737794.440     -189366.497       -2954.962           0.232  
G18  20626840.088       -2330.182         -60.395           0.255  
G23  21993912.863      -11083.779        -347.219           0.255  
G24  22273581.819      -14635.406        -555.676           0.252  
G25  25856422.947        5520.577         166.755           0.227  
> 2022 01 01 00 01 45.4688020  0  6                     
G10  22539098.099                                           0.254  
G15  24737866.367     -189714.115       -3480.404           0.232  
G18  20626841.279                                           0.255  
G23  21993919.681                                           0.255  
G24  22273592.231      -14691.334        -555.840           0.252  
G25  25856419.907                                           0.227  
> 2022 01 01 00 01 45.5688020  0  6                     
G10  22539088.560                                           0.254  
G15  24737928.973     -190062.596       -3486.528           0.232  
G18  20626841.991                                           0.255  
G23  21993927.852                                           0.255  
G24  22273606.903                                           0.252  
G25  25856415.829                                           0.227  
> 2022 01 01 00 01 45.6688020  0  6                     
G10  22539080.450       37201.231         518.794           0.254  
G15  24737995.263                                           0.232  
G18  20626842.743                                           0.255  
G23  21993933.899      -11196.440        -379.689           0.255  
G24  22273613.816                                           0.252  
G25  25856412.210                                           0.227  
> 2022 01 01 00 01 45.9688020  0  6                     
G10  22539051.437       37347.121         544.915           0.255  
G15  24738191.504     -191458.104       -3278.886           0.233  
G18  20626847.849       -2369.778        -237.283           0.255  
G23  21993955.572      -11309.554        -371.029           0.255  
G24  22273648.817      -14970.128        -587.392           0.252  
G25  25856399.273        5645.026        -129.383           0.227  
> 2022 01 01 00 01 46.0688020  0  6                     
G10  22539041.912                                           0.254  
G15  24738263.188                                           0.232  
G18  20626848.453                                           0.255  
G23  21993963.489      -11346.952        -378.091           0.255  
G24  22273657.492      -15026.068        -544.806           0.252  
G25  25856394.930                                           0.227  
> 2022 01 01 00 01 46.1688020  0  6                     
G10  22539030.910                                           0.255  
G15  24738334.699                                           0.232  
G18  20626849.958                                           0.255  
G23  21993969.250                                           0.255  
G24  22273668.691                                           0.253  
G25  25856390.295                                           0.227  
> 2022 01 01 00 01 46.3688020  0  6                     
G10  22539013.828       37547.930        2281.737           0.254  
G15  24738454.874     -192852.081       -3426.409           0.232  
G18  20626852.651       -2396.101          24.856           0.255  
G23  21993983.750      -11460.108        -501.525           0.255  
G24  22273692.220      -15193.288        -454.653           0.252  
G25  25856386.603        5728.174          89.756           0.227  
> 2022 01 01 00 01 46.5688020  0  6                     
G10  22538993.660                                           0.254  
G15  24738591.919                                           0.232  
G18  20626855.276                                           0.255  
G23  21993998.620                                           0.255  
G24  22273708.264                                           0.252  
G25  25856378.171                                           0.227  
> 2022 01 01 00 01 46.6688020  0  6                     
G10  22538984.620       37696.837         161.360           0.254  
G15  24738656.236     -193897.927       -4018.888           0.232  
G18  20626856.218       -2416.058        -135.600           0.255  
G23  21994005.604      -11579.502       -5866.625           0.255  
G24  22273718.214      -15360.866        -558.206           0.252  
G25  25856372.365        5790.375         322.742           0.227  
> 2022 01 01 00 01 46.7688020  0  6                     
G10  22538973.170       37746.951         245.355           0.255  
G15  24738730.087     -194245.964       -3406.022           0.232  
G18  20626856.978       -2422.641         -68.906           0.255  
G23  21994012.922      -11610.551        -402.472           0.255  
G24  22273731.481      -15416.739        -550.557           0.252  
G25  25856369.174        5811.381         774.858           0.227  
> 2022 01 01 00 01 46.8688020  0  6                     
G10  22538964.058       37797.063         483.271           0.255  
G15  24738794.200     -194594.537       -3514.454           0.232  
G18  20626858.061       -2429.324          -5.269           0.255  
G23  21994020.720      -11648.171        -397.896           0.255  
G24  22273744.359      -15472.688        -915.582           0.252  
G25  25856370.046        5832.207        -644.561           0.226  
> 2022 01 01 00 01 46.9688020  0  6                     
G10  22538955.227       37847.060         482.707           0.254  
G15  24738857.287     -194942.923       -3399.848           0.231  
G18  20626859.907       -2435.927         -40.516           0.255  
G23  21994026.616      -11685.196       -1284.774           0.255  
G24  22273753.559      -15532.338        2252.172           0.252  
G25  25856367.647        5852.495         224.518           0.226  
> 2022 01 01 00 01 47.0688020  0  6                     
G10  22538946.769                                           0.254  
G15  24738922.031                                           0.232  
G18  20626861.634                                           0.255  
G23  21994033.396                                           0.255  
G24  22273763.845                                           0.252  
G25  25856354.927        5873.383         299.456           0.227  
> 2022 01 01 00 01 47.2688020  0  6                     
G10  22538927.206       37997.053         445.307           0.254  
G15  24739054.657     -195988.451       -3536.262           0.232  
G18  20626863.503       -2455.918         -47.592           0.255  
G23  21994048.624      -11798.673        -392.358           0.255  
G24  22273786.261      -15695.938        -539.311           0.252  
G25  25856347.376        5913.375        -945.976           0.226  
> 2022 01 01 00 01 47.3688020  0  6                     
G10  22538917.165       38046.841        -224.824           0.254  
G15  24739118.937     -196336.867       -3416.156           0.232  
G18  20626864.770       -2462.559         -29.629           0.255  
G23  21994056.975      -11836.312        -414.024           0.255  
G24  22273796.754      -15751.776        -614.434           0.252  
G25  25856344.458        5934.724       -1205.199           0.226  
> 2022 01 01 00 01 47.4688020  0  6                     
G10  22538908.336       38096.795           3.815           0.254  
G15  24739185.481     -196685.335       -3428.161           0.231  
G18  20626865.937       -2469.257         -99.405           0.255  
G23  21994062.682      -11873.898        -376.936           0.255  
G24  22273808.156      -15807.783        -509.767           0.252  
G25  25856341.626        5955.860        -886.069           0.226  
> 2022 01 01 00 01 47.5688020  0  6                     
G10  22538898.574                                           0.254  
G15  24739252.225                                           0.232  
G18  20626867.581                                           0.255  
G23  21994069.819      -11911.268        -361.230           0.255  
G24  22273817.156      -15863.893        -593.635           0.252  
G25  25856337.173        5977.275         236.208           0.227  
> 2022 01 01 00 01 47.6688020  0  6                     
G10  22538890.703                                           0.255  
G15  24739317.063     -197380.665       -3428.343           0.232  
G18  20626868.727                                           0.255  
G23  21994077.363                                           0.255  
G24  22273825.820                                           0.252  
G25  25856333.572                                           0.227  
> 2022 01 01 00 01 47.7688020  0  6                     
G10  22538879.379       38246.816          62.641           0.255  
G15  24739384.524     -197730.360       -2382.158           0.232  
G18  20626870.077       -2489.304         -77.394           0.255  
G23  21994083.761      -11986.835        -482.794           0.255  
G24  22273841.043      -15975.405        -413.496           0.252  
G25  25856328.844        6019.007         642.964           0.227  
> 2022 01 01 00 01 47.9688020  0  6                     
G10  22538859.891       38347.063         499.245           0.254  
G15  24739518.908     -198427.445       -2683.478           0.231  
G18  20626871.974       -2502.796        -175.343           0.255  
G23  21994098.800      -12061.866        -298.833           0.255  
G24  22273861.199      -16087.378        -634.783           0.252  
G25  25856320.001        6060.359         -45.511           0.227  
> 2022 01 01 00 01 48.0688020  0  6                     
G10  22538850.295                                           0.254  
G15  24739584.462                                           0.231  
G18  20626873.468                                           0.255  
G23  21994106.163                                           0.255  
G24  22273871.758                                           0.252  
G25  25856317.077                                           0.227  
> 2022 01 01 00 01 48.1688020  0  6                     
G10  22538840.987       38447.156         495.251           0.254  
G15  24739651.706                                           0.232  
G18  20626875.086                                           0.255  
G23  21994112.617                                           0.255  
G24  22273880.579      -16199.386        -567.669           0.252  
G25  25856315.819                                           0.226  
> 2022 01 01 00 01 48.2688020  0  6                     
G10  22538831.004       38497.190         762.552           0.255  
G15  24739718.209     -199473.320       -3764.772           0.232  
G18  20626876.252       -2522.806        -160.176           0.255  
G23  21994120.809      -12174.861        -360.193           0.255  
G24  22273891.983      -16255.183        -705.143           0.252  
G25  25856307.048        6122.691         203.539           0.227  
> 2022 01 01 00 01 48.3688020  0  6                     
G10  22538823.634                                           0.255  
G15  24739785.166                                           0.232  
G18  20626877.695                                           0.255  
G23  21994127.366                                           0.255  
G24  22273903.441                                           0.252  
G25  25856307.150                                           0.226  
> 2022 01 01 00 01 48.4688020  0  6                     
G10  22538812.093                                           0.254  
G15  24739852.488                                           0.232  
G18  20626878.816                                           0.255  
G23  21994134.421      -12251.375        -373.572           0.255  
G24  22273912.685                                           0.252  
G25  25856301.275                                           0.226  
> 2022 01 01 00 01 48.5688020  0  6                     
G10  22538803.570       38647.098         614.056           0.255  
G15  24739920.589     -200517.846       -3048.606           0.232  
G18  20626880.064       -2542.960        -103.314           0.255  
G23  21994141.528      -12287.721        -452.157           0.255  
G24  22273924.385      -16422.790        -568.932           0.252  
G25  25856299.691        6185.299         181.324           0.227  
> 2022 01 01 00 01 48.6688020  0  6                     
G10  22538792.716       38696.985         340.096           0.254  
G15  24739982.982     -200866.893       -2898.552           0.231  
G18  20626881.235       -2549.664         -67.347           0.255  
G23  21994148.967      -12325.348        -397.629           0.255  
G24  22273934.697      -16478.906        -518.199           0.252  
G25  25856295.332        6206.410         889.783           0.227  
> 2022 01 01 00 01 48.7688020  0  6                     
G10  22538783.789                                           0.254  
G15  24740050.264     -201213.815       -3486.085           0.231  
G18  20626882.786                                           0.255  
G23  21994156.109                                           0.255  
G24  22273946.177                                           0.252  
G25  25856289.893                                           0.227  
> 2022 01 01 00 01 48.8688020  0  6                     
G10  22538774.182                                           0.254  
G15  24740117.104     -201562.295       -3506.171           0.232  
G18  20626884.098                                           0.255  
G23  21994164.153                                           0.255  
G24  22273956.635                                           0.252  
G25  25856284.959                                           0.227  
> 2022 01 01 00 01 48.9688020  0  6                     
G10  22538765.537       38847.056         398.199           0.254  
G15  24740178.435     -201912.279       -3333.364           0.231  
G18  20626885.349       -2569.873         -67.631           0.255  
G23  21994170.650      -12438.217        -354.220           0.255  
G24  22273965.501      -16646.890        -560.809           0.252  
G25  25856280.165        6268.534         381.050           0.226  
> 2022 01 01 00 01 49.0688020  0  6                     
G10  22538756.764       38897.100         500.730           0.254  
G15  24740246.232     -202260.929       -3523.453           0.231  
G18  20626886.650       -2576.618         -68.112           0.255  
G23  21994176.973      -12475.808        -374.921           0.255  
G24  22273978.304      -16702.878        -558.811           0.252  
G25  25856278.884        6288.946        -541.807           0.226  
> 2022 01 01 00 01 49.2688020  0  6                     
G10  22538737.252                                           0.254  
G15  24740379.653                                           0.232  
G18  20626889.239                                           0.255  
G23  21994191.046                                           0.255  
G24  22273998.549                                           0.252  
G25  25856266.483                                           0.227  
> 2022 01 01 00 01 49.3688020  0  6                     
G10  22538727.057       39047.146         400.129           0.255  
G15  24740444.310     -203304.663       -3464.427           0.232  
G18  20626890.159                                           0.255  
G23  21994201.863                                           0.255  
G24  22274009.043                                           0.252  
G25  25856267.553                                           0.226  
> 2022 01 01 00 01 49.4688020  0  6                     
G10  22538717.286       39097.162         561.703           0.254  
G15  24740514.782     -203654.796       -3570.366           0.232  
G18  20626891.919       -2603.651         -68.099           0.255  
G23  21994206.104      -12626.354        -377.806           0.255  
G24  22274020.798      -16926.885        -560.363           0.252  
G25  25856263.069        6372.963         840.303           0.226  
> 2022 01 01 00 01 49.6688020  0  6                     
G10  22538697.853       39197.263         558.768           0.254  
G15  24740650.887                                           0.232  
G18  20626894.118                                           0.255  
G23  21994220.628                                           0.255  
G24  22274040.776                                           0.252  
G25  25856252.572                                           0.227  
> 2022 01 01 00 01 49.7688020  0  6                     
G10  22538688.421       39247.269         543.095           0.254  
G15  24740711.200                                           0.232  
G18  20626895.285                                           0.255  
G23  21994226.836                                           0.255  
G24  22274052.190                                           0.252  
G25  25856248.197                                           0.226  
> 2022 01 01 00 01 49.8688020  0  6                     
G10  22538679.316       39296.805        -110.033           0.254  
G15  24740773.721     -205048.563       -3457.003           0.232  
G18  20626896.681       -2630.812        -125.517           0.255  
G23  21994234.082      -12776.782        -418.906           0.255  
G24  22274062.322      -17150.964        -693.975           0.252  
G25  25856246.430        6456.731         974.703           0.227  
> 2022 01 01 00 01 50.1688020  0  6                     
G10  22538650.000                                           0.254  
G15  24740979.021                                           0.231  
G18  20626900.823                                           0.255  
G23  21994257.359                                           0.255  
G24  22274094.861      -17319.277        -600.570           0.252  
G25  25856233.435        6518.882          71.908           0.227  
> 2022 01 01 00 01 50.2688020  0  6                     
G10  22538640.817       39498.069        2138.442           0.255  
G15  24741046.147     -206442.226       -3977.332           0.232  
G18  20626902.147       -2657.941         -67.315           0.255  
G23  21994262.824      -12927.343        -700.869           0.255  
G24  22274106.404      -17374.710         181.347           0.252  
G25  25856227.694        6539.524        -430.311           0.227  
> 2022 01 01 00 01 50.3688020  0  6                     
G10  22538634.064                                           0.254  
G15  24741111.112                                           0.231  
G18  20626903.513                                           0.255  
G23  21994271.411      -12964.598        -416.665           0.255  
G24  22274115.559                                           0.252  
G25  25856224.534                                           0.227  
> 2022 01 01 00 01 50.4688020  0  6                     
G10  22538621.894                                           0.254  
G15  24741177.592                                           0.232  
G18  20626904.063                                           0.255  
G23  21994277.923                                           0.255  
G24  22274126.348                                           0.252  
G25  25856222.346        6581.111        -119.434           0.226  
> 2022 01 01 00 01 50.6688020  0  6                     
G10  22538604.222                                           0.254  
G15  24741306.831                                           0.232  
G18  20626907.269                                           0.255  
G23  21994292.434      -13081.943        -376.720           0.255  
G24  22274148.486      -17599.572        -523.497           0.252  
G25  25856223.881                                           0.226  
> 2022 01 01 00 01 50.7688020  0  6                     
G10  22538593.977                                           0.254  
G15  24741378.967                                           0.231  
G18  20626908.677                                           0.255  
G23  21994299.292                                           0.255  
G24  22274157.763                                           0.252  
G25  25856210.820                                           0.226  
> 2022 01 01 00 01 50.8688020  0  6                     
G10  22538583.439       39797.365         585.726           0.254  
G15  24741442.564     -208615.190       -3499.155           0.232  
G18  20626909.657                                           0.255  
G23  21994305.765      -13152.634        -356.648           0.255  
G24  22274169.493                                           0.252  
G25  25856206.662        6665.069         145.252           0.227  
> 2022 01 01 00 01 50.9688020  0  6                     
G10  22538575.312                                           0.254  
G15  24741507.383                                           0.232  
G18  20626911.114                                           0.255  
G23  21994313.528                                           0.255  
G24  22274179.141                                           0.252  
G25  25856201.894        6688.961         233.290           0.227  
> 2022 01 01 00 01 51.0688020  0  6                     
G10  22538565.189       39897.268         504.013           0.254  
G15  24741575.537     -209230.118       -3518.473           0.232  
G18  20626912.468       -2712.541         -56.418           0.255  
G23  21994320.939      -13228.102        -375.719           0.255  
G24  22274189.748      -17823.808        -562.269           0.252  
G25  25856198.459        6706.938         122.464           0.227  
> 2022 01 01 00 01 51.1688020  0  6                     
G10  22538554.993                                           0.254  
G15  24741640.535                                           0.232  
G18  20626913.703                                           0.255  
G23  21994327.904                                           0.255  
G24  22274201.652                                           0.252  
G25  25856195.339        6727.822         193.215           0.227  
> 2022 01 01 00 01 51.2688020  0  6                     
G10  22538546.959                                           0.254  
G15  24741708.344     -209925.369       -3504.504           0.232  
G18  20626914.995                                           0.255  
G23  21994334.860                                           0.255  
G24  22274211.347      -17936.206        -560.817           0.252  
G25  25856191.309                                           0.227  
> 2022 01 01 00 01 51.3688020  0  6                     
G10  22538534.506       40046.733        -630.740           0.254  
G15  24741777.000     -210275.336       -3017.749           0.232  
G18  20626916.495       -2733.138        -168.970           0.255  
G23  21994341.311      -13341.114        -523.124           0.255  
G24  22274222.533      -17991.829         -58.204           0.252  
G25  25856184.327        6769.237        -479.763           0.227  
> 2022 01 01 00 01 51.4688020  0  6                     
G10  22538526.655       40070.221      -59303.797           0.254  
G15  24741842.828     -210624.053       -3502.642           0.232  
G18  20626917.862       -2740.038        -212.265           0.255  
G23  21994349.766      -13378.565        -441.098           0.255  
G24  22274235.402      -18048.392        -722.481           0.252  
G25  25856182.348        6789.976        -427.713           0.227  
> 2022 01 01 00 01 51.5688020  0  6                     
G10  22538518.513       40147.914        1584.713           0.254  
G15  24741906.217     -210972.383       -3491.623           0.232  
G18  20626919.752       -2746.794         -61.813           0.255  
G23  21994356.938      -13416.137        -405.601           0.255  
G24  22274244.405      -18104.423        -543.374           0.252  
G25  25856177.729        6811.329        -204.215           0.226  
> 2022 01 01 00 01 51.6688020  0  6                     
G10  22538508.243       40198.210        2286.780           0.254  
G15  24741973.803     -211320.694       -3312.812           0.232  
G18  20626919.885       -2753.667         -94.708           0.255  
G23  21994362.279      -13453.804        -384.637           0.255  
G24  22274252.853      -18160.548        -556.872           0.252  
G25  25856172.673        6832.916         795.277           0.227  
> 2022 01 01 00 01 51.9688020  0  6                     
G10  22538478.411       40347.295         307.796           0.254  
G15  24742172.426     -212366.175       -3498.464           0.231  
G18  20626924.157       -2774.307         -64.320           0.255  
G23  21994384.579      -13566.588        -374.152           0.255  
G24  22274287.265      -18328.799         302.988           0.252  
G25  25856162.109        6895.350         236.883           0.227  
> 2022 01 01 00 01 52.0688020  0  6                     
G10  22538470.234                                           0.254  
G15  24742237.355                                           0.232  
G18  20626925.548                                           0.255  
G23  21994392.573                                           0.255  
G24  22274297.083                                           0.252  
G25  25856158.329                                           0.227  
> 2022 01 01 00 01 52.2688020  0  6                     
G10  22538452.032                                           0.254  
G15  24742368.564                                           0.232  
G18  20626928.270                                           0.255  
G23  21994405.255                                           0.255  
G24  22274317.562                                           0.252  
G25  25856151.169                                           0.227  
> 2022 01 01 00 01 52.3688020  0  6                     
G10  22538442.119       40547.500         593.991           0.254  
G15  24742438.049     -213759.995       -3501.248           0.232  
G18  20626929.674       -2801.875         -31.275           0.255  
G23  21994414.460      -13717.054        -462.591           0.255  
G24  22274329.082      -18553.672        -492.158           0.252  
G25  25856146.414        6979.533        1065.954           0.227  
> 2022 01 01 00 01 52.6688020  0  6                     
G10  22538414.194                                           0.255  
G15  24742637.589                                           0.231  
G18  20626932.889                                           0.255  
G23  21994435.581                                           0.255  
G24  22274362.435                                           0.252  
G25  25856135.522                                           0.226  
> 2022 01 01 00 01 52.8688020  0  6                     
G10  22538393.486       40797.584         512.636           0.255  
G15  24742770.325                                           0.232  
G18  20626935.748                                           0.255  
G23  21994448.974                                           0.255  
G24  22274383.487                                           0.252  
G25  25856126.231                                           0.227  
> 2022 01 01 00 01 53.0688020  0  6                     
G10  22538373.665       40897.492         413.671           0.254  
G15  24742902.844     -216198.723       -3088.212           0.232  
G18  20626938.576       -2850.312          -8.823           0.255  
G23  21994463.491      -13980.221        -359.549           0.255  
G24  22274403.549      -18947.163        -559.489           0.252  
G25  25856117.349        7125.594        -557.763           0.227  
> 2022 01 01 00 01 53.1688020  0  6                     
G10  22538365.765       40947.671         705.293           0.255  
G15  24742970.259     -216547.526       -3667.395           0.232  
G18  20626939.865       -2857.294         -96.399           0.255  
G23  21994470.383      -14017.905        -422.845           0.255  
G24  22274413.671      -19003.395        -564.160           0.252  
G25  25856115.984        7147.272         588.952           0.227  
> 2022 01 01 00 01 53.2688020  0  6                     
G10  22538355.356                                           0.254  
G15  24743033.513                                           0.232  
G18  20626941.372                                           0.255  
G23  21994478.516                                           0.255  
G24  22274426.372                                           0.252  
G25  25856110.178                                           0.227  
> 2022 01 01 00 01 53.4688020  0  6                     
G10  22538338.199       41097.053        -664.124           0.254  
G15  24743168.209     -217593.541       -4593.455           0.232  
G18  20626944.008       -2878.111        -108.899           0.255  
G23  21994494.404      -14130.803        -486.561           0.255  
G24  22274446.549      -19171.367        1538.039           0.252  
G25  25856102.498        7210.111         360.950           0.227  
> 2022 01 01 00 01 53.5688020  0  6                     
G10  22538324.753                                           0.254  
G15  24743231.377                                           0.232  
G18  20626945.196                                           0.255  
G23  21994498.399                                           0.255  
G24  22274458.428      -19228.540        -518.365           0.252  
G25  25856099.037                                           0.227  
> 2022 01 01 00 01 53.6688020  0  6                     
G10  22538318.981                                           0.254  
G15  24743302.062                                           0.232  
G18  20626946.775                                           0.255  
G23  21994507.355      -14205.692        -396.465           0.255  
G24  22274466.969                                           0.252  
G25  25856093.222                                           0.227  
> 2022 01 01 00 01 53.8688020  0  6                     
G10  22538298.250       41297.682         492.483           0.254  
G15  24743435.947     -218986.610       -3760.770           0.232  
G18  20626949.262       -2906.049        -132.231           0.255  
G23  21994519.657      -14281.077        -225.987           0.255  
G24  22274490.126      -19399.291       -9274.720           0.252  
G25  25856085.578        7294.235         632.758           0.227  
> 2022 01 01 00 01 54.1688020  0  6                     
G10  22538271.228       41447.923         606.720           0.254  
G15  24743630.106                                           0.232  
G18  20626952.981                                           0.255  
G23  21994541.414                                           0.255  
G24  22274524.742                                           0.252  
G25  25856077.958        7357.214         329.362           0.227  
> 2022 01 01 00 01 54.2688020  0  6                     
G10  22538259.763       41497.833         439.969           0.254  
G15  24743694.536                                           0.232  
G18  20626954.281                                           0.255  
G23  21994547.349                                           0.255  
G24  22274535.898                                           0.252  
G25  25856074.514                                           0.226  
> 2022 01 01 00 01 54.3688020  0  6                     
G10  22538251.756       41547.852         446.505           0.254  
G15  24743762.161                                           0.232  
G18  20626955.818                                           0.255  
G23  21994558.221                                           0.255  
G24  22274542.520                                           0.252  
G25  25856068.761                                           0.226  
> 2022 01 01 00 01 54.4688020  0  6                     
G10  22538240.859                                           0.254  
G15  24743830.445     -221075.641       -3515.036           0.232  
G18  20626957.401                                           0.255  
G23  21994565.296      -14506.512        -374.668           0.255  
G24  22274553.971                                           0.252  
G25  25856062.977                                           0.227  
> 2022 01 01 00 01 54.5688020  0  6                     
G10  22538233.346                                           0.254  
G15  24743893.144                                           0.231  
G18  20626958.528                                           0.255  
G23  21994570.373                                           0.255  
G24  22274566.103                                           0.252  
G25  25856057.424                                           0.227  
> 2022 01 01 00 01 54.6688020  0  6                     
G10  22538222.712       41697.857         494.957           0.254  
G15  24743963.419     -221773.864       -3332.436           0.232  
G18  20626959.588       -2961.949         -66.152           0.255  
G23  21994578.659      -14581.945        -321.965           0.255  
G24  22274576.444      -19847.579        -565.998           0.252  
G25  25856052.867        7462.400         356.134           0.227  
> 2022 01 01 00 01 54.7688020  0  6                     
G10  22538212.622       41747.878         491.768           0.254  
G15  24744029.842     -222122.692       -3644.647           0.231  
G18  20626961.044       -2968.976         -97.166           0.255  
G23  21994584.604      -14619.547        -385.683           0.255  
G24  22274586.647      -19903.901        -489.105           0.252  
G25  25856051.792        7483.673         540.641           0.227  
> 2022 01 01 00 01 54.8688020  0  6                     
G10  22538204.421                                           0.254  
G15  24744092.391                                           0.232  
G18  20626962.613                                           0.255  
G23  21994591.624                                           0.255  
G24  22274595.433                                           0.252  
G25  25856046.071        7504.498         185.569           0.227  
> 2022 01 01 00 01 55.1688020  0  6                     
G10  22538175.048       41948.044         517.783           0.254  
G15  24744292.741                                           0.232  
G18  20626966.411                                           0.255  
G23  21994612.133                                           0.255  
G24  22274628.830                                           0.252  
G25  25856034.393        7567.695         248.146           0.227  
> 2022 01 01 00 01 55.2688020  0  6                     
G10  22538167.023                                           0.255  
G15  24744358.318                                           0.232  
G18  20626968.084                                           0.255  
G23  21994618.392                                           0.255  
G24  22274640.447                                           0.252  
G25  25856030.520                                           0.227  
> 2022 01 01 00 01 55.4688020  0  6                     
G10  22538144.150       42089.017      -16876.146           0.254  
G15  24744491.612     -224561.716       -3771.467           0.233  
G18  20626970.448       -3018.234         -55.234           0.255  
G23  21994639.916      -14882.834        -579.928           0.255  
G24  22274661.074      -20298.353        -476.680           0.252  
G25  25856020.987        7630.918         564.369           0.227  
> 2022 01 01 00 01 55.5688020  0  6                     
G10  22538137.636       42148.042         468.713           0.254  
G15  24744559.219     -224909.908       -3327.018           0.232  
G18  20626971.970       -3025.264         -49.117           0.255  
G23  21994643.598      -14920.355        -351.051           0.255  
G24  22274673.055      -20354.835        -483.942           0.252  
G25  25856018.536        7651.955         206.886           0.227  
> 2022 01 01 00 01 55.6688020  0  6                     
G10  22538127.537                                           0.254  
G15  24744629.938                                           0.231  
G18  20626973.138                                           0.255  
G23  21994648.520      -14957.739        -389.124           0.255  
G24  22274682.590                                           0.252  
G25  25856012.682                                           0.227  
> 2022 01 01 00 01 55.9688020  0  6                     
G10  22538098.616       42348.263         556.359           0.254  
G15  24744824.683                                           0.232  
G18  20626977.418                                           0.255  
G23  21994670.604                                           0.255  
G24  22274714.925                                           0.252  
G25  25856002.034                                           0.227  
> 2022 01 01 00 01 56.2688020  0  6                     
G10  22538069.688       42523.013       59165.215           0.254  
G15  24745023.243     -227349.012       -3566.448           0.232  
G18  20626981.604       -3074.704         108.805           0.255  
G23  21994693.085      -15183.583        -401.535           0.255  
G24  22274746.697      -20749.542        -568.585           0.252  
G25  25855989.342        7799.407         167.634           0.227  
> 2022 01 01 00 01 56.3688020  0  6                     
G10  22538060.884       42548.015          73.376           0.254  
G15  24745089.983     -227697.402       -3481.170           0.232  
G18  20626982.797       -3081.873         -85.660           0.255  
G23  21994699.943      -15221.125        -349.093           0.255  
G24  22274758.085      -20805.964        -556.808           0.252  
G25  25855986.384        7820.721         189.482           0.227  
> 2022 01 01 00 01 56.5688020  0  6                     
G10  22538041.959                                           0.254  
G15  24745222.349                                           0.232  
G18  20626985.663                                           0.255  
G23  21994713.567                                           0.255  
G24  22274780.015                                           0.252  
G25  25855976.414                                           0.227  
> 2022 01 01 00 01 56.7688020  0  6                     
G10  22538023.062                                           0.254  
G15  24745354.437                                           0.232  
G18  20626988.390                                           0.255  
G23  21994728.623      -15371.301        -356.321           0.255  
G24  22274800.007                                           0.252  
G25  25855970.652                                           0.227  
> 2022 01 01 00 01 56.8688020  0  6                     
G10  22538012.939                                           0.254  
G15  24745421.212     -229437.916       -3462.885           0.232  
G18  20626989.545                                           0.255  
G23  21994735.274                                           0.255  
G24  22274810.600                                           0.252  
G25  25855964.815                                           0.227  
> 2022 01 01 00 01 56.9688020  0  6                     
G10  22538004.466                                           0.255  
G15  24745488.577                                           0.232  
G18  20626990.846                                           0.255  
G23  21994743.735                                           0.255  
G24  22274821.875                                           0.252  
G25  25855962.260                                           0.227  
> 2022 01 01 00 01 57.3688020  0  6                     
G10  22537965.220       43048.641         489.867           0.255  
G15  24745750.567                                           0.232  
G18  20626995.946                                           0.255  
G23  21994771.380                                           0.255  
G24  22274865.703                                           0.252  
G25  25855945.578                                           0.227  
> 2022 01 01 00 01 57.4688020  0  6                     
G10  22537956.642       43098.678         477.958           0.254  
G15  24745816.129                                           0.232  
G18  20626997.784                                           0.255  
G23  21994777.990                                           0.255  
G24  22274876.200                                           0.252  
G25  25855941.274                                           0.227  
> 2022 01 01 00 01 57.7688020  0  6                     
G10  22537927.008                                           0.254  
G15  24746017.363                                           0.232  
G18  20627001.643                                           0.255  
G23  21994799.071      -15747.282        -391.612           0.255  
G24  22274908.788      -21596.694        -583.216           0.252  
G25  25855929.460                                           0.227  
> 2022 01 01 00 01 57.8688020  0  6                     
G10  22537918.611                                           0.254  
G15  24746087.399                                           0.231  
G18  20627003.427                                           0.255  
G23  21994806.785                                           0.255  
G24  22274919.578                                           0.252  
G25  25855924.589                                           0.227  
> 2022 01 01 00 01 57.9688020  0  6                     
G10  22537908.554                                           0.254  
G15  24746149.346                                           0.232  
G18  20627004.490                                           0.255  
G23  21994813.920                                           0.255  
G24  22274929.530      -21709.724        -593.974           0.252  
G25  25855921.579        8159.241         563.231           0.227  
> 2022 01 01 00 01 58.2688020  0  6                     
G10  22537879.079       43512.900         377.194           0.254  
G15  24746351.967     -234315.836       -3556.253           0.232  
G18  20627008.715                                           0.255  
G23  21994835.912                                           0.255  
G24  22274965.996                                           0.252  
G25  25855908.839                                           0.227  
> 2022 01 01 00 01 58.4688020  0  6                     
G10  22537861.116       43598.790        2551.113           0.254  
G15  24746480.804     -235013.813       -2351.319           0.232  
G18  20627011.031       -3231.883         -71.938           0.255  
G23  21994849.234      -16010.631        -562.581           0.255  
G24  22274983.662      -21992.233        -565.582           0.252  
G25  25855902.214        8264.537        -568.115           0.227  
> 2022 01 01 00 01 58.5688020  0  6                     
G10  22537850.200                                           0.255  
G15  24746549.012                                           0.232  
G18  20627012.731                                           0.255  
G23  21994856.863                                           0.255  
G24  22274994.751                                           0.252  
G25  25855897.321                                           0.227  
> 2022 01 01 00 01 58.6688020  0  6                     
G10  22537843.045                                           0.255  
G15  24746610.945     -235709.435       -3493.262           0.232  
G18  20627014.226                                           0.255  
G23  21994864.521                                           0.255  
G24  22275004.532                                           0.252  
G25  25855893.544                                           0.227  
> 2022 01 01 00 01 58.7688020  0  6                     
G10  22537830.697       43748.932         368.707           0.255  
G15  24746687.162     -236059.425       -3389.903           0.231  
G18  20627015.111       -3253.485         -65.742           0.255  
G23  21994871.005      -16123.443        -395.840           0.255  
G24  22275016.076      -22161.935        -546.837           0.252  
G25  25855889.530        8328.431         -22.818           0.227  
> 2022 01 01 00 01 58.8688020  0  6                     
G10  22537824.330       43798.964         221.045           0.254  
G15  24746742.106     -236407.903       -3474.372           0.231  
G18  20627016.888       -3260.616          37.344           0.255  
G23  21994878.690      -16161.029        -385.723           0.255  
G24  22275026.656      -22218.486        -525.743           0.252  
G25  25855884.876        8349.796         566.717           0.227  
> 2022 01 01 00 01 58.9688020  0  6                     
G10  22537813.138       43849.081         487.747           0.254  
G15  24746815.888     -236756.316       -3449.524           0.232  
G18  20627017.868       -3267.912         -72.508           0.255  
G23  21994884.643      -16198.676        -491.530           0.255  
G24  22275038.050      -22275.199        -702.905           0.252  
G25  25855881.475        8370.454        -795.681           0.227  
> 2022 01 01 00 01 59.0688020  0  6                     
G10  22537802.386       43899.230         538.057           0.254  
G15  24746878.333                                           0.232  
G18  20627019.590                                           0.255  
G23  21994892.178                                           0.255  
G24  22275049.013      -22331.829        -563.381           0.252  
G25  25855877.202                                           0.227  
> 2022 01 01 00 01 59.2688020  0  6                     
G10  22537784.450                                           0.254  
G15  24747009.578                                           0.232  
G18  20627022.474                                           0.255  
G23  21994906.688      -16311.157        -386.066           0.255  
G24  22275070.276                                           0.252  
G25  25855868.028                                           0.227  
> 2022 01 01 00 01 59.3688020  0  6                     
G10  22537775.688                                           0.254  
G15  24747082.149                                           0.232  
G18  20627023.549                                           0.255  
G23  21994914.112                                           0.255  
G24  22275080.676      -22501.624        -575.427           0.252  
G25  25855865.823                                           0.227  
> 2022 01 01 00 01 59.4688020  0  6                     
G10  22537764.805       44098.919        -215.648           0.254  
G15  24747146.997     -238498.296       -3485.720           0.232  
G18  20627024.976       -3303.988        -158.177           0.255  
G23  21994921.467      -16386.667        -501.947           0.255  
G24  22275090.977      -22558.150        -669.982           0.252  
G25  25855860.992        8477.698        1070.655           0.227  
> 2022 01 01 00 01 59.5688020  0  6                     
G10  22537757.789       44149.235         361.545           0.254  
G15  24747209.436     -238846.730       -3407.503           0.232  
G18  20627026.691       -3311.325        -131.516           0.255  
G23  21994927.816      -16424.149        -368.067           0.255  
G24  22275101.876      -22614.661        -527.768           0.252  
G25  25855857.459        8498.369          28.097           0.227  
> 2022 01 01 00 01 59.7688020  0  6                     
G10  22537737.468                                           0.254  
G15  24747344.397                                           0.232  
G18  20627029.094                                           0.255  
G23  21994942.507                                           0.255  
G24  22275123.824      -22728.106        -570.384           0.252  
G25  25855849.258                                           0.227  
> 2022 01 01 00 01 59.8688020  0  6                     
G10  22537727.058       44299.466         681.174           0.254  
G15  24747408.588     -239891.919       -3444.229           0.232  
G18  20627030.560       -3333.059         -70.422           0.255  
G23  21994950.357      -16536.513         205.803           0.255  
G24  22275135.036      -22784.888        -853.331           0.252  
G25  25855844.921        8562.901        1254.872           0.227  
> 2022 01 01 00 01 59.9688020  0  6                     
G10  22537718.001       44349.315        -164.219           0.255  
G15  24747477.123     -240239.008       -2227.054           0.232  
G18  20627031.900       -3340.325         -74.285           0.255  
G23  21994957.878      -16574.532        -407.030           0.255  
G24  22275145.579      -22841.205        -567.307           0.252  
G25  25855840.532        8584.796        2650.730           0.227  
> 2022 01 01 00 02 00.0688020  0  6                     
G10  22537708.705       44399.579         503.463           0.255  
G15  24747545.556     -240587.191       -3496.405           0.232  
G18  20627033.194                                           0.255  
G23  21994965.411                                           0.255  
G24  22275155.768                                           0.252  
G25  25855836.739                                           0.227  
> 2022 01 01 00 02 00.1688020  0  6                     
G10  22537698.215       44449.937         789.966           0.255  
G15  24747610.089     -240937.185       -3548.154           0.231  
G18  20627034.412       -3354.862         -70.842           0.255  
G23  21994971.701      -16649.738        -395.722           0.255  
G24  22275166.674      -22954.528        -251.627           0.252  
G25  25855832.664        8626.290        1002.938           0.227  
> 2022 01 01 00 02 00.2688020  0  6                     
G10  22537687.350                                           0.254  
G15  24747685.518                                           0.232  
G18  20627036.225                                           0.255  
G23  21994979.935                                           0.255  
G24  22275176.830                                           0.252  
G25  25855828.990                                           0.226  
> 2022 01 01 00 02 00.3688020  0  6                     
G10  22537681.606       44563.317       26033.588           0.254  
G15  24747736.624     -241634.343       -5160.456           0.232  
G18  20627037.913       -3369.377         130.104           0.255  
G23  21994986.030      -16724.358        -257.701           0.255  
G24  22275188.225      -23067.883        -666.551           0.252  
G25  25855825.581        8668.798         827.633           0.227  
> 2022 01 01 00 02 00.4688020  0  6                     
G10  22537669.541       44599.374          10.759           0.254  
G15  24747808.252     -241982.383       -3338.564           0.232  
G18  20627038.493       -3376.709         -57.504           0.255  
G23  21994992.795      -16762.331        -169.246           0.255  
G24  22275199.310      -23124.499        -515.429           0.252  
G25  25855819.332        8689.530         -57.684           0.227  
> 2022 01 01 00 02 00.6688020  0  6                     
G10  22537654.517       44699.503         -26.515           0.254  
G15  24747939.463     -242679.159       -3474.910           0.231  
G18  20627040.996       -3391.348        -194.702           0.255  
G23  21995006.901      -16837.531        -284.841           0.255  
G24  22275220.677      -23237.859        -561.858           0.252  
G25  25855811.835        8732.819        2814.937           0.227  
> 2022 01 01 00 02 00.8688020  0  6                     
G10  22537632.524                                           0.254  
G15  24748070.952                                           0.231  
G18  20627044.783                                           0.255  
G23  21995021.622                                           0.255  
G24  22275242.968                                           0.252  
G25  25855805.964        8774.832         299.436           0.227  
> 2022 01 01 00 02 01.0688020  0  6                     
G10  22537613.546       44900.376         845.624           0.254  
G15  24748204.904     -244072.841       -3493.848           0.232  
G18  20627047.143       -3420.515         -60.703           0.255  
G23  21995035.428      -16987.930        -383.950           0.255  
G24  22275263.842      -23464.588        -467.692           0.252  
G25  25855795.373        8817.051        -377.947           0.227  
> 2022 01 01 00 02 01.3688020  0  6                     
G10  22537586.617       45049.384        -811.886           0.255  
G15  24748408.268     -245117.668       -3334.932           0.231  
G18  20627051.394       -3442.501         -67.381           0.255  
G23  21995055.616      -17100.702        -289.012           0.255  
G24  22275296.573      -23634.804        -549.596           0.252  
G25  25855784.615        8881.275         167.547           0.226  
> 2022 01 01 00 02 01.5688020  0  6                     
G10  22537564.434       45150.109         480.899           0.254  
G15  24748536.379     -245814.722       -3409.387           0.232  
G18  20627054.094       -3457.170         -72.120           0.255  
G23  21995072.022      -17175.882        -375.199           0.255  
G24  22275318.251      -23748.285        -566.114           0.252  
G25  25855775.829        8923.858         270.140           0.227  
> 2022 01 01 00 02 01.6688020  0  6                     
G10  22537556.703       45200.169         505.901           0.254  
G15  24748602.053     -246163.140       -3408.951           0.232  
G18  20627055.774       -3464.514         -73.934           0.255  
G23  21995081.348      -17213.464        -371.998           0.255  
G24  22275328.049      -23805.001        -510.323           0.252  
G25  25855770.967        8944.725        -687.194           0.227  
> 2022 01 01 00 02 01.7688020  0  6                     
G10  22537546.598                                           0.254  
G15  24748670.811                                           0.232  
G18  20627057.007                                           0.255  
G23  21995086.821                                           0.255  
G24  22275339.977                                           0.252  
G25  25855768.460                                           0.227  
> 2022 01 01 00 02 01.8688020  0  6                     
G10  22537538.280       45299.868        -228.032           0.254  
G15  24748736.778     -246859.988       -3275.347           0.232  
G18  20627058.103       -3479.218         -75.297           0.255  
G23  21995093.117      -17288.419          -6.803           0.255  
G24  22275351.411      -23918.466        -489.693           0.252  
G25  25855764.518        8987.558        -345.444           0.227  
> 2022 01 01 00 02 02.0688020  0  6                     
G10  22537518.959                                           0.254  
G15  24748869.437     -247555.128       -3492.353           0.232  
G18  20627061.282                                           0.255  
G23  21995106.856                                           0.255  
G24  22275371.674      -24032.248        -585.286           0.252  
G25  25855757.685                                           0.227  
> 2022 01 01 00 02 02.1688020  0  6                     
G10  22537508.495       45450.374         449.339           0.254  
G15  24748932.376     -247905.141       -3733.931           0.232  
G18  20627062.826       -3501.288        -111.919           0.255  
G23  21995115.370      -17401.314        -138.119           0.255  
G24  22275382.739      -24088.379          70.472           0.252  
G25  25855752.011        9051.757         383.095           0.227  
> 2022 01 01 00 02 02.2688020  0  6                     
G10  22537499.854       45500.708         986.509           0.254  
G15  24749000.594     -248253.541       -3444.711           0.232  
G18  20627064.010       -3508.623           3.692           0.255  
G23  21995123.023      -17438.969        -368.554           0.255  
G24  22275392.986      -24145.599        -557.291           0.252  
G25  25855747.754        9072.893        -140.210           0.227  
> 2022 01 01 00 02 02.4688020  0  6                     
G10  22537479.767                                           0.255  
G15  24749134.279     -248948.781       -3470.193           0.232  
G18  20627066.669                                           0.255  
G23  21995136.236                                           0.255  
G24  22275413.579                                           0.252  
G25  25855739.528                                           0.227  
> 2022 01 01 00 02 02.5688020  0  6                     
G10  22537470.537       45650.916         995.562           0.254  
G15  24749200.745     -249298.717       -3462.645           0.232  
G18  20627067.919       -3530.817         -74.688           0.255  
G23  21995142.668      -17551.711        -367.336           0.255  
G24  22275425.221      -24315.964        -575.693           0.252  
G25  25855736.266        9137.678         858.149           0.227  
> 2022 01 01 00 02 02.6688020  0  6                     
G10  22537460.712       45700.866         965.466           0.254  
G15  24749265.824     -249647.142       -3555.083           0.232  
G18  20627069.469       -3538.209         -74.391           0.255  
G23  21995149.812      -17589.288        -378.961           0.255  
G24  22275436.973      -24372.747        -554.303           0.252  
G25  25855731.261        9158.379         -60.929           0.227  
> 2022 01 01 00 02 02.7688020  0  6                     
G10  22537450.544       45750.729         595.527           0.254  
G15  24749335.945     -249995.314       -3166.622           0.232  
G18  20627071.169       -3545.622        -196.060           0.255  
G23  21995158.450      -17626.830        -362.710           0.255  
G24  22275447.795      -24429.585        -586.704           0.252  
G25  25855726.581        9180.088         501.706           0.227  
> 2022 01 01 00 02 02.8688020  0  6                     
G10  22537442.358       45800.796         764.460           0.254  
G15  24749399.693     -250343.824       -3839.288           0.232  
G18  20627072.802       -3553.000         -74.309           0.255  
G23  21995164.772      -17664.296          31.288           0.255  
G24  22275457.547      -24486.372        -569.311           0.252  
G25  25855724.156        9201.422         340.430           0.227  
> 2022 01 01 00 02 02.9688020  0  6                     
G10  22537432.198       45851.893        2752.172           0.254  
G15  24749465.919     -250692.172       -3270.523           0.232  
G18  20627073.620       -3560.425        -112.128           0.255  
G23  21995171.373      -17702.036        -332.295           0.255  
G24  22275469.026      -24543.051        -333.306           0.252  
G25  25855718.728        9222.376        -264.168           0.227  
> 2022 01 01 00 02 03.0688020  0  6                     
G10  22537422.740       45900.908         495.183           0.254  
G15  24749529.872                                           0.232  
G18  20627075.408                                           0.255  
G23  21995180.061      -17741.624        -379.049           0.255  
G24  22275480.351                                           0.252  
G25  25855715.192                                           0.227  
> 2022 01 01 00 02 03.1688020  0  6                     
G10  22537413.594                                           0.254  
G15  24749598.381                                           0.232  
G18  20627076.744                                           0.255  
G23  21995187.274                                           0.255  
G24  22275489.018      -24657.002        -548.596           0.252  
G25  25855711.452                                           0.227  
> 2022 01 01 00 02 03.4688020  0  6                     
G10  22537384.927       46101.920       -4505.984           0.255  
G15  24749794.398     -252434.217       -3420.725           0.232  
G18  20627080.963       -3597.473         -75.572           0.255  
G23  21995206.728      -17889.933        -397.418           0.255  
G24  22275522.887      -24831.028      -11847.244           0.252  
G25  25855698.972        9329.509         182.484           0.227  
> 2022 01 01 00 02 03.5688020  0  6                     
G10  22537374.396       46151.421        1203.877           0.254  
G15  24749867.755     -252782.783       -3712.798           0.232  
G18  20627082.640       -3604.931          33.616           0.255  
G23  21995215.395      -17927.773        -644.555           0.255  
G24  22275534.722      -24884.175        -497.785           0.252  
G25  25855695.453        9351.111         492.526           0.227  
> 2022 01 01 00 02 03.7688020  0  6                     
G10  22537355.981       46251.231         465.164           0.254  
G15  24749993.139     -253477.849       -3517.710           0.232  
G18  20627085.198                                           0.255  
G23  21995228.220      -18002.425        -360.632           0.255  
G24  22275556.288      -24998.119        -558.366           0.252  
G25  25855686.343                                           0.227  
> 2022 01 01 00 02 03.9688020  0  6                     
G10  22537337.117       46349.786       -2289.065           0.254  
G15  24750128.638     -254176.024       -3302.953           0.232  
G18  20627088.052       -3634.711         -74.764           0.255  
G23  21995243.739      -18077.839         -10.064           0.255  
G24  22275576.656      -25111.705        -573.006           0.252  
G25  25855680.613        9436.494         119.872           0.227  
> 2022 01 01 00 02 04.0688020  0  6                     
G10  22537327.948       46401.417         540.933           0.254  
G15  24750190.222     -254522.974       -3541.958           0.232  
G18  20627089.101                                           0.255  
G23  21995251.511                                           0.255  
G24  22275588.390                                           0.252  
G25  25855673.536                                           0.227  
> 2022 01 01 00 02 04.4688020  0  6                     
G10  22537291.179                                           0.255  
G15  24750465.076                                           0.232  
G18  20627094.938                                           0.255  
G23  21995279.078                                           0.255  
G24  22275631.709                                           0.252  
G25  25855658.753        9543.665         264.734           0.227  
> 2022 01 01 00 02 04.5688020  0  6                     
G10  22537278.848       46651.613         636.543           0.254  
G15  24750529.244     -256266.627       -3376.139           0.231  
G18  20627096.587       -3679.574        -243.025           0.255  
G23  21995285.859      -18304.999       -2613.012           0.255  
G24  22275643.056      -25452.859        1441.573           0.252  
G25  25855651.597        9565.267         499.586           0.227  
> 2022 01 01 00 02 04.7688020  0  6                     
G10  22537259.497                                           0.254  
G15  24750661.331     -256961.557       -3399.358           0.232  
G18  20627099.243                                           0.255  
G23  21995300.544                                           0.255  
G24  22275665.079                                           0.252  
G25  25855649.040        9607.897         323.539           0.227  
> 2022 01 01 00 02 04.9688020  0  6                     
G10  22537242.286                                           0.254  
G15  24750789.143                                           0.232  
G18  20627102.352                                           0.255  
G23  21995315.288                                           0.255  
G24  22275686.033      -25680.992        -570.081           0.252  
G25  25855638.255                                           0.226  
> 2022 01 01 00 02 05.0688020  0  6                     
G10  22537232.744       46930.356       51739.430           0.254  
G15  24750856.625     -258008.141       -3391.598           0.231  
G18  20627103.610       -3716.967          -5.356           0.255  
G23  21995322.478      -18491.196        -338.312           0.255  
G24  22275699.222      -25737.554        -260.750           0.252  
G25  25855634.540        9672.188           0.157           0.226  
> 2022 01 01 00 02 05.2688020  0  6                     
G10  22537210.400                                           0.255  
G15  24750987.598                                           0.231  
G18  20627106.638                                           0.255  
G23  21995336.771                                           0.255  
G24  22275717.966                                           0.252  
G25  25855623.481                                           0.227  
> 2022 01 01 00 02 05.3688020  0  6                     
G10  22537202.939       47052.689        1600.997           0.254  
G15  24751058.823     -259053.524       -3547.799           0.231  
G18  20627108.026       -3739.534         -76.491           0.255  
G23  21995344.071      -18603.754          89.574           0.255  
G24  22275728.456      -25908.641        -564.784           0.252  
G25  25855622.162        9736.172        -238.066           0.227  
> 2022 01 01 00 02 05.4688020  0  6                     
G10  22537194.887       47102.124         453.246           0.254  
G15  24751121.226     -259490.889       -3436.530           0.232  
G18  20627109.950                                           0.255  
G23  21995350.825                                           0.255  
G24  22275740.639      -25965.787        -564.889           0.252  
G25  25855616.544        9758.109         390.096           0.227  
> 2022 01 01 00 02 05.7688020  0  6                     
G10  22537164.198                                           0.254  
G15  24751320.030                                           0.232  
G18  20627113.482                                           0.255  
G23  21995372.084                                           0.255  
G24  22275773.712      -26136.744        -600.639           0.252  
G25  25855605.176                                           0.227  
> 2022 01 01 00 02 05.9688020  0  6                     
G10  22537148.023                                           0.254  
G15  24751452.308     -261142.125       -3409.979           0.231  
G18  20627116.439                                           0.255  
G23  21995387.841                                           0.255  
G24  22275792.843                                           0.252  
G25  25855598.127        9865.548         373.297           0.226  
> 2022 01 01 00 02 06.0688020  0  8                     
G10  22537137.458                                           0.254  
G15  24751521.476                                           0.231  
G18  20627118.056                                           0.255  
G23  21995393.295                                           0.255  
G24  22275804.971                                           0.252  
G25  25855589.564                                           0.227  
G27  23542512.546                                           0.243  
G29  24154112.105                                           0.240  
> 2022 01 01 00 02 06.1688020  0  8                     
G10  22537128.061       47452.517         500.687           0.255  
G15  24751586.957                                           0.232  
G18  20627119.959                                           0.255  
G23  21995400.472                                           0.255  
G24  22275814.050                                           0.252  
G25  25855589.970                                           0.226  
G27  23542482.807                                           0.243  
G29  24154183.972                                           0.239  
> 2022 01 01 00 02 06.2688020  0  8                     
G10  22537119.675                                           0.255  
G15  24751649.300                                           0.232  
G18  20627121.107                                           0.255  
G23  21995406.450                                           0.255  
G24  22275828.265      -26421.785        -597.294           0.252  
G25  25855582.754                                           0.226  
G27  23542455.570                                           0.243  
G29  24154249.783                                           0.240  
> 2022 01 01 00 02 06.3688020  0  8                     
G10  22537107.397                                           0.254  
G15  24751720.944                                           0.232  
G18  20627122.296                                           0.255  
G23  21995414.776                                           0.255  
G24  22275837.074                                           0.252  
G25  25855582.156                                           0.226  
G27  23542420.605                                           0.243  
G29  24154315.373                                           0.239  
> 2022 01 01 00 02 06.4688020  0  8                     
G10  22537098.871       47603.208        1561.226           0.254  
G15  24751786.021     -262885.567       -3377.890           0.232  
G18  20627123.653       -3822.547         -74.932           0.255  
G23  21995422.714      -19017.160        -263.849           0.255  
G24  22275848.775      -26535.865        -712.032           0.252  
G25  25855576.299        9972.781         618.128           0.226  
G27  23542388.647       70248.824        2406.510           0.243  
G29  24154387.219     -107119.863       -3565.760           0.240  
> 2022 01 01 00 02 06.5688020  0  8                     
G10  22537089.555       47652.762         451.975           0.254  
G15  24751854.269                                           0.232  
G18  20627124.984                                           0.255  
G23  21995429.282                                           0.255  
G24  22275859.325                                           0.252  
G25  25855575.140                                           0.226  
G27  23542357.843                                           0.243  
G29  24154451.367                                           0.239  
> 2022 01 01 00 02 06.6688020  0  8                     
G10  22537080.647       47702.772         531.752           0.254  
G15  24751921.347     -263582.312       -3524.039           0.232  
G18  20627128.064       -3837.683         -78.001           0.255  
G23  21995435.031      -19092.435        -519.012           0.255  
G24  22275869.969      -26649.730        -548.871           0.252  
G25  25855568.711       10016.403        1353.104           0.226  
G27  23542326.219       70576.103        1664.465           0.243  
G29  24154517.223     -107828.841       -3659.082           0.240  
> 2022 01 01 00 02 06.7688020  0  8                     
G10  22537068.537                                           0.254  
G15  24751985.230                                           0.232  
G18  20627128.746                                           0.255  
G23  21995443.935                                           0.255  
G24  22275880.597                                           0.252  
G25  25855565.597                                           0.227  
G27  23542293.535                                           0.243  
G29  24154590.108                                           0.239  
> 2022 01 01 00 02 06.8688020  0  8                     
G10  22537061.107       47802.886         494.085           0.254  
G15  24752050.103     -264279.011       -3481.055           0.232  
G18  20627129.393       -3852.884         -76.164           0.255  
G23  21995450.477      -19167.448        -392.340           0.255  
G24  22275892.035      -26763.832        -568.792           0.252  
G25  25855560.147       10058.667        -182.499           0.227  
G27  23542266.155       70904.066        1619.951           0.243  
G29  24154649.548     -108537.710       -3463.864           0.239  
> 2022 01 01 00 02 06.9688020  0  8                     
G10  22537050.458                                           0.255  
G15  24752117.204                                           0.232  
G18  20627130.713                                           0.255  
G23  21995457.931                                           0.255  
G24  22275903.693                                           0.252  
G25  25855555.210                                           0.226  
G27  23542232.782                                           0.243  
G29  24154719.031                                           0.240  
> 2022 01 01 00 02 07.1688020  0  8                     
G10  22537033.366       47952.573        -280.861           0.254  
G15  24752250.583     -265324.228       -3823.328           0.231  
G18  20627134.156       -3875.656         -41.070           0.255  
G23  21995471.113      -19280.175        -361.741           0.255  
G24  22275924.712      -26934.811        -277.682           0.252  
G25  25855546.225       10123.263        2852.748           0.227  
G27  23542170.782       71396.393        1642.489           0.243  
G29  24154853.047     -109601.108       -3566.522           0.240  
> 2022 01 01 00 02 07.3688020  0  8                     
G10  22537013.178                                           0.254  
G15  24752383.745                                           0.231  
G18  20627136.459                                           0.255  
G23  21995487.147                                           0.255  
G24  22275945.938                                           0.252  
G25  25855540.920                                           0.227  
G27  23542107.920                                           0.242  
G29  24154992.551                                           0.240  
> 2022 01 01 00 02 07.5688020  0  8                     
G10  22536993.987       48153.794        1785.272           0.254  
G15  24752518.353     -266717.249       -3097.837           0.231  
G18  20627139.765       -3906.164        -160.519           0.255  
G23  21995501.718      -19430.434        -406.950           0.255  
G24  22275966.340      -27163.167        -148.142           0.252  
G25  25855531.928       10209.541          63.580           0.226  
G27  23542047.450       72052.978        2477.842           0.243  
G29  24155129.858     -111018.924       -3506.319           0.240  
> 2022 01 01 00 02 07.6688020  0  8                     
G10  22536985.968                                           0.254  
G15  24752578.300                                           0.231  
G18  20627141.414                                           0.255  
G23  21995508.829                                           0.255  
G24  22275977.251                                           0.252  
G25  25855527.587                                           0.227  
G27  23542014.609                                           0.243  
G29  24155195.853                                           0.239  
> 2022 01 01 00 02 07.7688020  0  8                     
G10  22536974.809                                           0.254  
G15  24752649.493     -267412.747       -3476.797           0.231  
G18  20627142.314                                           0.255  
G23  21995517.911                                           0.255  
G24  22275991.262                                           0.252  
G25  25855523.869                                           0.227  
G27  23541982.945       72379.580        1664.889           0.243  
G29  24155262.144     -111861.001       -3466.626           0.240  
> 2022 01 01 00 02 08.0688020  0  8                     
G10  22536948.212       48410.387       25703.105           0.254  
G15  24752845.587     -268460.083       -4383.561           0.232  
G18  20627146.940       -3944.304         -62.588           0.255  
G23  21995536.086      -19618.162        -252.576           0.255  
G24  22276020.086      -27448.708        -568.236           0.252  
G25  25855511.419       10317.451         599.227           0.226  
G27  23541893.168       72871.966         747.870           0.243  
G29  24155462.497     -112791.127       -4118.101           0.239  
> 2022 01 01 00 02 08.1688020  0  8                     
G10  22536935.677       48454.430        2014.619           0.254  
G15  24752908.894     -268808.111       -3893.957           0.231  
G18  20627148.327       -3951.912          80.511           0.255  
G23  21995545.480      -19645.335       14027.100           0.255  
G24  22276032.565      -27506.511       -1265.206           0.252  
G25  25855506.154       10340.007        1587.807           0.226  
G27  23541859.313       73036.536        2134.826           0.243  
G29  24155532.643     -113145.700       -3469.982           0.239  
> 2022 01 01 00 02 08.2688020  0  8                     
G10  22536927.319       48532.340       49513.926           0.254  
G15  24752978.050     -269156.137       -3337.695           0.232  
G18  20627149.709       -3959.726        -205.491           0.255  
G23  21995549.779      -19693.366        -309.919           0.255  
G24  22276044.627      -27563.330        -787.250           0.252  
G25  25855500.965       10360.400         402.937           0.226  
G27  23541830.907       73200.106        1694.528           0.243  
G29  24155594.718     -113499.958       -3279.597           0.240  
> 2022 01 01 00 02 08.3688020  0  8                     
G10  22536916.409       48552.613       -1696.700           0.254  
G15  24753050.056     -269504.378       -3436.914           0.231  
G18  20627151.085       -3967.333        -150.933           0.255  
G23  21995554.831      -19731.105        -388.903           0.255  
G24  22276056.531      -27620.551        -946.947           0.251  
G25  25855497.521       10382.016         595.089           0.226  
G27  23541799.726       73364.140        1537.469           0.243  
G29  24155663.908     -113854.723       -3387.635           0.239  
> 2022 01 01 00 02 08.4688020  0  8                     
G10  22536908.904       48603.368        -358.040           0.254  
G15  24753111.554     -269852.807       -3496.954           0.231  
G18  20627152.649       -3974.949         -50.447           0.255  
G23  21995563.684      -19768.556        -380.967           0.255  
G24  22276065.647      -27677.543        -593.182           0.252  
G25  25855494.750       10403.764         546.756           0.226  
G27  23541769.920       73527.745        1416.784           0.243  
G29  24155736.246     -114208.975       -3613.963           0.240  
> 2022 01 01 00 02 08.5688020  0  8                     
G10  22536897.992                                           0.255  
G15  24753176.413                                           0.232  
G18  20627154.155                                           0.255  
G23  21995573.620                                           0.255  
G24  22276076.243      -27738.290        -570.980           0.252  
G25  25855490.494                                           0.226  
G27  23541732.274       73691.221        1589.303           0.243  
G29  24155800.408                                           0.239  
> 2022 01 01 00 02 08.6688020  0  8                     
G10  22536892.128                                           0.255  
G15  24753243.194     -270547.984       -3465.745           0.232  
G18  20627155.610                                           0.255  
G23  21995579.051                                           0.255  
G24  22276090.587                                           0.252  
G25  25855487.036                                           0.227  
G27  23541704.060                                           0.243  
G29  24155858.502     -114916.506       -3532.299           0.239  
> 2022 01 01 00 02 08.7688020  0  8                     
G10  22536879.092                                           0.254  
G15  24753312.938                                           0.232  
G18  20627157.540                                           0.255  
G23  21995584.628                                           0.255  
G24  22276097.051                                           0.252  
G25  25855481.808       10468.297         195.340           0.226  
G27  23541672.922                                           0.243  
G29  24155934.002                                           0.239  
> 2022 01 01 00 02 08.8688020  0  8                     
G10  22536870.468                                           0.254  
G15  24753378.426                                           0.232  
G18  20627158.269                                           0.255  
G23  21995591.548                                           0.255  
G24  22276111.290                                           0.252  
G25  25855479.696                                           0.226  
G27  23541644.014                                           0.243  
G29  24155999.374     -115625.402       -3568.402           0.239  
> 2022 01 01 00 02 08.9688020  0  8                     
G10  22536860.982       48854.330         560.245           0.254  
G15  24753438.259                                           0.232  
G18  20627160.194                                           0.255  
G23  21995601.115                                           0.255  
G24  22276120.186                                           0.252  
G25  25855473.790                                           0.227  
G27  23541606.141                                           0.243  
G29  24156069.272                                           0.239  
> 2022 01 01 00 02 09.0688020  0  8                     
G10  22536850.489       48903.864        -132.950           0.254  
G15  24753506.866     -271943.239       -3810.519           0.231  
G18  20627161.394       -4021.122        -149.218           0.255  
G23  21995606.789      -19993.810        -189.200           0.255  
G24  22276131.186      -28016.076        4337.477           0.252  
G25  25855470.780       10533.089         354.311           0.227  
G27  23541578.594       74511.893        1914.683           0.243  
G29  24156144.925     -116335.546       -3237.488           0.239  
> 2022 01 01 00 02 09.1688020  0  8                     
G10  22536843.543       48954.212         255.592           0.254  
G15  24753570.921     -272291.381       -3482.051           0.231  
G18  20627162.742       -4028.736         -26.293           0.255  
G23  21995615.135      -20031.518        -338.442           0.255  
G24  22276142.264      -28077.746        -583.321           0.252  
G25  25855467.539       10554.535          23.595           0.227  
G27  23541547.648       74675.368         932.325           0.243  
G29  24156204.731     -116690.265       -3303.541           0.239  
> 2022 01 01 00 02 09.2688020  0  8                     
G10  22536831.031                                           0.254  
G15  24753642.655     -272638.094       -3439.670           0.231  
G18  20627164.413                                           0.255  
G23  21995622.131                                           0.255  
G24  22276153.619      -28134.546        -595.131           0.252  
G25  25855462.132       10576.317         241.681           0.226  
G27  23541518.652                                           0.243  
G29  24156269.686                                           0.240  
> 2022 01 01 00 02 09.3688020  0  8                     
G10  22536820.900                                           0.255  
G15  24753710.527     -272986.446       -3346.880           0.231  
G18  20627166.300                                           0.255  
G23  21995630.497      -20106.436        -396.750           0.255  
G24  22276162.549                                           0.252  
G25  25855457.384                                           0.226  
G27  23541482.956                                           0.243  
G29  24156343.156                                           0.240  
> 2022 01 01 00 02 09.4688020  0  8                     
G10  22536813.620       49104.527         556.038           0.254  
G15  24753772.716     -273336.316       -3379.947           0.232  
G18  20627167.820       -4051.870         -76.344           0.255  
G23  21995636.419      -20144.242        -595.541           0.255  
G24  22276174.831      -28249.341        -573.041           0.252  
G25  25855453.238       10620.095         719.024           0.227  
G27  23541454.570       75166.674         673.277           0.244  
G29  24156407.053     -117754.144       -4280.689           0.239  
> 2022 01 01 00 02 09.6688020  0  8                     
G10  22536792.627                                           0.254  
G15  24753906.331                                           0.232  
G18  20627169.884                                           0.255  
G23  21995649.654                                           0.255  
G24  22276194.953                                           0.252  
G25  25855444.665                                           0.226  
G27  23541393.214                                           0.244  
G29  24156545.084                                           0.240  
> 2022 01 01 00 02 09.7688020  0  8                     
G10  22536784.475       49254.808         419.390           0.254  
G15  24753973.316                                           0.232  
G18  20627171.745                                           0.255  
G23  21995658.083                                           0.255  
G24  22276207.183                                           0.252  
G25  25855442.146                                           0.227  
G27  23541359.829                                           0.243  
G29  24156608.447                                           0.239  
> 2022 01 01 00 02 09.8688020  0  8                     
G10  22536775.420       49305.412        1762.076           0.254  
G15  24754038.393     -274729.737       -3346.007           0.232  
G18  20627173.006       -4082.628          52.436           0.255  
G23  21995666.882      -20294.450        -372.252           0.255  
G24  22276218.722      -28478.230        -642.786           0.252  
G25  25855438.008       10705.954         -52.480           0.227  
G27  23541327.152       75822.860        1711.037           0.242  
G29  24156675.572     -119171.443       -3532.066           0.239  
> 2022 01 01 00 02 10.3688020  0  8                     
G10  22536728.786                                           0.254  
G15  24754366.958                                           0.232  
G18  20627179.929                                           0.255  
G23  21995698.999                                           0.255  
G24  22276274.040      -28764.091        -577.388           0.252  
G25  25855414.375                                           0.226  
G27  23541177.568                                           0.243  
G29  24157016.970                                           0.240  
> 2022 01 01 00 02 10.5688020  0  8                     
G10  22536707.322                                           0.254  
G15  24754503.395                                           0.232  
G18  20627184.072                                           0.255  
G23  21995714.900                                           0.255  
G24  22276296.363                                           0.252  
G25  25855410.409                                           0.227  
G27  23541110.671                                           0.243  
G29  24157147.965                                           0.239  
> 2022 01 01 00 02 10.6688020  0  8                     
G10  22536699.031       49705.727        1094.956           0.254  
G15  24754571.370     -277516.625       -3468.551           0.232  
G18  20627185.199       -4144.800        -122.856           0.255  
G23  21995722.491      -20594.890        -292.221           0.255  
G24  22276306.767      -28936.378        -775.029           0.252  
G25  25855403.605       10879.575        1024.136           0.227  
G27  23541078.589       77133.691        1633.146           0.243  
G29  24157214.573     -122007.062       -3233.886           0.240  
> 2022 01 01 00 02 10.7688020  0  8                     
G10  22536688.265       49755.558         766.920           0.255  
G15  24754638.899     -277865.095       -3780.835           0.232  
G18  20627186.446       -4152.537         -39.163           0.255  
G23  21995728.324      -20632.509        -380.055           0.255  
G24  22276316.555      -28993.274         -89.617           0.252  
G25  25855397.862       10900.773         204.294           0.227  
G27  23541051.928       77297.649        1936.687           0.243  
G29  24157282.065     -122361.588       -3643.111           0.239  
> 2022 01 01 00 02 10.8688020  0  8                     
G10  22536678.811       49805.355         147.403           0.254  
G15  24754702.337     -278213.133       -3174.731           0.232  
G18  20627187.716       -4160.243         127.227           0.255  
G23  21995733.798      -20670.056        -362.514           0.255  
G24  22276326.793      -29050.897        -572.947           0.252  
G25  25855395.270       10922.490          39.507           0.226  
G27  23541025.157       77461.339        1645.762           0.243  
G29  24157354.327     -122715.997       -3535.543           0.239  
> 2022 01 01 00 02 11.1688020  0  8                     
G10  22536650.410                                           0.254  
G15  24754900.482     -279256.818       -3434.142           0.232  
G18  20627192.776                                           0.255  
G23  21995757.661                                           0.255  
G24  22276359.867                                           0.252  
G25  25855382.543                                           0.227  
G27  23540924.363                                           0.243  
G29  24157551.036                                           0.239  
> 2022 01 01 00 02 11.2688020  0  8                     
G10  22536641.972                                           0.254  
G15  24754967.650     -279605.359       -3609.542           0.232  
G18  20627193.946                                           0.255  
G23  21995765.571                                           0.255  
G24  33968282.156                                           0.252  
G25  25855377.521       11009.195         332.115           0.227  
G27  23540891.853                                           0.243  
G29  24157617.009                                           0.239  
> 2022 01 01 00 02 11.3688020  0  8                     
G10  20618577.100                                           0.254  
G15  22836977.410     -279977.810       -3373.682           0.232  
G18  27103327.373                                           0.255  
G23  26673150.581                                           0.255  
G24  33249405.672                                           0.252  
G25  23937316.443       11031.921         -95.627           0.226  
G27  21622804.327                                           0.243  
G29  22239630.576                                           0.239  
> 2022 01 01 00 02 11.4688020  0  8                     
G10  24335376.787                                           0.255  
G15  24755100.941     -280301.782       -3561.594           0.232  
G18  20627196.884                                           0.255  
G23  21995779.686                                           0.255  
G24  36666434.576                                           0.252  
G25  25855371.089       11052.509         112.871           0.226  
G27  23540829.280                                           0.243  
G29  24157758.313                                           0.240  
> 2022 01 01 00 02 11.7688020  0  8                     
G10  22536595.336                                           0.254  
G15  24755300.702     -281346.827       -3456.024           0.232  
G18  20627201.578                                           0.255  
G23  21995801.865                                           0.255  
G24  22276426.813                                           0.252  
G25  25855358.907                                           0.226  
G27  23540732.868                                           0.244  
G29  24157955.216                                           0.239  
> 2022 01 01 00 02 11.9688020  0  8                     
G10  22536576.307       50356.796        1406.014           0.254  
G15  24755436.527     -282044.958       -3281.321           0.232  
G18  20627204.679       -4246.217          17.292           0.255  
G23  21995815.588      -21084.685        -135.625           0.255  
G24  22276444.120      -29681.444        -383.861           0.252  
G25  25855350.715       11160.451        -632.174           0.226  
G27  23540673.092       79263.088        1676.226           0.243  
G29  24158093.751     -126615.171       -4007.201           0.239  
> 2022 01 01 00 02 12.0688020  0  8                     
G10  22536565.109                                           0.254  
G15  24755495.567     -282391.859       -3474.114           0.232  
G18  20627205.866                                           0.255  
G23  21995821.418                                           0.255  
G24  22276458.015                                           0.252  
G25  25855348.549                                           0.226  
G27  23540644.238                                           0.243  
G29  24158161.871                                           0.239  
> 2022 01 01 00 02 12.1688020  0  8                     
G10  22536556.455       50456.571         480.615           0.255  
G15  24755561.030                                           0.232  
G18  20627206.887                                           0.255  
G23  21995829.289      -21158.079        -375.589           0.255  
G24  22276469.889                                           0.252  
G25  25855339.171                                           0.226  
G27  23540611.781                                           0.243  
G29  24158225.099                                           0.240  
> 2022 01 01 00 02 12.2688020  0  8                     
G10  22536545.110       50489.490      -35997.785           0.254  
G15  24755631.908     -283089.959       -3747.345           0.232  
G18  20627208.533       -4269.526         220.913           0.255  
G23  21995837.334      -21195.939        -408.558           0.255  
G24  22276479.525      -29853.820       -1003.548           0.252  
G25  25855339.505       11226.114         423.471           0.226  
G27  23540580.892       79753.999        1083.349           0.243  
G29  24158297.765     -127678.671       -3758.975           0.239  
> 2022 01 01 00 02 12.3688020  0  8                     
G10  22536536.685       50556.367         -66.056           0.254  
G15  24755698.581     -283438.383       -3603.752           0.232  
G18  20627210.314       -4277.595        -119.759           0.255  
G23  21995844.630      -21233.444        -380.049           0.255  
G24  22276490.613      -29911.015        -514.812           0.252  
G25  25855334.221       11247.522         299.167           0.227  
G27  23540547.785       79918.053        1694.012           0.243  
G29  24158362.400     -128032.908       -3676.846           0.239  
> 2022 01 01 00 02 12.4688020  0  8                     
G10  22536527.840       50606.536         -98.823           0.254  
G15  24755762.408     -283786.759       -3480.719           0.232  
G18  20627212.425       -4285.530        -213.501           0.255  
G23  21995851.967      -21270.949        -361.623           0.255  
G24  22276501.322      -29968.429        -575.303           0.252  
G25  25855328.840       11268.953        -519.993           0.227  
G27  23540516.959       80081.839        1641.293           0.243  
G29  24158431.235     -128387.292       -3554.759           0.239  
> 2022 01 01 00 02 12.5688020  0  8                     
G10  22536518.371                                           0.254  
G15  24755825.745     -284133.535       -3471.286           0.232  
G18  20627213.549                                           0.255  
G23  21995857.101      -21308.295        -375.482           0.255  
G24  22276511.695                                           0.252  
G25  25855326.935                                           0.227  
G27  23540488.475                                           0.243  
G29  24158500.145                                           0.239  
> 2022 01 01 00 02 12.6688020  0  8                     
G10  22536508.507                                           0.254  
G15  24755895.468                                           0.232  
G18  20627214.619                                           0.255  
G23  21995865.606                                           0.255  
G24  22276524.058                                           0.252  
G25  25855321.849                                           0.227  
G27  23540456.547                                           0.243  
G29  24158565.066                                           0.240  
> 2022 01 01 00 02 12.8688020  0  8                     
G10  22536490.589       50807.137         494.420           0.254  
G15  24756030.970     -285178.573       -3453.024           0.232  
G18  20627217.751                                           0.255  
G23  21995878.105                                           0.255  
G24  22276545.439      -30197.641        -581.992           0.252  
G25  25855313.397                                           0.226  
G27  23540395.353                                           0.243  
G29  24158698.070                                           0.239  
> 2022 01 01 00 02 12.9688020  0  8                     
G10  22536477.539       50857.237         535.949           0.254  
G15  24756094.464                                           0.232  
G18  20627219.567                                           0.255  
G23  21995886.472                                           0.255  
G24  22276556.699                                           0.252  
G25  25855306.679                                           0.226  
G27  23540361.820       80909.483        1622.229           0.243  
G29  24158774.462                                           0.239  
> 2022 01 01 00 02 13.0688020  0  8                     
G10  22536467.923       50906.811        -154.319           0.254  
G15  24756169.976     -285876.729       -3496.802           0.231  
G18  20627221.139       -4332.479         168.898           0.255  
G23  21995895.499      -21496.283        -263.063           0.255  
G24  22276567.573      -30312.984        -720.420           0.252  
G25  25855303.952       11400.101         491.911           0.226  
G27  23540329.426       81064.076        1734.913           0.243  
G29  24158834.852     -130514.066       -3563.880           0.239  
> 2022 01 01 00 02 13.1688020  0  8                     
G10  22536461.329       50957.099         119.620           0.254  
G15  24756225.936     -286224.968       -3324.667           0.232  
G18  20627222.115       -4340.513         -16.566           0.255  
G23  21995902.625      -21533.935        -322.044           0.255  
G24  22276578.747      -30370.190        -577.592           0.252  
G25  25855300.921       11421.788         572.191           0.227  
G27  23540299.870       81227.996        1475.642           0.243  
G29  24158900.148     -130868.147       -3027.266           0.240  
> 2022 01 01 00 02 13.2688020  0  8                     
G10  22536450.306       51007.487         526.880           0.254  
G15  24756292.147                                           0.231  
G18  20627223.418                                           0.255  
G23  21995907.813                                           0.255  
G24  22276588.521                                           0.252  
G25  25855294.635                                           0.227  
G27  23540269.619                                           0.243  
G29  24158971.348                                           0.239  
> 2022 01 01 00 02 13.3688020  0  8                     
G10  22536440.699                                           0.254  
G15  24756360.194                                           0.232  
G18  20627225.407                                           0.255  
G23  21995914.923                                           0.255  
G24  22276599.632                                           0.252  
G25  25855292.519                                           0.227  
G27  23540239.209                                           0.243  
G29  24159039.160                                           0.239  
> 2022 01 01 00 02 13.4688020  0  8                     
G10  22536432.055       51107.591         988.157           0.255  
G15  24756424.844     -287269.778       -3423.631           0.232  
G18  20627226.905       -4364.309         -94.751           0.255  
G23  21995921.390      -21646.371        -201.740           0.255  
G24  22276611.479      -30542.550        -337.142           0.252  
G25  25855289.457       11486.712        -164.927           0.227  
G27  23540209.448       81719.190        2036.939           0.243  
G29  24159104.480     -131931.702       -3297.114           0.240  
> 2022 01 01 00 02 13.6688020  0  8                     
G10  22536411.579       51208.156        1475.919           0.254  
G15  24756558.510     -287966.585       -3191.248           0.232  
G18  20627229.746       -4380.043          -8.201           0.255  
G23  21995936.670      -21721.656        -392.786           0.255  
G24  22276631.233      -30657.601        -508.432           0.252  
G25  25855281.059       11530.476         273.137           0.227  
G27  23540145.398       82038.677      -15037.526           0.243  
G29  24159243.764     -132640.731       -3534.359           0.239  
> 2022 01 01 00 02 13.7688020  0  8                     
G10  22536403.160       51257.939         977.959           0.254  
G15  24756624.895     -288314.759       -3140.429           0.232  
G18  20627231.341       -4388.012         -80.651           0.255  
G23  21995942.267      -21759.199        -367.274           0.255  
G24  22276643.926      -30715.070        -572.591           0.252  
G25  25855276.136       11553.091        1033.753           0.227  
G27  23540118.619       82209.996        1640.953           0.243  
G29  24159305.694     -132995.034       -3313.184           0.239  
> 2022 01 01 00 02 13.9688020  0  8                     
G10  22536384.059       51357.964         509.906           0.254  
G15  24756761.305     -289011.645       -3446.931           0.232  
G18  20627234.962       -4403.884        -134.330           0.255  
G23  21995958.090      -21834.267        -340.918           0.255  
G24  22276664.731      -30830.031        -546.660           0.252  
G25  25855268.362       11595.761         701.389           0.227  
G27  23540051.112       82537.365        1682.269           0.243  
G29  24159444.696     -133704.191       -3629.254           0.239  
> 2022 01 01 00 02 14.1688020  0  8                     
G10  22536364.718                                           0.254  
G15  24756893.944     -289706.798       -3450.364           0.231  
G18  20627237.438                                           0.255  
G23  21995973.192                                           0.255  
G24  22276686.670                                           0.252  
G25  25855258.991                                           0.227  
G27  23539985.995                                           0.243  
G29  24159578.904                                           0.239  
> 2022 01 01 00 02 14.2688020  0  8                     
G10  22536355.969       51508.262         435.489           0.254  
G15  24756953.227     -290055.230       -3495.665           0.231  
G18  20627238.922                                           0.255  
G23  21995980.481                                           0.255  
G24  22276702.004                                           0.252  
G25  25855254.358                                           0.227  
G27  23539955.679                                           0.242  
G29  24159641.362                                           0.240  
> 2022 01 01 00 02 14.4688020  0  8                     
G10  22536335.543                                           0.254  
G15  24757090.207     -290751.837       -3486.472           0.232  
G18  20627241.677                                           0.255  
G23  21995994.863                                           0.255  
G24  22276722.611      -31117.135        -589.855           0.252  
G25  25855246.973                                           0.226  
G27  23539893.986                                           0.243  
G29  24159777.489                                           0.240  
> 2022 01 01 00 02 14.5688020  0  8                     
G10  22536327.737                                           0.255  
G15  24757153.478                                           0.232  
G18  20627243.509                                           0.255  
G23  21995999.652                                           0.255  
G24  22276731.692                                           0.252  
G25  25855243.872                                           0.227  
G27  23539866.369       83518.451        1636.872           0.244  
G29  24159846.934                                           0.240  
> 2022 01 01 00 02 14.6688020  0  8                     
G10  22536316.984       51708.492         397.395           0.255  
G15  24757224.681     -291449.754       -3240.281           0.232  
G18  20627244.847       -4459.517        -188.373           0.255  
G23  21996006.838      -22097.134        -326.591           0.255  
G24  22276741.086      -31232.410        -469.716           0.252  
G25  25855237.977       11748.973        1049.390           0.227  
G27  23539837.480       83683.011        1900.566           0.243  
G29  24159914.948     -136185.430       -3696.073           0.239  
> 2022 01 01 00 02 14.7688020  0  8                     
G10  22536309.171       51758.725         671.050           0.254  
G15  24757286.550     -291798.275       -3280.134           0.232  
G18  20627246.965       -4467.492        -148.642           0.255  
G23  21996014.306      -22134.679        -357.077           0.255  
G24  22276753.352      -31290.178        -705.309           0.252  
G25  25855232.272       11770.399         216.634           0.227  
G27  23539804.254       83846.525        1714.566           0.241  
G29  24159979.238     -136539.928       -3566.347           0.240  
> 2022 01 01 00 02 14.8688020  0  8                     
G10  22536298.407       51808.566         155.219           0.254  
G15  24757353.245     -292146.513       -3727.378           0.232  
G18  20627248.391       -4475.410         -72.141           0.255  
G23  21996023.186      -22172.292        -711.893           0.255  
G24  22276765.074      -31347.606        -533.595           0.252  
G25  25855228.583       11792.170         444.788           0.227  
G27  23539768.133       84010.020        1149.541           0.243  
G29  24160048.858     -136894.205       -3403.501           0.240  
> 2022 01 01 00 02 14.9688020  0  8                     
G10  22536288.970                                           0.254  
G15  24757421.152                                           0.232  
G18  20627249.162                                           0.255  
G23  21996028.888                                           0.255  
G24  22276775.898      -31404.750        -574.860           0.252  
G25  25855224.149       11816.924         173.090           0.226  
G27  23539742.449       84172.893        1604.777           0.243  
G29  24160117.099     -137247.149       -3515.629           0.239  
> 2022 01 01 00 02 15.2688020  0  8                     
G10  22536261.263                                           0.254  
G15  24757622.548     -293538.392       -3438.011           0.232  
G18  20627253.834                                           0.255  
G23  21996048.601                                           0.255  
G24  22276806.278      -31577.428        -577.056           0.252  
G25  25855211.706                                           0.227  
G27  23539649.298                                           0.243  
G29  24160320.764     -138310.486       -3501.852           0.239  
> 2022 01 01 00 02 15.3688020  0  8                     
G10  22536251.005                                           0.254  
G15  24757685.572                                           0.232  
G18  20627256.295                                           0.255  
G23  21996058.781                                           0.255  
G24  22276817.053      -31634.972        -591.717           0.252  
G25  25855207.736                                           0.227  
G27  23539615.822                                           0.244  
G29  24160390.507                                           0.240  
> 2022 01 01 00 02 15.4688020  0  8                     
G10  22536241.526       52108.940         -87.042           0.254  
G15  24757749.790     -294236.540       -3498.015           0.232  
G18  20627257.327       -4523.221          88.690           0.255  
G23  21996064.068      -22397.636        -445.882           0.255  
G24  22276830.071      -31693.033        -602.844           0.252  
G25  25855208.191       11923.078         398.166           0.227  
G27  23539583.888       84991.594        1463.645           0.242  
G29  24160457.252     -139021.030       -3834.000           0.239  
> 2022 01 01 00 02 15.5688020  0  8                     
G10  22536230.295       52159.121         117.592           0.254  
G15  24757817.705     -294584.863       -3425.191           0.232  
G18  20627258.718       -4531.379        -176.851           0.255  
G23  21996071.851      -22435.044        -354.184           0.255  
G24  22276841.092      -31750.559        -671.855           0.252  
G25  25855199.680       11944.457          35.594           0.227  
G27  23539555.640       85155.198        1400.828           0.245  
G29  24160525.998     -139375.254       -3399.183           0.239  
> 2022 01 01 00 02 15.7688020  0  8                     
G10  22536215.058                                           0.255  
G15  24757948.703                                           0.232  
G18  20627262.086                                           0.255  
G23  21996087.797                                           0.255  
G24  22276862.684                                           0.252  
G25  25855199.773                                           0.226  
G27  23539493.583                                           0.242  
G29  24160656.062     -140082.777       -3493.949           0.239  
> 2022 01 01 00 02 15.8688020  0  8                     
G10  22536203.670                                           0.254  
G15  24758019.750     -295628.256       -3458.594           0.232  
G18  20627263.073                                           0.255  
G23  21996083.444                                           0.255  
G24  22276874.575                                           0.252  
G25  25855189.629                                           0.226  
G27  23539473.756                                           0.244  
G29  24160724.500     -140437.290       -3587.556           0.240  
> 2022 01 01 00 02 16.0688020  0  8                     
G10  22536184.624       52409.792         606.165           0.254  
G15  24758145.342     -296326.439       -3536.382           0.231  
G18  20627266.375       -4571.389         -65.194           0.255  
G23  21996103.229      -22622.837        -468.607           0.255  
G24  22276895.439      -32038.383        -554.244           0.252  
G25  25855179.801       12052.144       -3736.905           0.227  
G27  23539410.218       85973.130        1705.813           0.243  
G29  24160860.599     -141147.498       -3142.589           0.239  
> 2022 01 01 00 02 16.1688020  0  8                     
G10  22536176.195                                           0.254  
G15  24758215.709                                           0.231  
G18  20627267.935                                           0.255  
G23  21996114.543                                           0.255  
G24  22276906.507                                           0.252  
G25  25855172.606                                           0.227  
G27  23539365.767                                           0.243  
G29  24160925.119                                           0.239  
> 2022 01 01 00 02 16.2688020  0  8                     
G10  22536167.830       52510.003         796.351           0.254  
G15  24758280.101     -297022.828       -2999.649           0.231  
G18  20627269.562       -4587.484         -90.899           0.255  
G23  21996125.189      -22697.898        -298.483           0.255  
G24  22276916.948      -32153.656        -411.881           0.252  
G25  25855171.392       12098.035        1107.721           0.226  
G27  23539329.901       86300.158        1684.686           0.244  
G29  24160991.245     -141856.807       -4156.791           0.240  
> 2022 01 01 00 02 16.4688020  0  8                     
G10  22536144.776                                           0.254  
G15  24758415.241                                           0.231  
G18  20627276.333                                           0.255  
G23  21996138.766                                           0.255  
G24  22276940.362                                           0.252  
G25  25855161.400                                           0.227  
G27  23539270.997                                           0.244  
G29  24161129.505                                           0.239  
> 2022 01 01 00 02 16.5688020  0  8                     
G10  22536136.568                                           0.254  
G15  24758478.753                                           0.232  
G18  20627274.092                                           0.255  
G23  21996142.464      -22810.311        -369.553           0.255  
G24  22276949.855      -32326.194        -582.407           0.252  
G25  25855159.454       12166.556         214.254           0.227  
G27  23539244.590       86789.997        1605.667           0.242  
G29  24161199.673                                           0.240  
> 2022 01 01 00 02 16.6688020  0  8                     
G10  22536127.524       52710.419         555.384           0.254  
G15  24758547.574                                           0.232  
G18  20627275.545                                           0.255  
G23  21996150.824      -22855.352        -407.757           0.255  
G24  22276961.097                                           0.252  
G25  25855157.243                                           0.227  
G27  23539212.334                                           0.244  
G29  24161265.515                                           0.240  
> 2022 01 01 00 02 16.7688020  0  8                     
G10  22536114.672       52761.075        1952.731           0.254  
G15  24758617.056     -298764.627       -3533.337           0.232  
G18  20627276.935       -4627.743        -133.485           0.255  
G23  21996158.253      -22885.323        -253.636           0.255  
G24  22276973.055      -32441.709        -364.067           0.252  
G25  25855151.899       12207.237         345.683           0.227  
G27  23539179.895       87117.689        1481.227           0.244  
G29  24161330.845     -143628.675       -2884.443           0.240  
> 2022 01 01 00 02 17.0688020  0  8                     
G10  22536088.296       52910.846         951.595           0.254  
G15  24758810.817     -299809.478       -3325.524           0.232  
G18  20627281.624       -4651.939         -85.765           0.255  
G23  21996180.436      -22998.291        -507.362           0.255  
G24  22277005.037      -32615.135        -962.698           0.252  
G25  25855140.895       12273.286         632.227           0.227  
G27  23539085.559       87608.232        1130.472           0.243  
G29  24161532.402     -144692.156       -3688.724           0.240  
> 2022 01 01 00 02 17.1688020  0  8                     
G10  22536080.572       52960.940         895.970           0.255  
G15  24758878.388     -300157.993       -3580.962           0.232  
G18  20627283.584       -4660.104        -204.642           0.255  
G23  21996186.973      -23035.784        -424.634           0.255  
G24  22277018.342      -32672.299        -114.350           0.252  
G25  25855133.565       12295.018         871.640           0.227  
G27  23539053.962       87771.812        1489.871           0.244  
G29  24161597.463     -145046.486       -3499.383           0.240  
> 2022 01 01 00 02 17.3688020  0  8                     
G10  22536061.154                                           0.254  
G15  24759011.139                                           0.232  
G18  20627285.753                                           0.255  
G23  21996201.277                                           0.255  
G24  22277036.127                                           0.252  
G25  25855129.278                                           0.226  
G27  23538994.915                                           0.243  
G29  24161738.026                                           0.240  
> 2022 01 01 00 02 17.6688020  0  8                     
G10  22536033.483                                           0.254  
G15  24759202.984     -301897.938       -3483.724           0.232  
G18  20627290.774                                           0.255  
G23  21996223.994                                           0.255  
G24  22277069.802      -32960.569        -552.125           0.252  
G25  25855113.835                                           0.227  
G27  23538894.722                                           0.243  
G29  24161939.570                                           0.239  
> 2022 01 01 00 02 17.7688020  0  8                     
G10  22536024.364       53261.393         504.501           0.254  
G15  24759271.684                                           0.232  
G18  20627292.241                                           0.255  
G23  21996230.397                                           0.255  
G24  22277084.618                                           0.251  
G25  25855109.544                                           0.227  
G27  23538865.276       88751.968        1644.016           0.243  
G29  24162006.428                                           0.238  
> 2022 01 01 00 02 17.8688020  0  8                     
G10  22536015.566                                           0.254  
G15  24759338.835     -302622.428       -3479.761           0.232  
G18  20627293.196                                           0.255  
G23  21996233.064                                           0.255  
G24  22277092.868      -33076.010        -587.631           0.252  
G25  25855105.617                                           0.227  
G27  23538843.183                                           0.243  
G29  24162069.998                                           0.239  
> 2022 01 01 00 02 17.9688020  0  8                     
G10  22536003.650       53361.547         701.435           0.254  
G15  24759410.106     -302944.299       -3464.840           0.232  
G18  20627295.408       -4724.811         -81.141           0.255  
G23  21996245.102      -23336.140        -388.496           0.255  
G24  22277104.540      -33133.932        -150.937           0.252  
G25  25855100.854       12470.249         599.516           0.226  
G27  23538803.930       89079.757        1710.305           0.243  
G29  24162142.117     -147882.103       -3522.712           0.239  
> 2022 01 01 00 02 18.0688020  0  8                     
G10  22535992.197       53410.146       -1552.223           0.255  
G15  24759475.056     -303292.507       -3377.977           0.231  
G18  20627296.895       -4732.933         -86.006           0.255  
G23  21996249.357      -23373.670        -376.126           0.255  
G24  22277114.202      -33191.867        -611.985           0.252  
G25  25855098.111       12492.084         317.518           0.226  
G27  23538779.309       89243.187        1692.869           0.243  
G29  24162210.285     -148236.617       -3635.438           0.240  
> 2022 01 01 00 02 18.1688020  0  8                     
G10  22535984.378                                           0.254  
G15  24759543.400     -303639.574       -3475.044           0.231  
G18  20627299.246                                           0.255  
G23  21996256.595      -23411.014        -409.345           0.255  
G24  22277125.542                                           0.252  
G25  25855090.842                                           0.226  
G27  23538746.899                                           0.243  
G29  24162275.701                                           0.239  
> 2022 01 01 00 02 18.2688020  0  8                     
G10  22535974.996       53511.921         635.731           0.254  
G15  24759607.952                                           0.232  
G18  20627300.346                                           0.255  
G23  21996263.480      -23448.511        -364.928           0.255  
G24  22277137.087      -33306.977        -652.769           0.252  
G25  25855088.930       12536.072         170.782           0.226  
G27  23538715.042                                           0.243  
G29  24162342.949                                           0.239  
> 2022 01 01 00 02 18.3688020  0  8                     
G10  22535964.591                                           0.254  
G15  24759674.146                                           0.232  
G18  20627301.735                                           0.255  
G23  21996270.952                                           0.255  
G24  22277147.647                                           0.252  
G25  25855082.959                                           0.227  
G27  23538685.369                                           0.243  
G29  24162409.292                                           0.240  
> 2022 01 01 00 02 18.6688020  0  8                     
G10  22535935.024       53714.044        3629.250           0.254  
G15  24759872.308     -305382.251       -4302.126           0.231  
G18  20627306.351       -4781.781        -119.764           0.255  
G23  21996294.141      -23598.866        -359.119           0.255  
G24  22277182.307      -33538.345        -577.192           0.252  
G25  25855074.826       12626.017        3205.379           0.227  
G27  23538588.023       90224.487        3312.336           0.244  
G29  24162614.538     -150363.298       -3677.607           0.239  
> 2022 01 01 00 02 18.8688020  0  8                     
G10  22535916.463                                           0.254  
G15  24760008.235     -306105.476       -3488.333           0.232  
G18  20627310.062                                           0.255  
G23  21996311.490                                           0.255  
G24  22277201.278                                           0.252  
G25  25855064.553                                           0.227  
G27  23538524.177                                           0.243  
G29  24162749.698                                           0.240  
> 2022 01 01 00 02 19.0688020  0  8                     
G10  22535898.453                                           0.254  
G15  24760138.381                                           0.232  
G18  20627312.185                                           0.255  
G23  21996320.281                                           0.255  
G24  22277224.049                                           0.252  
G25  25855055.979                                           0.226  
G27  23538467.196       90876.548        1583.969           0.242  
G29  24162884.582     -151779.625       -3570.990           0.239  
> 2022 01 01 00 02 19.1688020  0  8                     
G10  22535889.966                                           0.255  
G15  24760200.999                                           0.232  
G18  20627313.684                                           0.255  
G23  21996326.981      -23786.351        -374.920           0.255  
G24  22277235.325                                           0.252  
G25  25855049.881                                           0.227  
G27  23538438.486                                           0.243  
G29  24162950.752                                           0.240  
> 2022 01 01 00 02 19.2688020  0  8                     
G10  22535876.640       54012.323        -516.921           0.254  
G15  24760279.044     -307472.303       -3598.356           0.232  
G18  20627315.750       -4830.753         -73.031           0.255  
G23  21996335.000      -23824.142        -344.674           0.255  
G24  22277245.656      -33885.040        -583.387           0.252  
G25  25855052.662       12754.705       -2848.109           0.226  
G27  23538406.495       91204.217        1839.366           0.243  
G29  24163023.419     -152489.805       -3354.510           0.239  
> 2022 01 01 00 02 19.4688020  0  8                     
G10  22535859.719       54112.911         445.488           0.254  
G15  24760403.973     -308168.628       -3593.827           0.232  
G18  20627318.429       -4847.296        -260.146           0.255  
G23  21996350.176      -23899.236        -366.888           0.255  
G24  22277269.533      -34000.799        -955.507           0.252  
G25  25855038.216       12800.016         991.457           0.227  
G27  23538339.819       91530.929        1635.391           0.243  
G29  24163152.616     -153198.978       -3797.498           0.239  
> 2022 01 01 00 02 19.6688020  0  8                     
G10  22535840.489       54213.182         545.300           0.254  
G15  24760536.412     -308865.394       -3620.157           0.232  
G18  20627322.125       -4863.513        -110.973           0.255  
G23  21996366.482      -23974.817        -980.129           0.255  
G24  22277292.000      -34116.417        -617.671           0.252  
G25  25855030.764       12843.469        -550.074           0.227  
G27  23538275.663       91858.768        4028.021           0.244  
G29  24163287.902     -153908.356       -5311.712           0.239  
> 2022 01 01 00 02 20.0688020  0  8                     
G10  22535800.950       54423.699       23889.814           0.254  
G15  24760805.689     -310258.756       -3800.137           0.232  
G18  20627327.416       -4896.379         -98.540           0.255  
G23  21996394.874      -24124.409        -260.589           0.255  
G24  22277335.101      -34347.651        -494.322           0.252  
G25  25855014.014       12930.851        -707.337           0.227  
G27  23538157.158       92510.530        1554.726           0.243  
G29  24163557.925     -155325.604       -3871.589           0.239  
> 2022 01 01 00 02 20.1688020  0  8                     
G10  22535793.720                                           0.255  
G15  24760868.763     -310605.401       -3455.972           0.232  
G18  20627330.514                                           0.255  
G23  21996402.602                                           0.255  
G24  22277346.364                                           0.252  
G25  25855007.228                                           0.226  
G27  23538120.923                                           0.243  
G29  24163624.635                                           0.240  
> 2022 01 01 00 02 20.2688020  0  8                     
G10  22535784.078       54513.804         532.674           0.254  
G15  24760932.014     -310955.246       -3604.637           0.232  
G18  20627331.635       -4912.799         -81.792           0.255  
G23  21996411.049      -24199.496        -375.418           0.255  
G24  22277357.374      -34463.534        -930.615           0.252  
G25  25855003.632       12975.236        -160.714           0.227  
G27  23538087.778       92837.750        1654.057           0.243  
G29  24163690.398     -156034.488       -3765.338           0.239  
> 2022 01 01 00 02 20.3688020  0  8                     
G10  22535774.931                                           0.254  
G15  24761000.483                                           0.232  
G18  20627332.789                                           0.255  
G23  21996415.994                                           0.255  
G24  22277368.291                                           0.252  
G25  25855000.942                                           0.227  
G27  23538056.817                                           0.243  
G29  24163762.450                                           0.239  
> 2022 01 01 00 02 20.4688020  0  8                     
G10  22535764.501                                           0.254  
G15  24761062.516                                           0.231  
G18  20627334.529                                           0.255  
G23  21996419.769                                           0.255  
G24  22277379.313                                           0.252  
G25  25854997.640                                           0.226  
G27  23538031.640                                           0.243  
G29  24163826.050                                           0.240  
> 2022 01 01 00 02 20.5688020  0  8                     
G10  22535755.113                                           0.254  
G15  24761127.031     -312075.216       -3522.449           0.232  
G18  20627336.036                                           0.255  
G23  21996428.525      -24311.883        -377.888           0.255  
G24  22277388.874                                           0.252  
G25  25854993.263       13041.787         184.843           0.226  
G27  23538002.571                                           0.242  
G29  24163898.747     -157096.319       -3553.955           0.239  
> 2022 01 01 00 02 20.6688020  0  8                     
G10  22535743.979       54714.236         394.963           0.254  
G15  24761201.165     -312346.871       -3457.017           0.232  
G18  20627337.500                                           0.255  
G23  21996434.719                                           0.255  
G24  22277400.946                                           0.252  
G25  25854988.556                                           0.227  
G27  23537972.168                                           0.243  
G29  24163960.488                                           0.240  
> 2022 01 01 00 02 20.7688020  0  8                     
G10  22535736.807                                           0.254  
G15  24761263.122     -312695.160       -3503.099           0.232  
G18  20627339.363                                           0.255  
G23  21996445.168                                           0.255  
G24  22277411.884                                           0.252  
G25  25854983.822                                           0.227  
G27  23537934.388       93653.597        1652.721           0.243  
G29  24164028.400                                           0.239  
> 2022 01 01 00 02 20.8688020  0  8                     
G10  22535725.832                                           0.254  
G15  24761329.566                                           0.232  
G18  20627340.963                                           0.255  
G23  21996451.790                                           0.255  
G24  22277423.834                                           0.252  
G25  25854980.031                                           0.227  
G27  23537903.188                                           0.243  
G29  24164098.362     -158159.681       -3569.885           0.239  
> 2022 01 01 00 02 20.9688020  0  8                     
G10  22535717.073                                           0.255  
G15  24761394.026                                           0.231  
G18  20627341.703                                           0.255  
G23  21996456.415      -24464.248        -372.815           0.255  
G24  22277434.441                                           0.252  
G25  25854975.966                                           0.227  
G27  23537876.376                                           0.243  
G29  24164162.414                                           0.239  
> 2022 01 01 00 02 21.0688020  0  8                     
G10  22535707.561       54914.609         502.608           0.254  
G15  24761464.874     -313741.445       -3407.157           0.231  
G18  20627343.043       -4978.769         -74.217           0.255  
G23  21996465.999      -24499.812        -380.204           0.255  
G24  22277445.373      -34926.454        -549.639           0.252  
G25  25854971.479       13152.045         109.023           0.227  
G27  23537845.976       94144.187        1821.530           0.243  
G29  24164229.518     -158870.019       -3315.073           0.239  
> 2022 01 01 00 02 21.2688020  0  8                     
G10  22535687.637                                           0.254  
G15  24761600.260                                           0.231  
G18  20627346.997                                           0.255  
G23  21996482.507                                           0.255  
G24  22277466.709                                           0.252  
G25  25854962.192                                           0.227  
G27  23537771.800       94470.082        1647.177           0.243  
G29  24164367.842                                           0.239  
> 2022 01 01 00 02 21.4688020  0  8                     
G10  22535669.061       55129.164         590.848           0.255  
G15  24761730.036     -315133.274       -3520.421           0.232  
G18  20627350.433                                           0.255  
G23  21996491.835      -24649.649        -383.793           0.255  
G24  22277489.807                                           0.252  
G25  25854952.794                                           0.226  
G27  23537721.402                                           0.243  
G29  24164500.523                                           0.240  
> 2022 01 01 00 02 21.5688020  0  8                     
G10  22535659.929       55164.558        -363.970           0.254  
G15  24761795.434     -315482.166       -1142.443           0.232  
G18  20627351.844       -5020.288        -318.423           0.255  
G23  21996498.984      -24687.502        -490.464           0.255  
G24  22277500.346      -35216.097        -574.559           0.252  
G25  25854949.698       13262.143          48.855           0.227  
G27  23537687.124       94945.698      -18826.154           0.244  
G29  24164569.649     -160642.207       -3494.253           0.240  
> 2022 01 01 00 02 21.6688020  0  8                     
G10  22535650.077                                           0.254  
G15  24761861.333                                           0.232  
G18  20627353.405                                           0.255  
G23  21996509.115                                           0.255  
G24  22277510.391                                           0.252  
G25  25854944.845                                           0.227  
G27  23537653.433                                           0.243  
G29  24164638.461                                           0.239  
> 2022 01 01 00 02 21.7688020  0  8                     
G10  22535641.216                                           0.254  
G15  24761927.297                                           0.231  
G18  20627355.217                                           0.255  
G23  21996517.703                                           0.255  
G24  22277522.007                                           0.252  
G25  25854942.498                                           0.227  
G27  23537621.627                                           0.243  
G29  24164704.576     -161349.661       -3546.534           0.239  
> 2022 01 01 00 02 21.8688020  0  8                     
G10  22535631.381       55315.417         401.659           0.255  
G15  24761993.749     -316527.805       -3394.436           0.232  
G18  20627356.497       -5045.037         -66.835           0.255  
G23  21996522.970      -24799.967        -342.470           0.255  
G24  22277533.224      -35389.933        -578.745           0.252  
G25  25854938.713       13328.542         373.051           0.227  
G27  23537591.949       95450.359        1274.746           0.243  
G29  24164773.787     -161705.404       -3411.400           0.240  
> 2022 01 01 00 02 22.0688020  0  8                     
G10  22535612.486       55415.526         149.691           0.254  
G15  24762125.677     -317224.031       -2681.516           0.232  
G18  20627359.605       -5061.789        -184.153           0.255  
G23  21996535.854      -24875.084        -435.488           0.255  
G24  22277555.200      -35505.840        -620.966           0.252  
G25  25854928.537       13372.507          20.772           0.227  
G27  23537533.112       95776.988        1585.012           0.244  
G29  24164904.714     -162414.341       -3514.218           0.240  
> 2022 01 01 00 02 22.1688020  0  8                     
G10  22535602.656                                           0.254  
G15  24762191.248                                           0.232  
G18  20627361.000                                           0.255  
G23  21996542.430                                           0.255  
G24  22277567.273                                           0.252  
G25  25854926.569                                           0.227  
G27  23537505.612                                           0.243  
G29  24164973.686     -162767.427       -3544.790           0.240  
> 2022 01 01 00 02 22.3688020  0  8                     
G10  22535584.682                                           0.255  
G15  24762322.997                                           0.232  
G18  20627364.221                                           0.255  
G23  21996559.877                                           0.255  
G24  22277588.675                                           0.252  
G25  25854916.258                                           0.227  
G27  23537436.379                                           0.243  
G29  24165109.649                                           0.239  
> 2022 01 01 00 02 22.4688020  0  8                     
G10  22535573.487                                           0.254  
G15  24762391.730                                           0.232  
G18  20627365.984                                           0.255  
G23  21996565.931                                           0.255  
G24  22277601.549                                           0.252  
G25  25854911.464                                           0.226  
G27  23537406.521                                           0.243  
G29  24165175.752                                           0.240  
> 2022 01 01 00 02 22.5688020  0  8                     
G10  22535563.949                                           0.254  
G15  24762458.273                                           0.232  
G18  20627367.321                                           0.255  
G23  21996571.464                                           0.255  
G24  22277610.447                                           0.252  
G25  25854910.480                                           0.227  
G27  23537379.646       96592.320        1621.550           0.243  
G29  24165242.981                                           0.239  
> 2022 01 01 00 02 22.7688020  0  8                     
G10  22535545.659       55766.428         503.126           0.255  
G15  24762587.588     -319662.276       -3523.303           0.232  
G18  20627370.664       -5120.013        -162.830           0.255  
G23  21996588.242      -25137.813        -428.415           0.255  
G24  22277634.534      -35911.803        -657.364           0.252  
G25  25854904.110       13527.647         685.255           0.226  
G27  23537309.983       96919.762        1949.577           0.243  
G29  24165376.002     -164895.458       -3392.945           0.239  
> 2022 01 01 00 02 22.8688020  0  8                     
G10  22535535.620       55816.472         405.006           0.255  
G15  24762655.585     -320010.586       -3662.457           0.232  
G18  20627372.615       -5128.326         -78.364           0.255  
G23  21996594.730      -25175.322        -399.056           0.255  
G24  22277642.843      -35969.813        -601.958           0.252  
G25  25854900.626       13549.351        -136.334           0.227  
G27  23537280.280       97082.788        1689.369           0.243  
G29  24165447.457     -165249.929       -3532.613           0.239  
> 2022 01 01 00 02 23.0688020  0  8                     
G10  22535516.556                                           0.254  
G15  24762794.298                                           0.232  
G18  20627374.475                                           0.255  
G23  21996608.154                                           0.255  
G24  22277666.476                                           0.252  
G25  25854886.296                                           0.226  
G27  23537221.961                                           0.243  
G29  24165580.332                                           0.240  
> 2022 01 01 00 02 23.1688020  0  8                     
G10  22535508.303       55966.462        -407.857           0.254  
G15  24762850.536     -321054.779       -2373.601           0.232  
G18  20627377.003       -5153.445        -172.226           0.255  
G23  21996615.838      -25287.779          14.209           0.255  
G24  22277676.080      -36144.691       -2493.157           0.252  
G25  25854881.545       13618.229        6575.097           0.227  
G27  23537190.279       97573.920        3972.829           0.243  
G29  24165651.366     -166313.253       -3537.594           0.240  
> 2022 01 01 00 02 23.2688020  0  8                     
G10  22535498.681       56017.059         478.762           0.255  
G15  24762919.569     -321402.274       -3469.673           0.232  
G18  20627379.077                                           0.255  
G23  21996622.610                                           0.255  
G24  22277687.152                                           0.252  
G25  25854879.835                                           0.227  
G27  23537158.371                                           0.243  
G29  24165714.914                                           0.239  
> 2022 01 01 00 02 23.3688020  0  8                     
G10  22535488.398                                           0.254  
G15  24762987.204                                           0.232  
G18  20627380.223                                           0.255  
G23  21996629.214                                           0.255  
G24  22277699.898                                           0.252  
G25  25854875.577                                           0.227  
G27  23537127.881       97907.694        1647.596           0.243  
G29  24165781.260                                           0.240  
> 2022 01 01 00 02 23.4688020  0  8                     
G10  22535478.905       56117.216         501.623           0.254  
G15  24763057.783     -322100.254       -3583.835           0.232  
G18  20627381.912       -5178.524         -83.974           0.255  
G23  21996636.089      -25400.464        -378.867           0.255  
G24  22277708.379      -36318.015        -582.705           0.252  
G25  25854871.613       13682.229        -129.192           0.227  
G27  23537098.313       98061.996        1930.329           0.243  
G29  24165851.016     -167376.585       -3528.756           0.239  
> 2022 01 01 00 02 23.6688020  0  8                     
G10  22535459.840                                           0.254  
G15  24763190.479                                           0.232  
G18  20627384.602                                           0.255  
G23  21996653.078                                           0.255  
G24  22277731.583                                           0.252  
G25  25854862.095       13726.551         156.880           0.226  
G27  23537030.934                                           0.243  
G29  24165985.665                                           0.239  
> 2022 01 01 00 02 23.9688020  0  8                     
G10  22535431.300       56367.510         -58.894           0.254  
G15  24763381.591     -323841.565       -3453.386           0.231  
G18  20627389.702       -5220.459         -35.860           0.255  
G23  21996671.493      -25588.080        -371.533           0.255  
G24  22277765.159      -36608.358        -580.480           0.252  
G25  25854848.766       13793.036         185.913           0.227  
G27  23536944.313       98877.666        1629.000           0.243  
G29  24166186.796     -169148.901       -3126.443           0.239  
> 2022 01 01 00 02 24.0688020  0  8                     
G10  22535420.948                                           0.254  
G15  24763453.571     -324188.442       -3471.869           0.231  
G18  20627391.532                                           0.255  
G23  21996681.311                                           0.255  
G24  22277775.238                                           0.252  
G25  25854845.767                                           0.227  
G27  23536910.061                                           0.243  
G29  24166255.107                                           0.240  
> 2022 01 01 00 02 24.1688020  0  8                     
G10  22535410.735                                           0.255  
G15  24763515.893                                           0.232  
G18  20627393.101                                           0.255  
G23  21996689.426                                           0.255  
G24  22277788.075                                           0.252  
G25  25854838.311                                           0.226  
G27  23536880.352                                           0.244  
G29  24166322.523                                           0.239  
> 2022 01 01 00 02 24.4688020  0  8                     
G10  22535383.462                                           0.254  
G15  24763716.942                                           0.232  
G18  20627397.875                                           0.255  
G23  21996707.963                                           0.255  
G24  22277821.034                                           0.252  
G25  25854828.635                                           0.227  
G27  23536786.317                                           0.243  
G29  24166528.113                                           0.240  
> 2022 01 01 00 02 24.5688020  0  8                     
G10  22535374.021       56668.148         -22.176           0.255  
G15  24763782.338     -325930.801       -3176.987           0.232  
G18  20627399.469       -5270.954         -52.355           0.255  
G23  21996714.984      -25813.226        -361.702           0.255  
G24  22277831.679      -36956.979        -578.835           0.252  
G25  25854825.561       13925.747        -518.946           0.227  
G27  23536757.921       99856.236        1286.409           0.243  
G29  24166590.584     -171275.170       -3894.473           0.239  
> 2022 01 01 00 02 24.7688020  0  8                     
G10  22535351.628       56768.316         -76.519           0.254  
G15  24763919.947     -326627.632       -3467.703           0.232  
G18  20627403.020       -5287.835         -42.434           0.255  
G23  21996728.709      -25888.261        -493.396           0.255  
G24  22277853.059      -37073.280        -673.602           0.252  
G25  25854814.895       13970.787        1026.981           0.226  
G27  23536694.018      100182.198         703.036           0.243  
G29  24166732.247     -171984.243       -2937.464           0.239  
> 2022 01 01 00 02 24.8688020  0  8                     
G10  22535346.327       56818.887         406.498           0.254  
G15  24763977.236                                           0.231  
G18  20627404.445                                           0.255  
G23  21996736.623                                           0.255  
G24  22277864.963                                           0.252  
G25  25854810.511                                           0.227  
G27  23536661.787                                           0.243  
G29  24166792.021                                           0.239  
> 2022 01 01 00 02 25.0688020  0  8                     
G10  22535325.313       56919.135         628.729           0.255  
G15  24764116.619     -327672.564       -3598.822           0.231  
G18  20627407.708       -5313.284        -198.602           0.255  
G23  21996750.688      -26000.850        -377.771           0.255  
G24  22277886.624      -37241.019       10381.365           0.252  
G25  25854803.356       14037.359         699.196           0.227  
G27  23536601.908      100671.906        1612.692           0.243  
G29  24166928.163     -173047.689       -3541.506           0.239  
> 2022 01 01 00 02 25.2688020  0  8                     
G10  22535308.141       57018.785        -508.061           0.254  
G15  24764245.223     -328368.186       -1283.708           0.232  
G18  20627410.352       -5330.106         -42.382           0.255  
G23  21996765.161      -26075.926        -308.727           0.255  
G24  22277909.232      -37363.999        -615.397           0.252  
G25  25854794.846       14081.525         292.488           0.227  
G27  23536537.239      100998.075        1549.147           0.243  
G29  24167064.588     -173756.558       -3544.939           0.239  
> 2022 01 01 00 02 25.3688020  0  8                     
G10  22535297.094       57071.031        1872.719           0.254  
G15  24764310.706     -328717.441       -3757.104           0.232  
G18  20627412.896       -5338.607         -85.283           0.255  
G23  21996773.654      -26113.451        -486.032           0.255  
G24  22277920.033      -37421.623        -373.285           0.252  
G25  25854789.590       14103.474         160.971           0.226  
G27  23536504.702      101161.164        1588.965           0.243  
G29  24167135.079     -174111.957       -4241.325           0.239  
> 2022 01 01 00 02 25.4688020  0  8                     
G10  22535289.815                                           0.255  
G15  24764382.231                                           0.232  
G18  20627414.436                                           0.255  
G23  21996779.942                                           0.255  
G24  22277931.425                                           0.252  
G25  25854788.720                                           0.226  
G27  23536476.250      101323.445        1628.903           0.243  
G29  24167193.008     -174464.082       -3554.886           0.239  
> 2022 01 01 00 02 25.6688020  0  8                     
G10  22535268.583                                           0.254  
G15  24764514.808                                           0.232  
G18  20627417.321                                           0.255  
G23  21996792.774      -26225.714        -355.759           0.255  
G24  22277953.340      -37596.212        -497.430           0.252  
G25  25854777.606       14170.218          23.485           0.227  
G27  23536413.699      101649.479        1481.602           0.244  
G29  24167333.516                                           0.239  
> 2022 01 01 00 02 25.7688020  0  8                     
G10  22535258.678       57270.006         498.277           0.254  
G15  24764580.110                                           0.232  
G18  20627418.224                                           0.255  
G23  21996801.118      -26263.248        -390.254           0.255  
G24  22277965.162      -37654.433        -584.729           0.252  
G25  25854775.732       14192.513         321.464           0.227  
G27  23536382.709      101812.678        1740.700           0.243  
G29  24167400.689     -175527.458       -3553.380           0.239  
> 2022 01 01 00 02 25.8688020  0  8                     
G10  22535249.935                                           0.255  
G15  24764642.878     -330457.230       -3455.558           0.232  
G18  20627420.653                                           0.255  
G23  21996808.215                                           0.255  
G24  22277975.996                                           0.252  
G25  25854768.310                                           0.226  
G27  23536351.358                                           0.244  
G29  24167470.899     -175881.890       -3629.706           0.239  
> 2022 01 01 00 02 25.9688020  0  8                     
G10  22535240.864       57370.168         545.451           0.254  
G15  24764710.433     -330806.751       -3358.099           0.232  
G18  20627421.968       -5389.502         -32.949           0.255  
G23  21996815.567      -26338.520        -373.936           0.255  
G24  22277986.396      -37771.587       -1113.667           0.252  
G25  25854765.001       14237.754         944.737           0.227  
G27  23536320.685      102139.869        2177.407           0.243  
G29  24167534.635     -176237.687       -3567.080           0.240  
> 2022 01 01 00 02 26.0688020  0  8                     
G10  22535230.044                                           0.254  
G15  24764776.346     -331153.631       -3272.340           0.232  
G18  20627423.814                                           0.255  
G23  21996822.986                                           0.255  
G24  22277997.278      -37829.066        -533.698           0.252  
G25  25854761.117       14259.394         279.152           0.227  
G27  23536290.211      102301.659        1515.932           0.243  
G29  24167602.399     -176590.658       -3528.496           0.240  
> 2022 01 01 00 02 26.4688020  0  8                     
G10  22535192.617                                           0.254  
G15  24765041.552                                           0.232  
G18  20627430.080                                           0.255  
G23  21996848.804                                           0.255  
G24  22278042.807      -38061.977        -611.102           0.252  
G25  25854742.405                                           0.227  
G27  23536169.391                                           0.242  
G29  24167875.414                                           0.239  
> 2022 01 01 00 02 26.5688020  0  8                     
G10  22535183.683       57672.135        3008.806           0.254  
G15  24765109.608     -332896.680       -3697.509           0.232  
G18  20627431.597       -5440.461         119.855           0.255  
G23  21996858.103      -26563.623        -296.169           0.255  
G24  22278052.901      -38120.603        -651.109           0.252  
G25  25854738.188       14370.126        -281.886           0.227  
G27  23536134.152      103117.583        1665.731           0.243  
G29  24167940.149     -178364.270       -3602.877           0.240  
> 2022 01 01 00 02 26.6688020  0  8                     
G10  22535173.140                                           0.255  
G15  24765172.064                                           0.232  
G18  20627433.258                                           0.255  
G23  21996865.209                                           0.255  
G24  22278063.961                                           0.252  
G25  25854735.107                                           0.227  
G27  23536102.725                                           0.242  
G29  24168010.783                                           0.239  
> 2022 01 01 00 02 26.7688020  0  8                     
G10  22535162.925                                           0.254  
G15  24765246.622                                           0.232  
G18  20627435.410                                           0.255  
G23  21996873.170      -26644.447        -383.922           0.255  
G24  22278074.711                                           0.252  
G25  25854731.169       14418.173         226.961           0.227  
G27  23536072.478      103468.981        1677.176           0.244  
G29  24168074.255                                           0.239  
> 2022 01 01 00 02 26.9688020  0  8                     
G10  22535143.631       57866.201       -8759.886           0.254  
G15  24765372.754     -334289.260       -3243.259           0.232  
G18  20627438.391       -5474.747         -85.930           0.255  
G23  21996883.828      -26713.793        -927.752           0.255  
G24  22278097.799      -38353.651        -609.306           0.252  
G25  25854722.981       14458.911       -1573.498           0.227  
G27  23536015.444      103769.365        1382.354           0.244  
G29  24168209.641     -179780.996       -2033.749           0.240  
> 2022 01 01 00 02 27.0688020  0  8                     
G10  22535135.384                                           0.255  
G15  24765442.367     -334636.280       -3467.011           0.232  
G18  20627439.891                                           0.255  
G23  21996893.858                                           0.255  
G24  22278108.217                                           0.252  
G25  25854717.423                                           0.227  
G27  23535981.093      103931.899        1612.689           0.242  
G29  24168278.467                                           0.239  
> 2022 01 01 00 02 27.1688020  0  8                     
G10  22535126.315       57972.672        2491.346           0.255  
G15  24765504.491     -334986.289       -4332.986           0.231  
G18  20627441.534       -5491.896        -113.626           0.255  
G23  21996899.845      -26788.916        -520.524           0.255  
G24  22278119.843      -38469.329        1155.352           0.252  
G25  25854714.137       14503.824         -61.046           0.227  
G27  23535945.956      104096.581        3027.625           0.244  
G29  24168345.434     -180489.849       -2291.056           0.239  
> 2022 01 01 00 02 27.2688020  0  8                     
G10  22535116.148       58021.780         437.230           0.254  
G15  24765570.033                                           0.232  
G18  20627443.318                                           0.255  
G23  21996908.857                                           0.255  
G24  22278131.082                                           0.252  
G25  25854710.574                                           0.227  
G27  23535920.399                                           0.242  
G29  24168411.677                                           0.239  
> 2022 01 01 00 02 27.3688020  0  8                     
G10  22535105.836                                           0.254  
G15  24765641.804                                           0.232  
G18  20627444.680                                           0.255  
G23  21996914.832                                           0.255  
G24  22278140.241                                           0.252  
G25  25854706.156                                           0.227  
G27  23535887.441                                           0.244  
G29  24168481.156     -181198.397       -3540.343           0.239  
> 2022 01 01 00 02 27.4688020  0  8                     
G10  22535098.423       58118.032      -14997.590           0.255  
G15  24765705.366     -336030.670       -3476.490           0.232  
G18  20627446.558       -5517.546         -23.131           0.255  
G23  21996924.755      -26901.335        -428.165           0.255  
G24  22278152.472      -38645.022        -568.171           0.252  
G25  25854701.931       14570.853         -67.046           0.227  
G27  23535854.054      104584.447        1245.425           0.242  
G29  24168550.417     -181554.124       -3313.192           0.240  
> 2022 01 01 00 02 27.5688020  0  8                     
G10  22535087.527       58172.108         505.076           0.254  
G15  24765770.210     -336378.971       -3505.831           0.232  
G18  20627447.669       -5526.102          11.209           0.255  
G23  21996929.574      -26938.835        -385.085           0.255  
G24  22278163.473      -38703.272        -517.483           0.252  
G25  25854697.464       14593.509         403.739           0.227  
G27  23535823.697      104747.606        1740.331           0.243  
G29  24168616.851     -181908.665       -3544.966           0.240  
> 2022 01 01 00 02 27.6688020  0  8                     
G10  22535076.497       58221.755        -264.996           0.254  
G15  24765843.067     -336727.440       -3725.871           0.232  
G18  20627449.850       -5534.689         -87.195           0.255  
G23  21996937.484      -26976.321        -376.783           0.255  
G24  22278175.404      -38761.595        -528.210           0.252  
G25  25854692.661       14615.072        -464.329           0.227  
G27  23535791.993      104910.480        1642.423           0.243  
G29  24168682.142     -182263.067       -3527.007           0.240  
> 2022 01 01 00 02 27.9688020  0  8                     
G10  22535049.862                                           0.255  
G15  24766034.497     -337770.583       -3486.149           0.232  
G18  20627454.442                                           0.255  
G23  21996956.695                                           0.255  
G24  22278207.425                                           0.252  
G25  25854679.931                                           0.227  
G27  23535702.355                                           0.243  
G29  24168888.406     -183324.976       -3512.914           0.239  
> 2022 01 01 00 02 28.0688020  0  8                     
G10  22535040.778                                           0.254  
G15  24766102.301                                           0.232  
G18  20627455.918                                           0.255  
G23  21996966.493      -27131.389        -395.317           0.255  
G24  22278218.737                                           0.252  
G25  25854676.083                                           0.227  
G27  23535669.342                                           0.243  
G29  24168953.200     -183679.474       -3526.659           0.240  
> 2022 01 01 00 02 28.1688020  0  8                     
G10  22535031.543                                           0.254  
G15  24766165.092                                           0.232  
G18  20627458.026                                           0.255  
G23  21996971.086                                           0.255  
G24  22278230.519                                           0.252  
G25  25854672.626                                           0.227  
G27  23535640.685                                           0.243  
G29  24169022.381                                           0.240  
> 2022 01 01 00 02 28.3688020  0  8                     
G10  22535011.659       58573.034         297.233           0.254  
G15  24766300.864     -339164.936       -3548.916           0.232  
G18  20627461.108       -5594.865         -85.910           0.255  
G23  21996986.248      -27238.882        -345.368           0.255  
G24  22278252.960      -39169.890        -575.805           0.252  
G25  25854663.351       14771.915         761.450           0.227  
G27  23535578.612      106050.743        1205.976           0.244  
G29  24169153.600     -184744.131       -3546.935           0.240  
> 2022 01 01 00 02 28.4688020  0  8                     
G10  22535000.797       58624.116        2170.792           0.254  
G15  24766369.192     -339513.272       -3713.645           0.232  
G18  20627462.605       -5603.481        -191.069           0.255  
G23  21996994.353      -27276.422        -377.150           0.255  
G24  22278263.912      -39227.970        -184.917           0.252  
G25  25854659.979       14794.218         355.780           0.227  
G27  23535544.956      106214.355        2326.124           0.242  
G29  24169223.947     -185098.542       -3486.132           0.240  
> 2022 01 01 00 02 28.7688020  0  8                     
G10  22534973.178                                           0.254  
G15  24766568.559                                           0.232  
G18  20627467.783                                           0.255  
G23  21997014.567                                           0.255  
G24  22278296.739                                           0.252  
G25  25854646.501                                           0.227  
G27  23535453.116                                           0.244  
G29  24169424.093                                           0.239  
> 2022 01 01 00 02 28.9688020  0  8                     
G10  22534955.794                                           0.254  
G15  24766698.627                                           0.232  
G18  20627470.838                                           0.255  
G23  21997030.058      -27463.722        -356.748           0.255  
G24  22278318.638                                           0.252  
G25  25854637.417                                           0.227  
G27  23535388.651                                           0.242  
G29  24169560.561                                           0.240  
> 2022 01 01 00 02 29.0688020  0  8                     
G10  22534943.985       58924.025         474.982           0.254  
G15  24766765.405     -341602.848       -4115.086           0.231  
G18  20627472.575       -5655.253         -41.887           0.255  
G23  21997035.539      -27501.506        -359.261           0.255  
G24  22278332.102      -39578.470        -582.895           0.252  
G25  25854633.753       14928.430         546.741           0.227  
G27  23535361.908      107191.430        1825.321           0.244  
G29  24169629.371     -187225.185       -3542.974           0.239  
> 2022 01 01 00 02 29.1688020  0  8                     
G10  22534935.691       58974.068         218.395           0.254  
G15  24766832.364     -341950.848       -3531.611           0.232  
G18  20627474.322       -5663.969        -174.668           0.255  
G23  21997046.135      -27538.989        -363.987           0.255  
G24  22278341.438      -39636.865        -583.027           0.252  
G25  25854628.943       14950.593         341.429           0.227  
G27  23535323.333      107353.988        1433.266           0.242  
G29  24169694.783     -187579.627       -3566.943           0.240  
> 2022 01 01 00 02 29.2688020  0  8                     
G10  22534925.876                                           0.254  
G15  24766898.699     -342297.732       -3503.199           0.232  
G18  20627476.139                                           0.255  
G23  21997050.982                                           0.255  
G24  22278352.543      -39694.818        -459.384           0.252  
G25  25854624.734       14972.884         174.417           0.227  
G27  23535297.267                                           0.243  
G29  24169764.153                                           0.240  
> 2022 01 01 00 02 29.3688020  0  8                     
G10  22534916.248       59074.425         573.247           0.254  
G15  24766959.973     -342647.731       -3973.058           0.232  
G18  20627477.575       -5681.237         -74.262           0.255  
G23  21997057.064      -27613.933        -202.447           0.255  
G24  22278363.676      -39754.449       -1457.086           0.252  
G25  25854620.314       14995.337         297.264           0.227  
G27  23535267.197      107680.093         956.342           0.243  
G29  24169830.555     -188287.857       -2160.389           0.239  
> 2022 01 01 00 02 29.4688020  0  8                     
G10  22534906.623       59124.552         499.997           0.255  
G15  24767029.018     -342995.639       -3581.961           0.232  
G18  20627479.401       -5689.912        -101.046           0.255  
G23  21997069.420      -27651.535        -381.224           0.255  
G24  22278374.847      -39812.124        -542.692           0.252  
G25  25854615.976       15017.243        -618.915           0.227  
G27  23535227.459      107842.760        1642.989           0.243  
G29  24169899.811     -188642.950       -3541.532           0.239  
> 2022 01 01 00 02 29.6688020  0  8                     
G10  22534888.163                                           0.254  
G15  24767162.504                                           0.232  
G18  20627482.730                                           0.255  
G23  21997080.485      -27726.329        -362.574           0.255  
G24  22278396.236                                           0.252  
G25  25854607.886                                           0.227  
G27  23535169.374                                           0.241  
G29  24170031.753                                           0.239  
> 2022 01 01 00 02 29.7688020  0  8                     
G10  22534876.914                                           0.255  
G15  24767230.688                                           0.232  
G18  20627484.298                                           0.255  
G23  21997089.378                                           0.255  
G24  22278409.369                                           0.252  
G25  25854603.858                                           0.227  
G27  23535134.215                                           0.243  
G29  24170097.974                                           0.239  
> 2022 01 01 00 02 29.8688020  0  8                     
G10  22534868.189       59324.813         134.897           0.254  
G15  24767296.624     -344388.719       -3744.380           0.231  
G18  20627486.290       -5724.664        -205.427           0.255  
G23  21997088.741      -27801.581        -333.407           0.255  
G24  22278418.959      -40045.757        -500.604           0.252  
G25  25854599.162       15107.168         227.361           0.227  
G27  23535120.449      108494.203        1628.302           0.242  
G29  24170166.016     -190060.490       -3298.686           0.240  
> 2022 01 01 00 02 29.9688020  0  8                     
G10  22534858.497       59375.471        1065.728           0.254  
G15  24767360.013     -344736.747       -3550.323           0.232  
G18  20627487.270       -5733.193         -11.821           0.255  
G23  21997101.461      -27839.092        -374.943           0.255  
G24  22278430.821      -40104.261        -633.413           0.252  
G25  25854594.446       15129.456         166.670           0.227  
G27  23535080.381      108657.019        1551.743           0.242  
G29  24170234.444     -190415.081       -3453.419           0.240  
> 2022 01 01 00 02 30.0688020  0  8                     
G10  22534848.800                                           0.254  
G15  24767430.145     -345083.684       -3476.226           0.232  
G18  20627489.181                                           0.255  
G23  21997107.648                                           0.255  
G24  22278441.153                                           0.252  
G25  25854590.525                                           0.227  
G27  23535051.089                                           0.245  
G29  24170304.785                                           0.240  
> 2022 01 01 00 02 30.1688020  0  8                     
G10  22534838.871                                           0.255  
G15  24767495.368                                           0.232  
G18  20627490.460                                           0.255  
G23  21997115.452                                           0.255  
G24  22278453.412                                           0.252  
G25  25854587.818                                           0.227  
G27  23535018.393                                           0.242  
G29  24170369.956     -191122.682       -3495.395           0.240  
> 2022 01 01 00 02 30.4688020  0  8                     
G10  22534811.652                                           0.254  
G15  24767691.507                                           0.232  
G18  20627495.959                                           0.255  
G23  21997138.816                                           0.255  
G24  22278486.429      -40396.106        -564.704           0.252  
G25  25854574.370                                           0.227  
G27  23534919.384      109470.334        1634.104           0.241  
G29  24170570.779                                           0.240  
> 2022 01 01 00 02 30.5688020  0  8                     
G10  22534801.619       59676.120         626.181           0.254  
G15  24767759.685     -346826.467       -4029.160           0.232  
G18  20627497.294       -5785.513         -81.118           0.255  
G23  21997146.997      -28064.144        -522.363           0.255  
G24  22278497.422      -40454.854        -259.090           0.252  
G25  25854570.404       15263.731         163.205           0.227  
G27  23534891.374      109633.404         356.035           0.242  
G29  24170637.632     -192541.873       -3682.415           0.239  
> 2022 01 01 00 02 30.6688020  0  8                     
G10  22534790.803       59704.809      -41813.918           0.255  
G15  24767825.226     -347174.349       -3427.202           0.232  
G18  20627499.413       -5794.190         -10.224           0.255  
G23  21997147.985      -28101.617        -394.554           0.255  
G24  22278509.420      -40510.714        5686.848           0.252  
G25  25854565.489       15285.835        -821.121           0.227  
G27  23534868.530      109796.644        1584.527           0.244  
G29  24170706.168     -192896.358       -3924.251           0.240  
> 2022 01 01 00 02 30.7688020  0  8                     
G10  22534780.892       59776.143         168.561           0.254  
G15  24767891.119     -347522.823       -3663.685           0.232  
G18  20627501.326       -5802.955        -221.131           0.255  
G23  21997158.810      -28139.143        -419.240           0.255  
G24  22278518.785      -40572.185        -993.716           0.252  
G25  25854558.996       15308.753         280.253           0.227  
G27  23534830.683      109959.515        1831.924           0.242  
G29  24170776.019     -193250.580       -3601.324           0.239  
> 2022 01 01 00 02 30.8688020  0  8                     
G10  22534773.314       59826.453         493.873           0.254  
G15  24767952.424     -347870.861       -3440.425           0.232  
G18  20627502.368       -5811.650           8.775           0.255  
G23  21997166.311      -28176.692        -383.302           0.255  
G24  22278530.885      -40630.526        -729.288           0.252  
G25  25854557.342       15331.111         139.192           0.227  
G27  23534801.423      110122.298        1524.150           0.244  
G29  24170840.527     -193603.813       -1473.086           0.240  
> 2022 01 01 00 02 31.0688020  0  8                     
G10  22534753.689       59929.295        5514.189           0.254  
G15  24768091.451     -348568.460       -4660.394           0.232  
G18  20627505.304       -5829.148         -86.918           0.255  
G23  21997179.464      -28251.514        -279.727           0.255  
G24  22278553.073      -40747.478        -584.229           0.252  
G25  25854548.998       15377.220        4790.492           0.227  
G27  23534734.540      110448.679        1203.039           0.242  
G29  24170977.336     -194313.210       -1948.605           0.239  
> 2022 01 01 00 02 31.1688020  0  8                     
G10  22534744.071       59976.912         442.483           0.254  
G15  24768154.397                                           0.232  
G18  20627507.535                                           0.255  
G23  21997186.233                                           0.255  
G24  22278563.435                                           0.252  
G25  25854543.209                                           0.227  
G27  23534711.786                                           0.243  
G29  24171041.943                                           0.239  
> 2022 01 01 00 02 31.3688020  0  8                     
G10  22534725.492                                           0.254  
G15  24768290.228                                           0.231  
G18  20627510.687                                           0.255  
G23  21997201.691                                           0.255  
G24  22278586.273                                           0.252  
G25  25854536.796                                           0.227  
G27  23534643.187                                           0.243  
G29  24171178.742                                           0.239  
> 2022 01 01 00 02 31.4688020  0  8                     
G10  22534717.167       60126.139       -1741.037           0.254  
G15  24768353.936     -349960.205       -3460.885           0.231  
G18  20627512.055       -5864.070         144.980           0.255  
G23  21997212.031      -28401.709        -395.044           0.255  
G24  22278598.532      -40981.430        -314.761           0.252  
G25  25854530.858       15465.214        -611.382           0.227  
G27  23534612.000      111099.377        2105.820           0.242  
G29  24171243.334     -195731.840       -3711.055           0.239  
> 2022 01 01 00 02 31.5688020  0  8                     
G10  22534706.464       60177.022         139.175           0.254  
G15  24768419.594     -350308.490       -3615.006           0.232  
G18  20627514.092       -5872.974        -260.913           0.255  
G23  21997215.176      -28439.291        -421.277           0.255  
G24  22278608.116      -41040.051        -282.782           0.252  
G25  25854526.140       15488.060        -236.507           0.227  
G27  23534586.533      111261.004        -305.406           0.243  
G29  24171314.393     -196085.950       -3358.729           0.239  
> 2022 01 01 00 02 31.8688020  0  8                     
G10  22534677.789                                           0.254  
G15  24768622.803     -351351.798       -3462.263           0.232  
G18  20627518.214                                           0.255  
G23  21997237.725                                           0.255  
G24  22278642.369                                           0.252  
G25  25854513.184                                           0.227  
G27  23534491.976      111765.421        1623.113           0.243  
G29  24171517.973                                           0.239  
> 2022 01 01 00 02 31.9688020  0  8                     
G10  22534668.680       60378.287        1513.010           0.255  
G15  24768684.259     -351701.336       -3500.575           0.232  
G18  20627520.425       -5907.979         -27.969           0.255  
G23  21997243.617      -28589.205        -364.902           0.255  
G24  22278653.219      -41273.945         566.352           0.252  
G25  25854509.986       15577.333        -515.585           0.227  
G27  23534462.327      111912.808        1891.770           0.243  
G29  24171584.853     -197504.276       -4102.713           0.239  
> 2022 01 01 00 02 32.0688020  0  8                     
G10  22534657.339       60428.106         503.003           0.254  
G15  24768755.580     -352049.631       -3481.881           0.232  
G18  20627522.371       -5916.846        -166.012           0.255  
G23  21997249.267      -28625.243       -3507.223           0.255  
G24  22278664.106      -41332.903        -592.342           0.252  
G25  25854505.404       15600.358        -135.869           0.227  
G27  23534432.467      112075.346        1389.659           0.243  
G29  24171654.355     -197857.944       -3307.880           0.239  
> 2022 01 01 00 02 32.2688020  0  8                     
G10  22534637.954       60528.468         458.893           0.254  
G15  24768886.824     -352746.038       -3601.157           0.231  
G18  20627526.017       -5934.337         -37.259           0.255  
G23  21997268.878      -28701.668        -310.134           0.255  
G24  22278687.296      -41450.118        -595.055           0.252  
G25  25854496.134       15645.332          86.349           0.227  
G27  23534363.198      112400.939        1879.835           0.243  
G29  24171785.874     -198567.293       -3763.622           0.239  
> 2022 01 01 00 02 32.3688020  0  8                     
G10  22534630.404       60578.543         538.048           0.254  
G15  24768950.252     -353094.168       -3360.016           0.232  
G18  20627527.213       -5943.171         -25.319           0.255  
G23  21997276.884      -28739.240        -393.926           0.255  
G24  22278697.312      -41508.352         -60.932           0.252  
G25  25854492.939       15667.864         215.160           0.227  
G27  23534333.423      112563.658        1773.387           0.243  
G29  24171852.743     -198921.627       -3677.887           0.239  
> 2022 01 01 00 02 32.4688020  0  8                     
G10  22534619.774       60628.670         518.778           0.255  
G15  24769016.054     -353442.366       -3259.187           0.232  
G18  20627528.839       -5951.994         -75.281           0.255  
G23  21997279.857      -28776.716        -374.236           0.255  
G24  22278709.747      -41567.237        -589.237           0.252  
G25  25854487.887       15690.663         757.507           0.227  
G27  23534305.758      112726.293        1628.895           0.243  
G29  24171919.568     -199275.958       -3509.930           0.240  
> 2022 01 01 00 02 32.5688020  0  8                     
G10  22534610.424                                           0.254  
G15  24769089.243     -353789.310       -3394.343           0.232  
G18  20627530.826                                           0.255  
G23  21997285.271      -28813.982        -370.045           0.255  
G24  22278720.159                                           0.252  
G25  25854483.608                                           0.226  
G27  23534277.170                                           0.243  
G29  24171988.570                                           0.240  
> 2022 01 01 00 02 32.7688020  0  8                     
G10  22534590.848                                           0.254  
G15  24769219.763                                           0.232  
G18  20627534.425                                           0.255  
G23  21997302.369      -28888.992        -398.924           0.255  
G24  22278743.187      -41742.679        -583.027           0.252  
G25  25854475.009       15757.899         370.502           0.227  
G27  23534209.541      113213.688        1768.686           0.244  
G29  24172124.151                                           0.239  
> 2022 01 01 00 02 32.8688020  0  8                     
G10  37657262.315                                           0.254  
G15  43189733.532                                           0.232  
G18  35750221.454                                           0.255  
G23  20631409.783                                           0.255  
G24  20912852.302                                           0.252  
G25  24488571.052       15781.291         575.660           0.227  
G27  42554147.665                                           0.244  
G29  41393463.734                                           0.239  
> 2022 01 01 00 02 33.0688020  0  8                     
G10  46671213.536                                           0.254  
G15  49505722.872                                           0.232  
G18  32772501.247                                           0.255  
G23  31743945.034                                           0.255  
G24  20633284.835                                           0.252  
G25  24208976.088       15826.639         324.550           0.227  
G27  49169716.144                                           0.241  
G29  40514423.513                                           0.240  
> 2022 01 01 00 02 33.4688020  0  8                     
G10  22534525.055       61124.920       -8497.057           0.255  
G15  24769678.999     -356925.952       -3859.163           0.232  
G18  20627545.896       -6040.318         -87.327           0.255  
G23  21997346.064      -29152.663       -1444.972           0.255  
G24  22278821.243      -42153.509        -586.308           0.252  
G25  25854443.418       15917.803        8466.737           0.227  
G27  23534006.230      114358.880       13672.005           0.244  
G29  24172594.317     -202821.471       -2933.316           0.240  
> 2022 01 01 00 02 33.5688020  0  8                     
G10  22534513.843                                           0.254  
G15  24769750.366                                           0.232  
G18  20627547.686                                           0.255  
G23  21997354.583                                           0.255  
G24  22278830.056      -42211.767        -588.760           0.252  
G25  25854440.364                                           0.227  
G27  23533970.053                                           0.243  
G29  24172661.036                                           0.240  
> 2022 01 01 00 02 33.6688020  0  8                     
G10  22534506.993       61229.523       -2339.895           0.254  
G15  24769812.271     -357622.014        3227.892           0.232  
G18  20627549.399       -6058.046        -106.101           0.255  
G23  21997365.243      -29228.103        -640.365           0.255  
G24  22278842.216      -42270.831        -586.513           0.252  
G25  25854437.150       15962.842       10112.656           0.226  
G27  23533934.487      114674.188       -6166.800           0.244  
G29  24172727.750     -203528.483       -2885.631           0.239  
> 2022 01 01 00 02 33.7688020  0  8                     
G10  22534496.180                                           0.255  
G15  24769879.858     -357968.075       -3588.456           0.232  
G18  20627551.218                                           0.255  
G23  21997374.664                                           0.255  
G24  22278853.753      -42329.062        -525.298           0.252  
G25  25854434.514                                           0.227  
G27  23533900.155                                           0.243  
G29  24172797.129     -203882.235       -3569.448           0.240  
> 2022 01 01 00 02 33.8688020  0  8                     
G10  22534487.840       61353.424       35097.227           0.254  
G15  24769945.046     -358317.455       -3541.348           0.232  
G18  20627552.938       -6075.890        -306.659           0.255  
G23  21997381.277      -29301.716        -446.619           0.255  
G24  22278865.617      -42388.274        -723.517           0.252  
G25  25854428.738       16005.516         367.987           0.227  
G27  23533866.956      115003.463        1346.048           0.242  
G29  24172865.864     -204238.084       -3692.005           0.239  
> 2022 01 01 00 02 33.9688020  0  8                     
G10  22534474.351                                           0.254  
G15  24770012.316                                           0.232  
G18  20627554.402                                           0.255  
G23  21997387.412                                           0.255  
G24  22278876.907                                           0.252  
G25  25854423.871       16034.369         191.622           0.227  
G27  23533839.006                                           0.242  
G29  24172932.118     -204591.083       -3540.586           0.239  
> 2022 01 01 00 02 34.0688020  0  8                     
G10  22534464.973                                           0.254  
G15  24770088.519                                           0.231  
G18  20627556.175                                           0.255  
G23  21997393.313                                           0.255  
G24  22278886.658                                           0.252  
G25  25854418.937                                           0.227  
G27  23533811.198                                           0.243  
G29  24173001.524                                           0.239  
> 2022 01 01 00 02 34.1688020  0  8                     
G10  22534458.425                                           0.255  
G15  24770144.562                                           0.231  
G18  20627557.849                                           0.255  
G23  21997400.361                                           0.255  
G24  22278898.807                                           0.252  
G25  25854415.168       16073.164         177.702           0.227  
G27  23533783.299                                           0.243  
G29  24173064.822                                           0.240  
> 2022 01 01 00 02 34.2688020  0  8                     
G10  22534448.641       61531.893        1708.735           0.254  
G15  24770213.594     -359709.135       -2547.781           0.231  
G18  20627559.669       -6111.328        -116.462           0.255  
G23  21997407.359      -29451.711        -798.370           0.255  
G24  22278910.647      -42623.643       -1817.972           0.252  
G25  25854411.523       16095.467         124.975           0.227  
G27  23533748.982      115655.326        3020.507           0.243  
G29  24173133.963     -205655.595       -3558.854           0.239  
> 2022 01 01 00 02 34.3688020  0  8                     
G10  22534440.197       61581.294         683.103           0.254  
G15  24770278.784     -360058.427       -3698.664           0.231  
G18  20627561.178       -6120.213         -87.914           0.255  
G23  21997415.683      -29489.059        -473.245           0.255  
G24  22278921.698      -42682.197        -847.378           0.252  
G25  25854406.683       16116.853       -2218.214           0.227  
G27  23533716.359      115816.889        2621.398           0.243  
G29  24173198.692     -206010.010       -3321.959           0.239  
> 2022 01 01 00 02 34.4688020  0  8                     
G10  22534429.519                                           0.255  
G15  24770343.793                                           0.232  
G18  20627562.873                                           0.255  
G23  21997423.552                                           0.255  
G24  22278931.990                                           0.252  
G25  25854402.901                                           0.227  
G27  23533686.732                                           0.243  
G29  24173272.321     -206363.289       -3564.988           0.239  
> 2022 01 01 00 02 34.5688020  0  8                     
G10  22534420.306                                           0.254  
G15  24770407.602                                           0.232  
G18  20627564.442                                           0.255  
G23  21997431.155                                           0.255  
G24  22278942.832                                           0.252  
G25  25854397.281                                           0.227  
G27  23533653.939                                           0.242  
G29  24173336.420                                           0.240  
> 2022 01 01 00 02 34.6688020  0  8                     
G10  22534411.830       61732.322        1449.675           0.254  
G15  24770476.797     -361103.244       -3408.701           0.232  
G18  20627567.947       -6146.940         -73.221           0.255  
G23  21997436.999      -29601.748        -378.928           0.255  
G24  22278954.336      -42857.723        -450.155           0.252  
G25  25854394.080       16185.739         -17.492           0.226  
G27  23533623.018      116304.546        1621.192           0.242  
G29  24173401.365     -207073.242       -3319.895           0.240  
> 2022 01 01 00 02 34.7688020  0  8                     
G10  22534400.650       61781.953         412.962           0.255  
G15  24770541.992     -361451.643       -3791.166           0.232  
G18  20627567.964       -6155.858        -129.571           0.255  
G23  21997442.955      -29639.200        -392.964           0.255  
G24  22278965.549      -42916.150        -408.609           0.252  
G25  25854390.542       16208.510           6.128           0.227  
G27  23533594.839      116466.884        1197.308           0.242  
G29  24173471.731     -207427.774       -3425.176           0.240  
> 2022 01 01 00 02 34.8688020  0  8                     
G10  22534392.858       61831.720        -201.323           0.254  
G15  24770602.187     -361799.277       -2494.344           0.232  
G18  20627569.909       -6164.796        -137.274           0.255  
G23  21997449.298      -29676.609        -461.651           0.255  
G24  22278976.508      -42975.231        -576.314           0.252  
G25  25854385.962       16231.217         695.571           0.227  
G27  23533564.355      116629.899        1852.353           0.243  
G29  24173538.632     -207782.390       -3478.790           0.239  
> 2022 01 01 00 02 34.9688020  0  8                     
G10  22534381.050       61882.307         509.537           0.254  
G15  24770677.246     -362147.827       -3484.628           0.232  
G18  20627571.378       -6173.701        -108.070           0.255  
G23  21997462.664      -29714.293        -350.044           0.255  
G24  22278988.356      -43033.977        -585.428           0.252  
G25  25854381.486       16253.863         375.946           0.227  
G27  23533523.849      116792.301        1574.690           0.244  
G29  24173605.979     -208136.757       -3706.352           0.239  
> 2022 01 01 00 02 35.0688020  0  8                     
G10  22534370.068                                           0.254  
G15  24770740.236     -362494.764       -3505.640           0.232  
G18  20627573.351                                           0.255  
G23  21997462.318                                           0.255  
G24  22278999.829                                           0.252  
G25  25854378.170                                           0.227  
G27  23533508.169                                           0.243  
G29  24173672.902                                           0.240  
> 2022 01 01 00 02 35.1688020  0  8                     
G10  22534362.863                                           0.254  
G15  24770809.208     -362842.923       -3466.915           0.232  
G18  20627574.660                                           0.255  
G23  21997466.919                                           0.255  
G24  22279011.435                                           0.252  
G25  25854373.494                                           0.227  
G27  23533487.429                                           0.241  
G29  24173743.190                                           0.239  
> 2022 01 01 00 02 35.3688020  0  8                     
G10  22534342.485       62082.784        1790.194           0.254  
G15  24770942.148     -363540.698       -3235.315           0.231  
G18  20627578.060       -6209.438         -90.398           0.255  
G23  21997485.039      -29863.948        -170.687           0.255  
G24  22279034.404      -43269.003        -588.448           0.252  
G25  25854362.824       16344.113         124.846           0.226  
G27  23533408.215      117443.229        2623.771           0.244  
G29  24173875.215     -209553.969       -2958.192           0.239  
> 2022 01 01 00 02 35.4688020  0  8                     
G10  22534335.106                                           0.255  
G15  24771006.111                                           0.231  
G18  20627580.138                                           0.255  
G23  21997494.327                                           0.255  
G24  22279043.190                                           0.252  
G25  25854359.530                                           0.227  
G27  23533377.766                                           0.244  
G29  24173942.221                                           0.239  
> 2022 01 01 00 02 35.5688020  0  8                     
G10  22534326.615       62182.792        -433.233           0.254  
G15  24771065.828     -364236.920       -3378.698           0.232  
G18  20627581.727       -6227.445        -206.812           0.255  
G23  21997498.646      -29939.098         -62.600           0.255  
G24  22279053.481      -43386.915       -1480.822           0.252  
G25  25854355.401       16388.888         -96.916           0.226  
G27  23533351.426      117768.914        4661.037           0.244  
G29  24174014.848     -210263.545       -3698.250           0.239  
> 2022 01 01 00 02 35.6688020  0  8                     
G10  22534313.961       62233.721        1156.262           0.254  
G15  24771143.577     -364585.334       -3610.242           0.232  
G18  20627582.744       -6236.245          -8.206           0.255  
G23  21997507.938      -29976.657        -378.514           0.255  
G24  22279066.024      -43445.376        -620.785           0.252  
G25  25854352.066       16411.640         586.077           0.226  
G27  23533315.299      117930.190        1581.594           0.243  
G29  24174079.240     -210617.665       -3391.729           0.239  
> 2022 01 01 00 02 35.7688020  0  8                     
G10  22534304.024       62284.689        2518.926           0.255  
G15  24771204.007     -364933.717       -3896.585           0.232  
G18  20627585.450       -6245.271         -59.773           0.255  
G23  21997514.849      -30014.237        -479.606           0.255  
G24  22279078.944      -43504.131        -637.472           0.252  
G25  25854347.593       16434.209          38.183           0.227  
G27  23533287.281      118093.408        2687.695           0.243  
G29  24174145.995     -210972.060       -3351.812           0.239  
> 2022 01 01 00 02 35.8688020  0  8                     
G10  22534296.709                                           0.254  
G15  24771272.538                                           0.232  
G18  20627586.342                                           0.255  
G23  21997521.419      -30051.363        -366.484           0.255  
G24  22279088.369                                           0.252  
G25  25854342.595       16457.078         181.876           0.227  
G27  23533254.398                                           0.243  
G29  24174214.365                                           0.239  
> 2022 01 01 00 02 36.0688020  0  8                     
G10  22534276.108       62433.553          86.442           0.254  
G15  24771405.511     -365978.378       -3897.797           0.231  
G18  20627590.278       -6272.174         -90.404           0.255  
G23  21997536.796      -30126.298         -49.711           0.255  
G24  22279112.020      -43680.406        -403.810           0.252  
G25  25854333.898       16502.004         134.326           0.227  
G27  23533190.708      118580.800        2052.708           0.243  
G29  24174348.884     -212034.867       -2870.059           0.239  
> 2022 01 01 00 02 36.1688020  0  8                     
G10  22534267.723                                           0.254  
G15  24771466.038                                           0.232  
G18  20627591.763                                           0.255  
G23  21997543.797      -30163.870        -367.972           0.255  
G24  22279121.262                                           0.252  
G25  25854331.123                                           0.227  
G27  23533160.206      118742.011        1600.924           0.242  
G29  24174416.442                                           0.239  
> 2022 01 01 00 02 36.2688020  0  8                     
G10  22534259.140       62533.976        -283.732           0.254  
G15  24771535.186     -366674.716       -3813.582           0.231  
G18  20627593.744       -6290.155        -160.572           0.255  
G23  21997552.750      -30201.573        -349.463           0.255  
G24  22279133.250      -43798.074        -295.859           0.252  
G25  25854324.864       16547.286         -28.011           0.227  
G27  23533126.358      118905.205        1640.011           0.241  
G29  24174481.645     -212744.258       -3509.056           0.240  
> 2022 01 01 00 02 36.3688020  0  8                     
G10  22534247.289       62584.467         535.052           0.254  
G15  24771603.754     -367022.655       -3465.357           0.232  
G18  20627595.248       -6299.089           7.519           0.255  
G23  21997559.361      -30239.096        -371.059           0.255  
G24  22279145.144      -43857.007        -680.449           0.252  
G25  25854320.338       16570.257         783.187           0.227  
G27  23533096.177      119067.939        1755.261           0.240  
G29  24174549.397     -213098.747       -3605.783           0.240  
> 2022 01 01 00 02 36.6688020  0  8                     
G10  22534218.184       62736.270        1863.779           0.254  
G15  24771803.335     -368067.817       -3017.879           0.232  
G18  20627600.338       -6326.116         -97.097           0.255  
G23  21997581.044      -30351.839       -1181.451           0.255  
G24  22279179.564      -44033.755        -648.835           0.252  
G25  25854307.059       16637.715          72.791           0.226  
G27  23533001.823      119555.990        1160.096           0.242  
G29  24174753.571     -214162.085       -3733.428           0.239  
> 2022 01 01 00 02 36.8688020  0  8                     
G10  22534199.236                                           0.254  
G15  24771935.146                                           0.232  
G18  20627603.750                                           0.255  
G23  21997596.901                                           0.255  
G24  22279200.660      -44150.787        -578.252           0.252  
G25  25854299.323                                           0.227  
G27  23532937.439                                           0.243  
G29  24174889.188                                           0.240  
> 2022 01 01 00 02 36.9688020  0  8                     
G10  22534190.395       62885.478         567.836           0.254  
G15  24771999.986                                           0.231  
G18  20627605.083                                           0.255  
G23  21997600.515                                           0.255  
G24  22279212.366                                           0.252  
G25  25854294.506                                           0.227  
G27  23532912.902                                           0.244  
G29  24174958.938                                           0.239  
> 2022 01 01 00 02 37.0688020  0  8                     
G10  22534182.274                                           0.255  
G15  24772066.165                                           0.232  
G18  20627606.954                                           0.255  
G23  21997607.464                                           0.255  
G24  22279223.614      -44268.517        -550.082           0.252  
G25  25854290.805                                           0.227  
G27  23532882.354                                           0.245  
G29  24175024.593                                           0.239  
> 2022 01 01 00 02 37.2688020  0  8                     
G10  22534161.288       63035.624          41.644           0.254  
G15  24772198.322     -370156.442       -3386.022           0.232  
G18  20627610.715       -6380.274         -92.507           0.255  
G23  21997621.975      -30576.493        -426.105           0.255  
G24  22279246.805      -44386.688        -494.042           0.252  
G25  25854281.383       16773.894         562.928           0.227  
G27  23532818.303      120530.411        1867.518           0.245  
G29  24175157.366     -216288.690       -3653.793           0.239  
> 2022 01 01 00 02 37.4688020  0  8                     
G10  22534141.796       63136.341         852.705           0.255  
G15  24772333.667     -370852.810       -3420.146           0.232  
G18  20627614.204       -6398.354         -91.704           0.255  
G23  21997634.428      -30651.474        -374.662           0.255  
G24  22279268.144      -44504.470        -586.964           0.252  
G25  25854273.885       16818.772        -556.912           0.227  
G27  23532763.884      120855.080        1622.912           0.243  
G29  24175292.958     -216996.810       -2887.958           0.240  
> 2022 01 01 00 02 37.5688020  0  8                     
G10  22534134.043                                           0.254  
G15  24772399.686                                           0.232  
G18  20627615.749                                           0.255  
G23  21997642.188                                           0.255  
G24  22279279.194                                           0.252  
G25  25854270.094                                           0.227  
G27  23532729.683                                           0.242  
G29  24175358.972                                           0.239  
> 2022 01 01 00 02 37.6688020  0  8                     
G10  22534122.734       63236.505         610.649           0.254  
G15  24772464.122     -371549.307       -3652.389           0.231  
G18  20627617.544       -6416.393           4.781           0.255  
G23  21997650.003      -30726.413        -395.141           0.255  
G24  22279289.419      -44622.367        -841.687           0.252  
G25  25854265.576       16864.088        -615.225           0.227  
G27  23532697.740      121180.292        2174.826           0.243  
G29  24175428.339     -217705.815       -2619.616           0.239  
> 2022 01 01 00 02 37.7688020  0  8                     
G10  22534113.773                                           0.254  
G15  24772529.634                                           0.231  
G18  20627619.729                                           0.255  
G23  21997657.954                                           0.255  
G24  22279302.173                                           0.252  
G25  25854259.453                                           0.227  
G27  23532666.655                                           0.243  
G29  24175493.373                                           0.239  
> 2022 01 01 00 02 37.8688020  0  8                     
G10  22534103.593       63337.300        1567.732           0.254  
G15  24772598.257     -372245.686       -3476.510           0.231  
G18  20627620.852       -6434.489          46.192           0.255  
G23  21997664.516      -30801.459        -443.048           0.255  
G24  22279315.311      -44740.230        -809.499           0.252  
G25  25854255.387       16909.976          51.465           0.227  
G27  23532637.556      121504.697        1255.373           0.243  
G29  24175560.725     -218415.128       -3616.614           0.239  
> 2022 01 01 00 02 38.0688020  0  8                     
G10  22534086.327       63437.440        1208.840           0.255  
G15  24772729.241     -372942.122       -3453.536           0.231  
G18  20627624.601       -6452.629          18.503           0.255  
G23  21997677.875      -30876.111         -73.628           0.255  
G24  22279334.681      -44857.935        -619.802           0.252  
G25  25854248.891       16955.419         423.327           0.227  
G27  23532571.578      121829.832        1901.707           0.244  
G29  24175701.067     -219123.969       -3619.396           0.239  
> 2022 01 01 00 02 38.1688020  0  8                     
G10  22534076.932                                           0.254  
G15  24772794.721     -373288.900       -3462.188           0.231  
G18  20627626.034                                           0.255  
G23  21997686.902                                           0.255  
G24  22279344.857      -44916.452        -563.534           0.252  
G25  25854243.992                                           0.226  
G27  23532544.130                                           0.243  
G29  24175765.911                                           0.240  
> 2022 01 01 00 02 38.2688020  0  8                     
G10  22534066.665                                           0.254  
G15  24772863.626                                           0.231  
G18  20627627.192                                           0.255  
G23  21997694.143                                           0.255  
G24  22279359.597                                           0.252  
G25  25854237.345                                           0.227  
G27  23532510.545                                           0.243  
G29  24175831.078     -219831.490       -3467.497           0.240  
